~Version Information Block
 VERS.                2.00:     CWLS LOG ASCII STANDARD - VERSION 2.000000
 WRAP.                  NO:     One Line Per Depth Step
#
~Well Information Block
#MNEM.UNIT                     Data                         Information
#----------   ------------------------------------------   ----------------
 STRT.M                                        183.125:
 STOP.M                                       2134.000:
 STEP.M                                          0.125:
 NULL.                                        -999.250:
 COMP.                                   ²â¾®Êý¾Ý¿âµ¼³ö:     COMPANY 
 WELL.                                        ¹ÂÄÏ152-05:     Well 
 FLD .                                                :     Field 
 LOC .                                                :     LOCATION
 CNTY.                                                :     COUNTY
 STAT.                                                :     STATE
 CTRY.                                                :     COUNTRY
 SRVC.                                                :     SERVICE COMPANY
 DATE.                                                :     DATE
 API .                                                :     API NUMBER
#
~Curve Information Block
#MNEM.UNIT       API CODE      Curve Description
#----------    -------------   -------------------
 DEPT.M                    :   Depth in Meters
 AC  .Î¢Ãë/Ã×                      :   AC
 CAL .ÀåÃ×                      :   CAL
 CAL .ÀåÃ×                      :   CAL
 COND.ºÁÄ·Å·/Ã×                      :   COND
 GR  .Î¢Â×ÇÙ/Ð¡Ê±                      :   GR
 GR  .Î¢Â×ÇÙ/Ð¡Ê±                      :   GR
 RLML.Å·Ä·Ã×                      :   RLML
 RLML.Å·Ä·Ã×                      :   RLML
 RNML.Å·Ä·Ã×                      :   RNML
 RNML.Å·Ä·Ã×                      :   RNML
 R04 .Å·Ä·Ã×                      :   R04
 R25 .Å·Ä·Ã×                      :   R25
 R4  .Å·Ä·Ã×                      :   R4
 SP  .ºÁ·ü                      :   SP
 SP  .ºÁ·ü                      :   SP
#
~A  DEPTH          AC        CAL        CAL       COND         GR         GR       RLML       RLML       RNML       RNML        R04        R25         R4         SP         SP
# ...
   1298.625    376.032   -999.250     23.722    287.280      8.337   -999.250      0.624   -999.250   -999.250      1.030      1.840      2.466      2.018    119.607    119.953
   1298.750    378.460   -999.250     24.094    286.640      7.818   -999.250      0.670   -999.250   -999.250      0.792      1.885      2.491      2.056    119.759    119.950
   1298.875    389.119   -999.250     23.870    286.000      8.371   -999.250      0.355   -999.250   -999.250      0.788      1.939      2.492      2.121    119.765    119.936
   1299.000    398.355   -999.250     23.348    286.000      7.455   -999.250      0.701   -999.250   -999.250      0.689      1.963      2.440      2.174    119.759    120.111
   1299.125    401.538   -999.250     22.789    286.640      7.587   -999.250      0.359   -999.250   -999.250      0.739      1.997      2.370      2.178    119.924    120.106
   1299.250    413.066   -999.250     22.565    285.360      7.717   -999.250      0.593   -999.250   -999.250      0.720      1.994      2.286      2.207    119.918    120.143
   1299.375    430.588   -999.250     22.545    283.440      7.423   -999.250      0.424   -999.250   -999.250      0.676      2.021      2.203      2.176    119.923    120.265
   1299.500    449.048   -999.250     22.455    280.880      7.879   -999.250      0.571   -999.250   -999.250      0.669      2.017      2.119      2.178    120.076    120.272
   1299.625    449.048   -999.250     22.569    277.680      8.321   -999.250      0.427   -999.250   -999.250      0.762      2.046      2.060      2.168    120.082    120.281
   1299.750    431.802   -999.250     22.712    273.840      7.398   -999.250      0.740   -999.250   -999.250      0.797      2.065      2.059      2.157    120.076    120.403
   1299.875    418.573   -999.250     22.969    269.407      7.745   -999.250      0.439   -999.250   -999.250      0.781      2.077      2.096      2.146    120.082    120.425
   1300.000    407.439   -999.250     23.094    266.489      7.978   -999.250      0.662   -999.250   -999.250      0.877      2.115      2.236      2.135    119.997    120.513
   1300.125    398.889   -999.250     23.092    264.223      7.390   -999.250      0.438   -999.250   -999.250      0.948      2.174      2.377      2.125    119.924    120.584
   1300.250    402.532   -999.250     23.099    262.930      7.869   -999.250      0.699   -999.250   -999.250      0.761      2.228      2.492      2.114    120.076    120.591
   1300.375    410.782   -999.250     23.025    261.040      8.068   -999.250      1.095   -999.250   -999.250      0.818      2.304      2.394      2.103    120.083    120.594
   1300.500    419.206   -999.250     22.796    259.760      7.508   -999.250      0.627   -999.250   -999.250      0.922      2.409      2.246      2.092    120.075    120.596
   1300.625    427.460   -999.250     22.699    257.840      7.006   -999.250      0.363   -999.250   -999.250      1.169      2.486      2.186      2.080    120.243    120.592
   1300.750    433.175   -999.250     22.659    254.000      6.758   -999.250      0.892   -999.250   -999.250      0.975      2.580      2.185      2.056    120.233    120.769
   1300.875    441.429   -999.250     22.630    248.381      7.126   -999.250      0.674   -999.250   -999.250      0.553      2.633      2.569      2.051    120.244    120.755
   1301.000    443.968   -999.250     22.871    241.279      6.779   -999.250      0.434   -999.250   -999.250      0.676      2.645      3.009      2.089    120.232    120.752
   1301.125    435.079   -999.250     23.222    235.433      6.682   -999.250      0.215   -999.250   -999.250      0.680      2.633      3.457      2.154    120.245    120.753
   1301.250    411.771   -999.250     23.473    232.240      7.073   -999.250      1.080   -999.250   -999.250      1.078      2.581      3.903      2.295    120.389    120.752
   1301.375    387.517   -999.250     23.648    234.160      6.673   -999.250      0.729   -999.250   -999.250      1.520      2.517      4.351      2.737    120.246    120.750
   1301.500    354.445   -999.250     23.661    239.920      7.148   -999.250      0.514   -999.250   -999.250      0.881      2.402      4.890      3.179    120.389    120.788
   1301.625    372.217   -999.250     23.280    252.720      7.539   -999.250      0.647   -999.250   -999.250      0.906      2.292      4.734      3.618    120.405    120.906
   1301.750    413.685   -999.250     22.977    265.547      7.275   -999.250      0.727   -999.250   -999.250      0.787      2.146      4.158      3.811    120.389    121.092
   1301.875    455.153   -999.250     23.094    280.240      8.092   -999.250      0.244   -999.250   -999.250      0.419      2.054      3.582      3.314    120.405    121.075
   1302.000    484.626   -999.250     23.749    291.760      7.760   -999.250      0.665   -999.250   -999.250      0.458      1.966      3.008      2.884    120.389    121.044
   1302.125    503.002   -999.250     24.777    309.680      8.397   -999.250      0.348   -999.250   -999.250      0.791      1.885      2.664      2.458    120.404    121.090
   1302.250    511.766   -999.250     25.185    324.400      8.134   -999.250      0.409   -999.250   -999.250      0.621      1.796      2.454      2.082    120.548    121.052
   1302.375    507.064   -999.250     24.500    337.840      7.798   -999.250      0.300   -999.250   -999.250      0.528      1.732      2.242      1.919    120.403    121.067
   1302.500    502.381   -999.250     23.822    346.800      8.536   -999.250      0.465   -999.250   -999.250      0.604      1.637      2.034      1.796    120.391    121.074
   1302.625    498.571   -999.250     22.953    350.000      8.222   -999.250      0.338   -999.250   -999.250      0.621      1.549      1.996      1.696    120.401    121.076
   1302.750    497.937   -999.250     22.522    351.279      8.504   -999.250      0.467   -999.250   -999.250      0.549      1.483      1.963      1.638    120.393    121.090
   1302.875    499.841   -999.250     22.570    351.284      9.018   -999.250      0.589   -999.250   -999.250      0.618      1.449      1.925      1.577    120.400    120.912
   1303.000    501.111   -999.250     22.905    351.941      9.159   -999.250      0.723   -999.250   -999.250      0.733      1.432      1.892      1.510    120.395    120.919
   1303.125    496.032   -999.250     23.209    351.954      8.556   -999.250      0.457   -999.250   -999.250      0.803      1.427      1.853      1.464    120.398    120.930
   1303.250    490.952   -999.250     23.289    350.000      8.687   -999.250      0.560   -999.250   -999.250      0.603      1.427      1.831      1.436    120.396    120.750
   1303.375    486.508   -999.250     23.173    348.080      8.397   -999.250      0.623   -999.250   -999.250      0.684      1.428      1.828      1.445    120.397    120.757
   1303.500    481.429   -999.250     22.950    345.520      8.031   -999.250      0.434   -999.250   -999.250      0.611      1.428      1.832      1.464    120.397    120.578
   1303.625    476.984   -999.250     22.522    342.320      8.614   -999.250      0.228   -999.250   -999.250      0.564      1.428      1.900      1.490    120.396    120.591
   1303.750    471.905   -999.250     21.853    337.811      8.442   -999.250      0.396   -999.250   -999.250      0.428      1.448      2.009      1.550    120.398    120.586
   1303.875    471.905   -999.250     21.291    334.002      8.271   -999.250      0.329   -999.250   -999.250      0.564      1.460      2.109      1.619    120.395    120.466
   1304.000    471.905   -999.250     21.110    328.854      9.193   -999.250      0.484   -999.250   -999.250      0.692      1.498      2.213      1.672    120.240    120.433
   1304.125    470.635   -999.250     21.338    323.719      9.007   -999.250      0.256   -999.250   -999.250      0.770      1.540      2.400      1.748    120.236    120.401
   1304.250    465.556   -999.250     21.624    318.651      8.751   -999.250      0.736   -999.250   -999.250      0.561      1.576      2.587      1.831    120.240    120.283
