~Version Information Block
 VERS.                2.00:     CWLS LOG ASCII STANDARD - VERSION 2.000000
 WRAP.                  NO:     One Line Per Depth Step
#
~Well Information Block
#MNEM.UNIT                     Data                         Information
#----------   ------------------------------------------   ----------------
 STRT.M                                        100.750:
 STOP.M                                       1515.000:
 STEP.M                                          0.125:
 NULL.                                        -999.250:
 COMP.                                   ²â¾®Êý¾Ý¿âµ¼³ö:     COMPANY 
 WELL.                                           ¹ÂÄÏ152:     Well 
 FLD .                                                :     Field 
 LOC .                                                :     LOCATION
 CNTY.                                                :     COUNTY
 STAT.                                                :     STATE
 CTRY.                                                :     COUNTRY
 SRVC.                                                :     SERVICE COMPANY
 DATE.                                                :     DATE
 API .                                                :     API NUMBER
#
~Curve Information Block
#MNEM.UNIT       API CODE      Curve Description
#----------    -------------   -------------------
 DEPT.M                    :   Depth in Meters
 AC  .Î¢Ãë/Ã×                      :   AC
 CAL .ÀåÃ×                      :   CAL
 CAL .ÀåÃ×                      :   CAL
 COND.mS/m                      :   COND
 RLML.Å·Ä·Ã×                      :   RLML
 RNML.Å·Ä·Ã×                      :   RNML
 R04 .Å·Ä·Ã×                      :   R04
 R25 .Å·Ä·Ã×                      :   R25
 R4  .Å·Ä·Ã×                      :   R4
 SP  .ºÁ·ü                      :   SP
 SP  .ºÁ·ü                      :   SP
#
~A  DEPTH          AC        CAL        CAL       COND       RLML       RNML        R04        R25         R4         SP         SP
# ...
   1069.125    437.148   -999.250     32.323    259.554      1.212      1.290      2.933      4.164      3.785    114.973    127.888
   1069.250    426.918   -999.250     32.440    253.185      1.214      1.341      3.001      4.272      3.869    114.834    127.727
   1069.375    422.442   -999.250     32.609    247.452      1.212      1.392      3.066      4.369      3.977    114.892    127.731
   1069.500    428.197   -999.250     32.746    242.357      1.223      1.444      3.117      4.502      4.122    114.852    127.726
   1069.625    432.673   -999.250     32.730    238.535      1.276      1.496      3.149      4.600      4.286    114.827    127.733
   1069.750    439.706   -999.250     32.551    237.261      1.335      1.552      3.143      4.680      4.406    114.654    127.883
   1069.875    447.379   -999.250     32.334    240.446      1.367      1.631      3.093      4.703      4.498    114.627    128.210
   1070.000    454.092   -999.250     32.026    244.904      1.378      1.708      3.068      4.718      4.591    114.531    128.279
   1070.125    456.330   -999.250     31.775    248.726      1.295      1.674      3.018      4.651      4.628    114.306    128.211
   1070.250    448.977   -999.250     32.075    253.185      1.132      1.429      2.987      4.577      4.623    114.303    128.516
   1070.375    446.100   -999.250     32.495    260.191      1.041      1.178      2.873      4.446      4.541    114.526    128.529
   1070.500    459.207   -999.250     33.008    267.197      1.017      1.161      2.792      4.321      4.427    114.675    128.675
   1070.625    475.831   -999.250     33.253    274.204      1.054      1.190      2.705      4.241      4.283    114.830    128.847
   1070.750    500.767   -999.250     33.429    279.936      1.099      1.224      2.607      4.142      4.158    115.107    128.992
   1070.875    522.826   -999.250     33.394    286.306      1.150      1.259      2.529      4.113      4.029    115.421    129.163
   1071.000    535.934   -999.250     33.418    294.586      1.194      1.292      2.452      4.066      3.958    115.800    129.310
   1071.125    545.844   -999.250     33.637    301.592      1.200      1.290      2.398      4.036      3.912    115.941    129.321
   1071.250    551.279   -999.250     34.012    307.962      1.131      1.213      2.339      4.015      3.897    116.100    129.470
   1071.375    555.754   -999.250     34.468    314.331      0.995      1.094      2.293      4.036      3.870    116.213    129.478
   1071.500    559.271   -999.250     34.431    320.064      0.919      0.955      2.261      4.015      3.829    116.247    129.471
   1071.625    560.550   -999.250     33.779    324.522      0.914      0.995      2.223      3.985      3.798    116.429    129.635
   1071.750    560.230   -999.250     33.038    330.892      0.931      1.039      2.196      3.964      3.746    116.424    129.631
   1071.875    560.550   -999.250     32.356    334.713      0.973      1.085      2.171      3.909      3.695    116.426    129.476
   1072.000    559.910   -999.250     32.086    335.987      1.003      1.133      2.160      3.810      3.660    116.419    129.474
   1072.125    559.271   -999.250     32.006    338.535      1.031      1.155      2.145      3.755      3.607    116.297    129.475
   1072.250    557.992   -999.250     31.975    340.446      1.066      1.178      2.150      3.707      3.584    116.263    129.475
   1072.375    557.353   -999.250     31.634    341.720      1.097      1.201      2.165      3.691      3.537    116.270    129.474
   1072.500    557.353   -999.250     30.574    341.720      1.129      1.211      2.167      3.656      3.511    116.265    129.475
   1072.625    556.714   -999.250     29.602    339.809      1.171      1.210      2.167      3.679      3.514    116.388    129.475
   1072.750    556.074   -999.250     29.579    338.535      1.176      1.224      2.167      3.681      3.513    116.228    129.316
   1072.875    556.074   -999.250     29.068    337.261      1.186      1.237      2.167      3.679      3.511    116.405    129.317
   1073.000    555.115   -999.250     28.527    336.624      1.196      1.261      2.167      3.706      3.512    116.419    129.316
   1073.125    554.156   -999.250     28.164    335.987      1.213      1.262      2.197      3.704      3.532    116.428    129.318
   1073.250    552.877   -999.250     28.710    336.624      1.209      1.270      2.195      3.706      3.557    116.415    129.156
   1073.375    550.959   -999.250     29.533    337.261      1.204      1.273      2.196      3.704      3.618    116.275    129.161
   1073.500    549.041   -999.250     30.246    337.898      1.210      1.288      2.182      3.705      3.668    116.225    129.314
   1073.625    546.483   -999.250     30.868    337.898      1.212      1.285      2.170      3.704      3.722    116.274    129.162
   1073.750    543.926   -999.250     31.368    337.898      1.202      1.288      2.167      3.705      3.785    116.260    129.154
   1073.875    541.368   -999.250     31.561    338.535      1.199      1.274      2.167      3.705      3.849    116.270    129.163
   1074.000    540.090   -999.250     31.604    337.580      1.196      1.271      2.139      3.679      3.914    116.299    129.153
   1074.125    538.171   -999.250     31.426    336.624      1.184      1.263      2.144      3.705      4.000    116.404    129.164
   1074.250    534.974   -999.250     31.171    335.350      1.174      1.255      2.116      3.704      4.070    116.274    129.153
   1074.375    533.056   -999.250     31.036    332.803      1.158      1.250      2.110      3.705      4.143    116.262    129.005
   1074.500    530.499   -999.250     31.003    331.529      1.149      1.250      2.092      3.704      4.178    116.263    129.153
   1074.625    528.581   -999.250     31.201    330.255      1.137      1.250      2.080      3.603      4.172    116.322    129.163
   1074.750    527.302   -999.250     31.531    328.981      1.141      1.245      2.074      3.473      4.083    116.400    129.154
   1074.875    526.023   -999.250     31.895    328.981      1.135      1.243      2.088      3.373      3.972    116.305    129.162
   1075.000    529.220   -999.250     32.165    328.662      1.135      1.249      2.089      3.293      3.849    116.425    129.155
   1075.125    534.335   -999.250     32.358    329.618      1.134      1.249      2.090      3.169      3.685    116.378    129.161
   1075.250    540.090   -999.250     32.361    331.529      1.124      1.263      2.097      3.088      3.575    116.436    129.156
   1075.375    544.565   -999.250     32.227    332.166      1.122      1.263      2.086      3.016      3.482    116.436    129.160
   1075.500    549.680   -999.250     32.047    332.166      1.122      1.263      2.122      2.935      3.400    116.527    129.157
   1075.625    547.762   -999.250     31.948    330.892      1.122      1.277      2.152      2.862      3.307    116.629    129.159
   1075.750    542.008   -999.250     31.664    328.981      1.122      1.276      2.177      2.858      3.213    116.605    129.158
   1075.875    536.893   -999.250     31.316    326.433      1.121      1.261      2.183      2.863      3.170    116.595    129.158
   1076.000    533.056   -999.250     31.025    323.567      1.122      1.264      2.225      2.960      3.075    116.718    129.158
   1076.125    530.499   -999.250     30.907    321.338      1.111      1.236      2.262      2.991      3.049    116.573    129.158
   1076.250    526.662   -999.250     30.830    318.790      1.111      1.228      2.267      3.012      2.983    116.762    129.159
   1076.375    522.187   -999.250     31.039    315.605      1.121      1.216      2.301      3.068      2.933    116.750    129.157
   1076.500    521.547   -999.250     31.170    312.420      1.143      1.209      2.346      3.088      2.891    116.746    129.159
   1076.625    525.384   -999.250     31.360    309.236      1.197      1.235      2.377      3.119      2.867    116.747    129.156
