~Version Information Block
 VERS.                2.00:     CWLS LOG ASCII STANDARD - VERSION 2.000000
 WRAP.                  NO:     One Line Per Depth Step
#
~Well Information Block
#MNEM.UNIT                     Data                         Information
#----------   ------------------------------------------   ----------------
 STRT.M                                        100.750:
 STOP.M                                       1515.000:
 STEP.M                                          0.125:
 NULL.                                        -999.250:
 COMP.                                   ²â¾®Êý¾Ý¿âµ¼³ö:     COMPANY 
 WELL.                                           ¹ÂÄÏ152:     Well 
 FLD .                                                :     Field 
 LOC .                                                :     LOCATION
 CNTY.                                                :     COUNTY
 STAT.                                                :     STATE
 CTRY.                                                :     COUNTRY
 SRVC.                                                :     SERVICE COMPANY
 DATE.                                                :     DATE
 API .                                                :     API NUMBER
#
~Curve Information Block
#MNEM.UNIT       API CODE      Curve Description
#----------    -------------   -------------------
 DEPT.M                    :   Depth in Meters
 AC  .Î¢Ãë/Ã×                      :   AC
 CAL .ÀåÃ×                      :   CAL
 CAL .ÀåÃ×                      :   CAL
 COND.mS/m                      :   COND
 RLML.Å·Ä·Ã×                      :   RLML
 RNML.Å·Ä·Ã×                      :   RNML
 R04 .Å·Ä·Ã×                      :   R04
 R25 .Å·Ä·Ã×                      :   R25
 R4  .Å·Ä·Ã×                      :   R4
 SP  .ºÁ·ü                      :   SP
 SP  .ºÁ·ü                      :   SP
#
~A  DEPTH          AC        CAL        CAL       COND       RLML       RNML        R04        R25         R4         SP         SP
# ...
   1503.750    390.473   -999.250     31.406    521.975      0.950      0.984      1.759      2.346      2.336     94.053   -999.250
   1503.875    401.343   -999.250     31.227    528.344      0.880      0.932      1.775      2.295      2.301     94.139   -999.250
   1504.000    410.614   -999.250     31.241    534.395      0.820      0.843      1.792      2.269      2.290     94.144   -999.250
   1504.125    428.357   -999.250     31.139    534.713      0.763      0.749      1.808      2.245      2.282     94.182   -999.250
   1504.250    434.591   -999.250     30.840    534.076      0.901      0.739      1.824      2.218      2.284     94.356   -999.250
   1504.375    415.617   -999.250     30.045    534.713      1.213      1.085   -999.250      2.194      2.290     94.283   -999.250
   1504.500    408.760   -999.250     27.897    535.987      1.393      1.360   -999.250      2.167      2.310     94.259   -999.250
   1504.625    401.902   -999.250     25.013    539.172      1.232      1.276   -999.250      2.144      2.311     94.159   -999.250
   1504.750    394.949   -999.250     24.096    540.446      1.110      1.164   -999.250      2.115      2.311     94.153   -999.250
   1504.875    391.113   -999.250     23.991    537.261      1.024      1.050   -999.250      2.093      2.294     93.973   -999.250
   1505.000    389.514   -999.250     23.656    531.529      0.991      1.082   -999.250      2.090      2.236     93.912   -999.250
   1505.125    390.473   -999.250     23.040    527.070      1.154      1.154   -999.250      2.067      2.184     93.801   -999.250
   1505.250    391.752   -999.250     22.683    520.701      1.204      1.226   -999.250      2.063      2.138     93.668   -999.250
   1505.375    393.670   -999.250     22.875    513.057      1.153      1.216   -999.250      2.042      2.105     93.923   -999.250
   1505.500    394.949   -999.250     23.118    506.688      1.045      1.119   -999.250      2.037      2.114     94.134   -999.250
   1505.625    393.670   -999.250     23.336    501.592      1.033      1.066   -999.250      2.041      2.117     94.438   -999.250
   1505.750    390.473   -999.250     23.336    496.497      1.085      1.102   -999.250      2.113      2.125     94.842   -999.250
   1505.875    382.801   -999.250     23.177    490.764      1.147      1.142   -999.250      2.245      2.165     95.160   -999.250
   1506.000    376.407   -999.250     22.952    486.943      1.188      1.181   -999.250      2.420      2.212     95.394   -999.250
   1506.125    368.095   -999.250     22.789    483.121      1.201      1.157   -999.250      2.629      2.265     95.366   -999.250
   1506.250    355.946   -999.250     22.811    478.662      1.155      1.126   -999.250      2.958      2.366     95.286   -999.250
   1506.375    342.519   -999.250     22.945    467.834      1.982      1.271   -999.250      3.164      2.561   -999.250   -999.250
   1506.500    323.338   -999.250     23.108    455.096      3.364      1.821   -999.250      3.369      2.847   -999.250   -999.250
   1506.625    300.959   -999.250     23.352    441.083      4.499      4.942   -999.250      3.577      3.276   -999.250   -999.250
   1506.750    283.983   -999.250     23.571    431.131      2.886      3.842   -999.250      3.805      3.654   -999.250   -999.250
   1506.875    265.793   -999.250     23.752    427.707      0.766      1.894   -999.250      3.804      4.136   -999.250   -999.250
   1507.000    295.479   -999.250     24.063    432.166      0.838      0.772   -999.250      3.545      4.577   -999.250   -999.250
   1507.125    327.174   -999.250     24.422    427.707      0.881      0.785   -999.250      3.309      4.835   -999.250   -999.250
   1507.250    398.785   -999.250     24.699    422.970      0.877      0.839   -999.250      3.039      4.182   -999.250   -999.250
   1507.375    395.166   -999.250     24.890    418.571      0.803      0.886   -999.250      2.804      3.410   -999.250   -999.250
   1507.500    387.048   -999.250     25.231    421.895      0.748      0.884   -999.250      2.630      2.750   -999.250   -999.250
   1507.625    378.930   -999.250     25.539    430.255      0.736      0.784   -999.250      2.343      2.278   -999.250   -999.250
   1507.750    375.767   -999.250     25.903    439.809      0.764      0.770   -999.250      1.836      2.041   -999.250   -999.250
   1507.875    385.997   -999.250     26.250    444.904      0.790      0.811   -999.250      1.690      1.908   -999.250   -999.250
   1508.000    393.670   -999.250     26.624    442.357      0.808      0.854   -999.250      1.631      1.818   -999.250   -999.250
   1508.125    406.458   -999.250     27.077    439.172      0.812      0.865   -999.250      1.601      1.769   -999.250   -999.250
   1508.250    426.279   -999.250     27.528    434.713      0.767      0.860   -999.250      1.606      1.741   -999.250   -999.250
   1508.375    438.427   -999.250     27.907    427.707      0.749      0.850   -999.250      1.576      1.699   -999.250   -999.250
   1508.500    428.303   -999.250     27.976    420.701      0.805      0.826   -999.250      1.580   -999.250   -999.250   -999.250
   1508.625    417.327   -999.250     27.875    413.694      0.891      0.865   -999.250      1.564   -999.250   -999.250   -999.250
   1508.750    407.097   -999.250     27.600    407.962      0.968      0.956   -999.250      1.554   -999.250   -999.250   -999.250
   1508.875    396.867   -999.250     26.979    400.955      1.056      1.044   -999.250   -999.250   -999.250   -999.250   -999.250
   1509.000    387.276   -999.250     26.252    395.223      1.112      1.131   -999.250   -999.250   -999.250   -999.250   -999.250
   1509.125    376.407   -999.250     25.743    386.943      1.156      1.186   -999.250   -999.250   -999.250   -999.250   -999.250
   1509.250    366.816   -999.250     25.734    382.484      1.150      1.174   -999.250   -999.250   -999.250   -999.250   -999.250
   1509.375    359.143   -999.250     25.721    378.662      1.133      1.135   -999.250   -999.250   -999.250   -999.250   -999.250
   1509.500    356.905   -999.250     25.674    373.567      1.078      1.098   -999.250   -999.250   -999.250   -999.250   -999.250
   1509.625    358.504   -999.250     25.673    370.382      1.009      1.060   -999.250   -999.250   -999.250   -999.250   -999.250
   1509.750    355.307   -999.250     25.554    372.930      1.006      1.028   -999.250   -999.250   -999.250   -999.250   -999.250
   1509.875    350.192   -999.250     25.476    379.936      1.025      1.022   -999.250   -999.250   -999.250   -999.250   -999.250
   1510.000    346.355   -999.250     25.799    387.580      1.033      0.987   -999.250   -999.250   -999.250   -999.250   -999.250
   1510.125    341.240   -999.250     26.267    393.949      0.964      0.939   -999.250   -999.250   -999.250   -999.250   -999.250
   1510.250    338.043   -999.250     26.737    400.955      0.899      0.850   -999.250   -999.250   -999.250   -999.250   -999.250
   1510.375    336.765   -999.250     27.247    409.236      0.798      0.761   -999.250   -999.250   -999.250   -999.250   -999.250
   1510.500    336.765   -999.250     27.765    413.694      0.738      0.688   -999.250   -999.250   -999.250   -999.250   -999.250
   1510.625    337.019   -999.250     28.192    414.331   -999.250   -999.250   -999.250   -999.250   -999.250   -999.250   -999.250
   1510.750    337.593   -999.250     28.189    414.331   -999.250   -999.250   -999.250   -999.250   -999.250   -999.250   -999.250
   1510.875   -999.250   -999.250     26.931    414.968   -999.250   -999.250   -999.250   -999.250   -999.250   -999.250   -999.250
   1511.000   -999.250   -999.250     26.277    416.242   -999.250   -999.250   -999.250   -999.250   -999.250   -999.250   -999.250
   1511.125   -999.250   -999.250     25.430    420.064   -999.250   -999.250   -999.250   -999.250   -999.250   -999.250   -999.250
   1511.250   -999.250   -999.250     24.570    421.975   -999.250   -999.250   -999.250   -999.250   -999.250   -999.250   -999.250
