~Version Information Block
 VERS.                2.00:     CWLS LOG ASCII STANDARD - VERSION 2.000000
 WRAP.                  NO:     One Line Per Depth Step
#
~Well Information Block
#MNEM.UNIT                     Data                         Information
#----------   ------------------------------------------   ----------------
 STRT.M                                        100.750:
 STOP.M                                       1515.000:
 STEP.M                                          0.125:
 NULL.                                        -999.250:
 COMP.                                   ²â¾®Êý¾Ý¿âµ¼³ö:     COMPANY 
 WELL.                                           ¹ÂÄÏ152:     Well 
 FLD .                                                :     Field 
 LOC .                                                :     LOCATION
 CNTY.                                                :     COUNTY
 STAT.                                                :     STATE
 CTRY.                                                :     COUNTRY
 SRVC.                                                :     SERVICE COMPANY
 DATE.                                                :     DATE
 API .                                                :     API NUMBER
#
~Curve Information Block
#MNEM.UNIT       API CODE      Curve Description
#----------    -------------   -------------------
 DEPT.M                    :   Depth in Meters
 AC  .Î¢Ãë/Ã×                      :   AC
 CAL .ÀåÃ×                      :   CAL
 CAL .ÀåÃ×                      :   CAL
 COND.mS/m                      :   COND
 RLML.Å·Ä·Ã×                      :   RLML
 RNML.Å·Ä·Ã×                      :   RNML
 R04 .Å·Ä·Ã×                      :   R04
 R25 .Å·Ä·Ã×                      :   R25
 R4  .Å·Ä·Ã×                      :   R4
 SP  .ºÁ·ü                      :   SP
 SP  .ºÁ·ü                      :   SP
#
~A  DEPTH          AC        CAL        CAL       COND       RLML       RNML        R04        R25         R4         SP         SP
# ...
   1000.500    436.829   -999.250     38.127    255.096      0.925      1.203      3.106      3.527      3.680    114.048    127.426
   1000.625    428.197   -999.250     37.918    246.815      1.088      1.394      3.169      3.653      3.796    113.830    127.317
   1000.750    431.394   -999.250     37.278    240.446      1.204      1.585      3.210      3.757      3.901    113.701    127.267
   1000.875    439.066   -999.250     36.689    236.624      1.324      1.726      3.250      3.807      3.960    113.741    127.477
   1001.000    441.624   -999.250     35.927    238.535      1.339      1.745      3.296      3.834      4.025    113.814    127.504
   1001.125    440.345   -999.250     35.152    242.994      1.250      1.534      3.287      3.782      4.060    113.987    127.795
   1001.250    437.788   -999.250     35.124    248.726      1.109      1.321      3.272      3.731      4.043    114.283    127.899
   1001.375    435.870   -999.250     35.718    260.191      1.028      1.189      3.204      3.679      3.980    114.617    127.956
   1001.500    441.304   -999.250     36.332    267.197      1.080      1.239      3.145      3.654      3.817    114.765    127.897
   1001.625    452.494   -999.250     36.683    272.930      1.202      1.351      3.065      3.628      3.646    114.937    127.958
   1001.750    463.363   -999.250     36.860    275.478      1.271      1.445      3.010      3.628      3.511    115.135    127.974
   1001.875    476.790   -999.250     36.908    275.478      1.267      1.408      3.015      3.756      3.468    115.320    128.040
   1002.000    486.701   -999.250     36.914    271.656      1.198      1.323      3.083      3.884      3.567    115.140    127.971
   1002.125    496.292   -999.250     36.762    265.924      1.133      1.278      3.175      4.038      3.695    115.148    128.122
   1002.250    501.087   -999.250     36.632    257.006      1.155      1.319      3.279      4.139      3.910    115.149    128.206
   1002.375    496.292   -999.250     36.345    248.089      1.266      1.475      3.369      4.244      4.135    115.116    128.124
   1002.500    483.504   -999.250     36.023    237.261      1.387      1.625      3.422      4.395      4.258    114.958    128.204
   1002.625    469.757   -999.250     35.641    228.981      1.429      1.665      3.448      4.526      4.323    114.824    128.126
   1002.750    456.010   -999.250     35.209    218.335      1.357      1.583      3.428      4.650      4.305    114.862    128.123
   1002.875    442.903   -999.250     35.272    212.420      1.288      1.482      3.338      4.757      4.231    114.928    127.969
   1003.000    426.492   -999.250     36.017    223.567      1.228      1.393      3.252      4.855      4.174    114.993    128.043
   1003.125    416.049   -999.250     36.878    234.713      1.172      1.331      3.138      4.911      4.088    115.117    128.049
   1003.250    431.394   -999.250     37.609    246.815      1.145      1.262      2.985      4.931      4.028    115.143    127.884
   1003.375    460.486   -999.250     38.221    259.554      1.175      1.224      2.818      4.732      3.952    115.353    128.050
   1003.500    497.783   -999.250     38.803    273.567      1.183      1.234      2.659      4.496      3.866    115.490    128.043
   1003.625    526.556   -999.250     38.907    285.669      1.176      1.296      2.494      4.296      3.786    115.795    128.128
   1003.750    546.803   -999.250     37.690    299.682      1.161      1.304      2.384      4.163      3.688    115.857    128.362
   1003.875    565.985   -999.250     36.931    312.420      1.168      1.261      2.276      3.912      3.583    115.926    128.365
   1004.000    573.338   -999.250     35.991    321.338      1.157      1.218      2.245      3.729      3.478    115.928    128.443
   1004.125    574.616   -999.250     34.834    331.210      1.106      1.191      2.236      3.579      3.400    115.948    128.363
   1004.250    575.256   -999.250     33.948    338.217      1.095      1.191      2.240      3.448      3.299    115.887    128.525
   1004.375    575.256   -999.250     33.095    345.541      1.071      1.202      2.278      3.374      3.172    115.845    128.598
   1004.500    575.256   -999.250     32.413    349.682      1.071      1.187      2.278      3.346      3.092    115.947    128.845
   1004.625    573.977   -999.250     32.187    350.318      1.070      1.183      2.295      3.348      3.044    115.913    128.754
   1004.750    572.698   -999.250     32.298    347.771      1.069      1.172      2.244      3.347      3.025    115.795    128.609
   1004.875    570.141   -999.250     32.429    345.223      1.084      1.166      2.245      3.373      3.073    115.915    128.911
   1005.000    568.223   -999.250     32.417    340.446      1.091      1.149      2.242      3.412      3.126    115.853    128.849
   1005.125    565.665   -999.250     32.353    337.580      1.085      1.147      2.219      3.450      3.177    115.949    129.147
   1005.250    564.386   -999.250     32.114    332.803      1.074      1.130      2.220      3.451      3.241    115.939    129.008
   1005.375    564.386   -999.250     31.870    328.344      1.056      1.123      2.243      3.450      3.287    115.946    128.988
   1005.500    564.386   -999.250     31.578    323.567      1.059      1.197      2.271      3.451      3.331    115.762    129.008
   1005.625    565.026   -999.250     31.181    319.745      1.123      1.275      2.298      3.475      3.359    115.654    129.147
   1005.750    565.026   -999.250     30.907    316.242      1.177      1.359      2.295      3.476      3.377    115.623    129.166
   1005.875    565.665   -999.250     30.688    313.057      1.227      1.406      2.321      3.448      3.383    115.624    129.149
   1006.000    566.304   -999.250     30.837    311.783      1.287      1.412      2.346      3.424      3.385    115.625    129.165
   1006.125    566.944   -999.250     31.198    312.420      1.331      1.355      2.379      3.397      3.426    115.624    129.150
   1006.250    567.583   -999.250     31.816    314.331      1.326      1.302      2.426      3.423      3.543    115.627    129.164
   1006.375    566.944   -999.250     32.595    314.968      1.277      1.262      2.444      3.551      3.661    115.641    129.151
   1006.500    565.665   -999.250     33.340    314.331      1.271      1.294      2.449      3.653      3.809    115.464    129.163
   1006.625    563.107   -999.250     34.073    312.420      1.314      1.329      2.449      3.756      3.943    115.468    129.151
   1006.750    561.189   -999.250     34.778    309.236      1.348      1.365      2.449      3.857      4.057    115.465    129.163
   1006.875    558.632   -999.250     35.436    303.503      1.380      1.389      2.449      3.936      4.225    115.443    129.152
   1007.000    555.754   -999.250     35.939    298.726      1.389      1.408      2.449      4.010      4.415    115.267    129.163
   1007.125    554.156   -999.250     36.234    293.949      1.355      1.418      2.449      4.090      4.545    115.273    129.152
   1007.250    552.877   -999.250     36.315    290.127      1.315      1.419      2.472      4.138      4.664    115.156    129.003
   1007.375    552.238   -999.250     36.193    289.490      1.275      1.371      2.452      4.155      4.751    115.158    129.153
   1007.500    553.517   -999.250     35.847    292.675      1.215      1.325      2.400      4.112      4.723    114.967    129.003
   1007.625    556.074   -999.250     35.614    297.771      1.170      1.270      2.377      3.912      4.395    115.148    128.995
   1007.750    559.271   -999.250     35.279    303.503      1.128      1.215      2.344      3.651      4.020    115.141    129.001
   1007.875    562.468   -999.250     34.875    311.146      1.136      1.185      2.299      3.297      3.668    115.144    128.997
   1008.000    565.665   -999.250     34.370    317.516      1.143      1.213      2.291      3.139      3.424    115.151    129.000
