~Version Information Block
 VERS.                2.00:     CWLS LOG ASCII STANDARD - VERSION 2.000000
 WRAP.                  NO:     One Line Per Depth Step
#
~Well Information Block
#MNEM.UNIT                     Data                         Information
#----------   ------------------------------------------   ----------------
 STRT.M                                        183.125:
 STOP.M                                       2134.000:
 STEP.M                                          0.125:
 NULL.                                        -999.250:
 COMP.                                   ²â¾®Êý¾Ý¿âµ¼³ö:     COMPANY 
 WELL.                                        ¹ÂÄÏ152-05:     Well 
 FLD .                                                :     Field 
 LOC .                                                :     LOCATION
 CNTY.                                                :     COUNTY
 STAT.                                                :     STATE
 CTRY.                                                :     COUNTRY
 SRVC.                                                :     SERVICE COMPANY
 DATE.                                                :     DATE
 API .                                                :     API NUMBER
#
~Curve Information Block
#MNEM.UNIT       API CODE      Curve Description
#----------    -------------   -------------------
 DEPT.M                    :   Depth in Meters
 AC  .Î¢Ãë/Ã×                      :   AC
 CAL .ÀåÃ×                      :   CAL
 CAL .ÀåÃ×                      :   CAL
 COND.ºÁÄ·Å·/Ã×                      :   COND
 GR  .Î¢Â×ÇÙ/Ð¡Ê±                      :   GR
 GR  .Î¢Â×ÇÙ/Ð¡Ê±                      :   GR
 RLML.Å·Ä·Ã×                      :   RLML
 RLML.Å·Ä·Ã×                      :   RLML
 RNML.Å·Ä·Ã×                      :   RNML
 RNML.Å·Ä·Ã×                      :   RNML
 R04 .Å·Ä·Ã×                      :   R04
 R25 .Å·Ä·Ã×                      :   R25
 R4  .Å·Ä·Ã×                      :   R4
 SP  .ºÁ·ü                      :   SP
 SP  .ºÁ·ü                      :   SP
#
~A  DEPTH          AC        CAL        CAL       COND         GR         GR       RLML       RLML       RNML       RNML        R04        R25         R4         SP         SP
# ...
   1448.125    332.857   -999.250     33.014    348.080      8.847   -999.250      0.327   -999.250   -999.250      0.576      1.476      2.110      1.765    121.348    120.999
   1448.250    355.584   -999.250     33.247    348.720      8.376   -999.250      0.559   -999.250   -999.250      0.705      1.505      2.196      1.778    121.351    120.828
   1448.375    381.234   -999.250     32.312    349.360      8.185   -999.250      0.290   -999.250   -999.250      0.559      1.504      2.281      1.816    121.348    120.625
   1448.500    402.064   -999.250     32.195    349.360      8.065   -999.250      0.336   -999.250   -999.250      0.379      1.505      2.364      1.850    121.510    120.586
   1448.625    417.302   -999.250     32.772    349.360      7.679   -999.250      0.293   -999.250   -999.250      0.398      1.507      2.363      1.848    121.506    120.592
   1448.750    425.612   -999.250     32.392    350.640      7.902   -999.250      0.456   -999.250   -999.250      0.510      1.458      2.268      1.849    121.511    120.416
   1448.875    421.173   -999.250     32.996    352.560      8.344   -999.250      0.240   -999.250   -999.250      0.693      1.428      2.173      1.822    121.664    120.438
   1449.000    413.425   -999.250     33.574    354.480      8.729   -999.250      0.671   -999.250   -999.250      0.779      1.398      2.080      1.795    121.669    120.561
   1449.125    402.485   -999.250     32.291    356.400      8.346   -999.250      0.355   -999.250   -999.250      0.511      1.372      1.985      1.796    121.664    120.593
   1449.250    389.272   -999.250     31.646    357.680      7.934   -999.250      0.251   -999.250   -999.250      0.329      1.354      1.905      1.794    121.669    120.624
   1449.375    373.091   -999.250     32.705    359.600      7.627   -999.250      0.384   -999.250   -999.250      0.421      1.324      1.955      1.823    121.823    120.743
   1449.500    391.812   -999.250     34.121    360.240      7.316   -999.250      0.638   -999.250   -999.250      0.545      1.325      2.089      1.839    121.668    120.788
   1449.625    422.939   -999.250     35.548    361.520      6.908   -999.250      0.531   -999.250   -999.250      0.698      1.330      2.220      1.826    121.666    120.906
   1449.750    440.629   -999.250     36.940    362.160      7.662   -999.250      0.151   -999.250   -999.250      0.558      1.349      2.314      1.772    121.666    121.090
   1449.875    458.319   -999.250     38.084    361.520      7.263   -999.250      0.315   -999.250   -999.250      0.369      1.350      2.283      1.695    121.668    121.075
   1450.000    470.635   -999.250     39.256    361.520      7.642   -999.250      0.395   -999.250   -999.250      0.427      1.347      2.183      1.642    121.664    121.077
   1450.125    452.116   -999.250     39.947    360.240      8.275   -999.250      0.269   -999.250   -999.250      0.387      1.373      2.076      1.615    121.670    121.210
   1450.250    431.482   -999.250     40.086    357.680      8.013   -999.250      0.434   -999.250   -999.250      0.474      1.406      1.977      1.617    121.821    121.190
   1450.375    410.847   -999.250     38.761    355.760      8.512   -999.250      0.672   -999.250   -999.250      0.679      1.432      1.870      1.643    121.830    121.236
   1450.500    391.723   -999.250     37.235    353.200      8.941   -999.250      0.225   -999.250   -999.250      0.850      1.471      1.772      1.675    121.820    121.235
   1450.625    375.504   -999.250     35.717    349.620      9.334   -999.250      0.501   -999.250   -999.250      0.339      1.503      1.723      1.743    121.671    121.237
   1450.750    376.279   -999.250     33.511    347.440      9.133   -999.250      0.302   -999.250   -999.250      0.572      1.556      1.703      1.849    121.820    121.261
   1450.875    389.190   -999.250     31.637    344.240      8.844   -999.250      0.458   -999.250   -999.250      0.460      1.607      1.871      1.944    121.671    121.174
   1451.000    404.167   -999.250     30.279    341.154      8.325   -999.250      0.704   -999.250   -999.250      0.775      1.666      2.221      2.026    121.663    121.087
   1451.125    417.937   -999.250     30.073    338.540      8.704   -999.250      0.292   -999.250   -999.250      0.455      1.717      2.590      2.086    121.669    121.252
   1451.250    427.460   -999.250     30.138    335.960      9.206   -999.250      0.528   -999.250   -999.250      0.682      1.765      2.529      2.122    121.665    121.235
   1451.375    421.746   -999.250     29.433    335.977      8.528   -999.250      0.748   -999.250   -999.250      0.864      1.783      2.437      2.156    121.667    121.233
   1451.500    414.127   -999.250     28.779    337.244      8.861   -999.250      0.239   -999.250   -999.250      0.538      1.787      2.443      2.149    121.667    121.241
   1451.625    401.305   -999.250     28.607    341.038      9.399   -999.250      0.643   -999.250   -999.250      0.987      1.767      2.516      2.131    121.824    121.363
   1451.750    386.743   -999.250     28.220    344.861      9.818   -999.250      0.911   -999.250   -999.250      0.679      1.733      2.619      2.101    121.827    121.398
   1451.875    372.049   -999.250     27.296    346.788      9.382   -999.250      0.412   -999.250   -999.250      0.792      1.706      2.713      2.101    121.822    121.396
   1452.000    364.896   -999.250     26.260    347.440      8.579   -999.250      1.014   -999.250   -999.250      1.136      1.690      2.749      2.107    121.670    121.394
   1452.125    394.749   -999.250     26.179    346.800      8.312   -999.250      0.834   -999.250   -999.250      1.033      1.685      2.680      2.097    121.662    121.394
   1452.250    417.937   -999.250     27.566    346.160      8.943   -999.250      0.584   -999.250   -999.250      0.805      1.684      2.579      2.084    121.671    121.394
   1452.375    442.064   -999.250     28.521    346.800      8.177   -999.250      0.401   -999.250   -999.250      0.578      1.682      2.473      2.053    121.662    121.394
   1452.500    468.730   -999.250     28.211    348.080      7.653   -999.250      0.264   -999.250   -999.250      0.452      1.716      2.371      1.992    121.512    121.394
   1452.625    499.683   -999.250     28.061    347.440      7.334   -999.250      0.435   -999.250   -999.250      0.392      1.739      2.266      1.930    121.504    121.395
   1452.750    525.873   -999.250     28.932    347.440      6.436   -999.250      0.320   -999.250   -999.250      0.543      1.791      2.164      1.896    121.512    121.393
   1452.875    501.122   -999.250     30.294    342.960      6.559   -999.250      0.410   -999.250   -999.250      0.773      1.866      2.060      1.819    121.504    121.384
   1453.000    465.873   -999.250     29.303    335.920      6.975   -999.250      0.348   -999.250   -999.250      0.463      1.911      1.957      1.762    121.512    121.297
   1453.125    434.415   -999.250     28.053    328.240      6.772   -999.250      3.913   -999.250   -999.250      4.559      1.949      1.853      1.728    121.504    121.384
   1453.250    379.206   -999.250     26.808    318.000      6.480   -999.250      5.260   -999.250   -999.250      5.238      1.993      1.725      1.795    121.670    121.393
   1453.375    409.564   -999.250     25.808    307.120      6.078   -999.250      6.758   -999.250   -999.250      4.298      2.019      1.726      1.901    121.662    121.396
   1453.500    479.206   -999.250     24.929    296.240      5.502   -999.250      3.316   -999.250   -999.250      1.606      2.047      1.908      2.053    121.512    121.390
   1453.625    522.064   -999.250     24.059    283.440      5.876   -999.250      1.612   -999.250   -999.250      1.053      2.050      2.161      2.259    121.503    121.257
   1453.750    486.945   -999.250     23.782    271.920      6.167   -999.250      0.376   -999.250   -999.250      0.425      2.070      2.412      2.386    121.512    121.279
