~Version Information Block
 VERS.                2.00:     CWLS LOG ASCII STANDARD - VERSION 2.000000
 WRAP.                  NO:     One Line Per Depth Step
#
~Well Information Block
#MNEM.UNIT                     Data                         Information
#----------   ------------------------------------------   ----------------
 STRT.M                                        100.750:
 STOP.M                                       1515.000:
 STEP.M                                          0.125:
 NULL.                                        -999.250:
 COMP.                                   ²â¾®Êý¾Ý¿âµ¼³ö:     COMPANY 
 WELL.                                           ¹ÂÄÏ152:     Well 
 FLD .                                                :     Field 
 LOC .                                                :     LOCATION
 CNTY.                                                :     COUNTY
 STAT.                                                :     STATE
 CTRY.                                                :     COUNTRY
 SRVC.                                                :     SERVICE COMPANY
 DATE.                                                :     DATE
 API .                                                :     API NUMBER
#
~Curve Information Block
#MNEM.UNIT       API CODE      Curve Description
#----------    -------------   -------------------
 DEPT.M                    :   Depth in Meters
 AC  .Î¢Ãë/Ã×                      :   AC
 CAL .ÀåÃ×                      :   CAL
 CAL .ÀåÃ×                      :   CAL
 COND.mS/m                      :   COND
 RLML.Å·Ä·Ã×                      :   RLML
 RNML.Å·Ä·Ã×                      :   RNML
 R04 .Å·Ä·Ã×                      :   R04
 R25 .Å·Ä·Ã×                      :   R25
 R4  .Å·Ä·Ã×                      :   R4
 SP  .ºÁ·ü                      :   SP
 SP  .ºÁ·ü                      :   SP
#
~A  DEPTH          AC        CAL        CAL       COND       RLML       RNML        R04        R25         R4         SP         SP
# ...
   1435.125    329.092   -999.250     32.185    381.210      1.083      1.070      2.244      2.705      2.515    110.477    126.297
   1435.250    335.486   -999.250     32.234    382.484      1.085      1.050      2.239      2.680      2.518    111.284    127.099
   1435.375    341.240   -999.250     32.253    383.758      1.072      1.033      2.222      2.731      2.484    112.377    127.883
   1435.500    348.274   -999.250     32.163    383.121      1.055      1.018      2.192      2.731      2.465    113.417    128.367
   1435.625    355.946   -999.250     32.027    383.121      1.036      0.996      2.195      2.706      2.462    113.946    128.676
   1435.750    359.143   -999.250     31.841    382.484      1.029      0.996      2.167      2.756      2.448    114.749    129.159
   1435.875    355.307   -999.250     31.799    381.847      1.019      0.971      2.170      2.783      2.463    115.406    129.310
   1436.000    352.110   -999.250     31.861    381.210      1.013      0.965      2.141      2.807      2.484    116.205    129.158
   1436.125    350.192   -999.250     31.917    379.299      0.994      0.953      2.142      2.808      2.490    116.456    129.309
   1436.250    348.274   -999.250     31.998    377.389      0.978      0.944      2.141      2.807      2.487    116.942    129.315
   1436.375    346.355   -999.250     32.092    374.204      0.970      0.931      2.139      2.834      2.515    117.335    129.150
   1436.500    345.716   -999.250     32.202    371.656      0.952      0.919      2.167      2.858      2.512    117.551    129.156
   1436.625    345.716   -999.250     32.295    369.745      0.932      0.908      2.194      2.808      2.540    117.722    129.148
   1436.750    346.355   -999.250     32.311    367.197      0.928      0.910      2.220      2.833      2.565    117.886    128.998
   1436.875    348.274   -999.250     32.317    364.650      0.929      0.917      2.223      2.885      2.589    117.874    128.831
   1437.000    352.110   -999.250     32.203    362.420      0.929      0.936      2.240      2.885      2.616    117.651    128.682
   1437.125    355.946   -999.250     32.006    360.191      0.932      0.957      2.270      2.910      2.614    117.426    128.621
   1437.250    359.143   -999.250     31.813    359.554      0.944      0.978      2.295      2.910      2.642    117.183    128.525
   1437.375    361.061   -999.250     31.621    359.554      0.971      0.998      2.317      2.884      2.640    117.108    128.355
   1437.500    362.340   -999.250     31.489    358.917      0.994      1.019      2.341      2.911      2.668    116.719    128.209
   1437.625    360.422   -999.250     31.480    359.554      1.010      1.031      2.352      2.935      2.695    116.561    128.196
   1437.750    357.864   -999.250     31.528    360.191      1.022      1.048      2.368      2.911      2.727    116.298    128.051
   1437.875    355.307   -999.250     31.559    360.191      1.041      1.072      2.395      2.935      2.745    116.133    127.878
   1438.000    353.389   -999.250     31.650    359.554      1.072      1.096      2.423      2.962      2.762    116.101    127.733
   1438.125    352.749   -999.250     31.780    358.280      1.081      1.098      2.423      2.986      2.796    116.104    127.719
   1438.250    354.028   -999.250     31.922    357.006      1.079      1.056      2.423      2.988      2.800    116.106    127.415
   1438.375    357.864   -999.250     32.118    355.096      1.061      1.016      2.423      2.986      2.846    116.114    127.243
   1438.500    361.701   -999.250     32.228    353.822      1.037      0.995      2.425      2.988      2.873    116.233    127.096
   1438.625    367.455   -999.250     32.244    351.911      1.073      1.018      2.445      2.986      2.900    116.190    126.927
   1438.750    372.570   -999.250     32.132    351.274      1.129      1.041      2.431      2.988      2.926    116.108    126.618
   1438.875    376.407   -999.250     31.935    351.274      1.126      1.065      2.424      3.012      2.921    116.021    126.451
   1439.000    380.882   -999.250     31.775    353.185      1.083      1.083      2.423      3.014      2.949    115.867    126.298
   1439.125    381.522   -999.250     31.621    356.369      1.058      1.050      2.424      3.012      2.948    115.530    125.976
   1439.250    375.767   -999.250     31.414    358.917      1.067      1.048      2.423      3.014      2.949    115.072    125.820
   1439.375    368.734   -999.250     31.293    360.828      1.110      1.092      2.451      3.037      2.949    114.481    125.660
   1439.500    362.340   -999.250     31.181    360.828      1.159      1.136      2.449      3.040      2.949    113.895    125.341
   1439.625    355.946   -999.250     31.118    360.191      1.162      1.183      2.448      3.037      2.949    113.137    125.026
   1439.750    354.668   -999.250     30.986    360.191      1.149      1.171      2.449      3.040      2.949    112.665    124.704
   1439.875    357.225   -999.250     30.897    360.828      1.132      1.144      2.420      3.063      2.949    112.155    124.392
   1440.000    359.143   -999.250     31.195    360.828      1.120      1.119      2.423      3.065      2.949    111.562    124.067
   1440.125    360.422   -999.250     31.611    361.465      1.096      1.099      2.423      3.063      2.949    111.005    123.758
   1440.250    357.864   -999.250     31.966    362.102      1.083      1.096      2.423      3.040      2.977    110.554    123.431
   1440.375    354.028   -999.250     32.164    362.739      1.070      1.107      2.436      3.037      2.974    110.048    122.965
   1440.500    350.192   -999.250     32.252    364.013      1.071      1.120      2.448      3.040      2.974    109.656    122.636
   1440.625    348.913   -999.250     32.316    365.924      1.064      1.132      2.450      3.037      2.947    109.179    122.173
   1440.750    349.552   -999.250     32.379    366.561      1.058      1.144      2.457      3.065      2.951    108.744    121.999
   1440.875    353.708   -999.250     32.372    367.834      1.058      1.157      2.450      3.088      2.923    108.371    121.538
   1441.000    357.545   -999.250     32.371    369.745      1.058      1.154      2.449      3.065      2.924    108.005    120.887
   1441.125    360.102   -999.250     32.377    372.293      1.058      1.147      2.449      3.089      2.924    107.729    120.745
   1441.250    358.824   -999.250     32.339    374.841      1.058      1.134      2.448      3.090      2.926    107.585    120.410
   1441.375    356.586   -999.250     32.312    377.389      1.058      1.120      2.450      3.089      2.896    107.429    119.951
   1441.500    355.307   -999.250     32.259    379.936      1.059      1.109      2.428      3.065      2.878    107.139    119.616
   1441.625    354.028   -999.250     32.223    383.121      1.045      1.102      2.423      3.063      2.874    106.762    118.998
   1441.750    354.668   -999.250     32.133    386.306      1.046      1.086      2.424      3.064      2.846    106.493    118.665
   1441.875    357.864   -999.250     32.006    390.127      1.032      1.081      2.397      3.038      2.818    106.211    118.203
   1442.000    361.061   -999.250     31.802    394.268      1.034      1.079      2.382      3.039      2.807    105.899    118.031
   1442.125    364.258   -999.250     31.704    397.134      1.019      1.070      2.342      3.038      2.777    105.439    117.673
   1442.250    366.816   -999.250     31.818    401.592      1.017      1.066      2.315      3.013      2.739    105.193    117.239
   1442.375    366.176   -999.250     32.027    405.414      1.007      1.064      2.276      2.987      2.703    104.859    116.928
   1442.500    365.537   -999.250     32.178    409.236      1.006      1.061      2.244      2.987      2.696    104.531    116.845
   1442.625    364.258   -999.250     32.286    411.146      1.007      1.059      2.213      2.962      2.694    104.249    116.608
