~Version Information Block
 VERS.                2.00:     CWLS LOG ASCII STANDARD - VERSION 2.000000
 WRAP.                  NO:     One Line Per Depth Step
#
~Well Information Block
#MNEM.UNIT                     Data                         Information
#----------   ------------------------------------------   ----------------
 STRT.M                                        100.750:
 STOP.M                                       1515.000:
 STEP.M                                          0.125:
 NULL.                                        -999.250:
 COMP.                                   ²â¾®Êý¾Ý¿âµ¼³ö:     COMPANY 
 WELL.                                           ¹ÂÄÏ152:     Well 
 FLD .                                                :     Field 
 LOC .                                                :     LOCATION
 CNTY.                                                :     COUNTY
 STAT.                                                :     STATE
 CTRY.                                                :     COUNTRY
 SRVC.                                                :     SERVICE COMPANY
 DATE.                                                :     DATE
 API .                                                :     API NUMBER
#
~Curve Information Block
#MNEM.UNIT       API CODE      Curve Description
#----------    -------------   -------------------
 DEPT.M                    :   Depth in Meters
 AC  .Î¢Ãë/Ã×                      :   AC
 CAL .ÀåÃ×                      :   CAL
 CAL .ÀåÃ×                      :   CAL
 COND.mS/m                      :   COND
 RLML.Å·Ä·Ã×                      :   RLML
 RNML.Å·Ä·Ã×                      :   RNML
 R04 .Å·Ä·Ã×                      :   R04
 R25 .Å·Ä·Ã×                      :   R25
 R4  .Å·Ä·Ã×                      :   R4
 SP  .ºÁ·ü                      :   SP
 SP  .ºÁ·ü                      :   SP
#
~A  DEPTH          AC        CAL        CAL       COND       RLML       RNML        R04        R25         R4         SP         SP
# ...
   1236.875    460.806   -999.250     34.230    324.522      0.992      1.096      2.449      3.167      3.132    116.271    129.156
   1237.000    463.363   -999.250     34.224    324.522      0.971      1.145      2.452      3.192      3.102    116.269    129.160
   1237.125    465.921   -999.250     34.211    325.159      1.004      1.171      2.423      3.218      3.079    116.266    129.156
   1237.250    467.199   -999.250     34.090    325.159      1.020      1.122      2.419      3.217      3.073    116.260    129.159
   1237.375    465.281   -999.250     34.043    325.796      1.008      1.069      2.399      3.218      3.085    116.253    129.157
   1237.500    461.445   -999.250     34.016    325.796      0.968      1.030      2.398      3.243      3.101    116.267    129.158
   1237.625    455.691   -999.250     33.854    325.796      0.910      0.972      2.393      3.244      3.107    116.100    128.999
   1237.750    451.215   -999.250     33.727    326.433      0.882      0.967      2.373      3.243      3.128    116.109    129.158
   1237.875    446.100   -999.250     33.731    327.707      0.866      0.993      2.367      3.243      3.120    116.106    129.158
   1238.000    442.263   -999.250     34.041    328.662      0.853      0.985      2.350      3.243      3.128    116.106    128.999
   1238.125    439.066   -999.250     34.367    330.892      0.865      1.019      2.320      3.243      3.128    116.106    129.158
   1238.250    437.788   -999.250     34.757    333.439      0.893      1.048      2.313      3.244      3.128    116.106    129.158
   1238.375    436.509   -999.250     34.978    335.350      0.932      1.101      2.294      3.243      3.130    116.106    129.158
   1238.500    435.870   -999.250     34.820    339.172      0.980      1.124      2.293      3.193      3.102    116.107    129.158
   1238.625    436.509   -999.250     34.483    342.357      1.023      1.161      2.274      3.166      3.069    116.109    129.157
   1238.750    437.788   -999.250     34.131    345.541      1.069      1.197      2.270      3.142      3.036    116.074    129.159
   1238.875    440.345   -999.250     33.788    348.726      1.099      1.214      2.242      3.115      3.016    115.950    128.997
   1239.000    442.263   -999.250     33.470    351.274      1.143      1.228      2.242      3.116      2.989    115.947    129.001
   1239.125    446.739   -999.250     33.124    353.822      1.183      1.274      2.223      3.089      2.983    115.772    128.996
   1239.250    451.215   -999.250     32.872    356.369      1.197      1.290      2.217      3.065      2.968    115.775    129.003
   1239.375    453.772   -999.250     32.591    358.917      1.211      1.299      2.218      3.089      2.948    115.833    128.995
   1239.500    454.412   -999.250     32.405    361.465      1.212      1.271      2.218      3.090      2.936    115.785    129.004
   1239.625    453.772   -999.250     32.084    360.191      1.185      1.253      2.218      3.090      2.919    115.786    128.993
   1239.750    453.133   -999.250     31.825    357.643      1.153      1.218      2.218      3.090      2.898    115.777    129.006
   1239.875    451.854   -999.250     31.606    354.459      1.086      1.192      2.219      3.116      2.878    115.833    129.150
   1240.000    450.575   -999.250     31.358    351.274      1.006      1.189      2.239      3.115      2.867    115.784    129.086
   1240.125    449.936   -999.250     31.101    347.771      1.027      1.223      2.245      3.116      2.876    115.786    129.149
   1240.250    449.936   -999.250     30.923    343.631      1.104      1.263      2.264      3.115      2.872    115.785    129.007
   1240.375    450.575   -999.250     30.895    339.172      1.177      1.318      2.269      3.091      2.870    115.965    128.991
   1240.500    451.854   -999.250     30.769    334.713      1.255      1.381      2.274      3.089      2.898    115.947    129.007
   1240.625    449.297   -999.250     30.929    330.892      1.324      1.441      2.290      3.116      2.897    116.121    128.991
   1240.750    442.903   -999.250     31.211    327.070      1.356      1.467      2.317      3.140      2.899    116.108    128.848
   1240.875    437.788   -999.250     31.507    323.248      1.324      1.442      2.351      3.117      2.919    116.104    128.992
   1241.000    431.394   -999.250     31.911    318.790      1.275      1.367      2.385      3.165      2.937    116.105    129.005
   1241.125    425.639   -999.250     32.206    315.924      1.263      1.353      2.418      3.168      2.978    116.113    128.994
   1241.250    419.246   -999.250     32.240    314.331      1.265      1.361      2.458      3.165      2.995    116.235    129.002
   1241.375    413.491   -999.250     32.181    313.057      1.275      1.373      2.494      3.168      2.998    116.269    128.996
   1241.500    409.655   -999.250     31.904    313.694      1.276      1.381      2.540      3.165      3.027    116.268    129.000
   1241.625    403.900   -999.250     31.373    314.331      1.272      1.399      2.571      3.168      3.047    116.266    128.998
   1241.750    402.621   -999.250     30.990    315.924      1.242      1.409      2.570      3.165      3.064    116.263    128.999
   1241.875    405.818   -999.250     30.857    318.471      1.214      1.312      2.579      3.194      3.084    116.140    128.999
   1242.000    408.696   -999.250     30.796    320.701      1.153      1.222      2.579      3.191      3.114    116.248    128.998
   1242.125    410.934   -999.250     30.989    323.248      1.075      1.120      2.551      3.168      3.147    116.114    128.893
   1242.250    414.130   -999.250     31.322    325.159      0.955      1.134      2.551      3.191      3.159    116.105    128.998
   1242.375    415.409   -999.250     31.613    327.070      0.965      1.157      2.531      3.194      3.178    116.105    129.000
   1242.500    416.688   -999.250     32.003    327.707      1.037      1.179      2.520      3.217      3.179    116.106    128.999
   1242.625    414.130   -999.250     32.426    328.344      1.087      1.219      2.503      3.219      3.179    116.107    128.999
   1242.750    409.015   -999.250     33.032    328.344      1.090      1.222      2.474      3.242      3.179    116.103    129.000
   1242.875    403.900   -999.250     33.432    327.707      0.997      1.153      2.475      3.245      3.179    116.087    128.998
   1243.000    399.425   -999.250     33.947    327.070      0.998      1.106      2.477      3.242      3.179    116.267    129.001
   1243.125    394.949   -999.250     34.485    327.070      1.055      1.157      2.449      3.245      3.174    116.087    128.996
   1243.250    392.391   -999.250     34.926    327.070      1.080      1.222      2.452      3.268      3.160    116.103    129.002
   1243.375    394.309   -999.250     35.513    327.707      1.002      1.110      2.424      3.270      3.159    116.107    128.995
   1243.500    399.425   -999.250     35.999    328.344      0.913      1.031      2.419      3.268      3.158    116.107    128.844
   1243.625    402.621   -999.250     36.522    328.981      0.875      0.962      2.399      3.270      3.177    116.105    128.995
   1243.750    403.900   -999.250     36.524    330.255      0.919      0.944      2.397      3.268      3.179    116.096    129.004
   1243.875    401.343   -999.250     35.580    330.892      0.957      0.969      2.397      3.270      3.179    116.006    128.994
   1244.000    399.105   -999.250     35.034    332.166      1.001      0.989      2.398      3.268      3.207    116.087    129.004
   1244.125    398.146   -999.250     34.716    334.076      1.022      1.007      2.397      3.270      3.205    116.024    128.994
   1244.250    396.867   -999.250     34.438    335.987      1.047      1.027      2.396      3.268      3.204    115.935    129.004
   1244.375    396.867   -999.250     34.033    337.898      1.030      1.038      2.377      3.270      3.204    115.940    128.994
