~Version Information Block
 VERS.                2.00:     CWLS LOG ASCII STANDARD - VERSION 2.000000
 WRAP.                  NO:     One Line Per Depth Step
#
~Well Information Block
#MNEM.UNIT                     Data                         Information
#----------   ------------------------------------------   ----------------
 STRT.M                                        100.500:
 STOP.M                                       2142.000:
 STEP.M                                          0.125:
 NULL.                                        -999.250:
 COMP.                                   ²â¾®Êý¾Ý¿âµ¼³ö:     COMPANY 
 WELL.                                         ¹ÂÄÏ152-5:     Well 
 FLD .                                                :     Field 
 LOC .                                                :     LOCATION
 CNTY.                                                :     COUNTY
 STAT.                                                :     STATE
 CTRY.                                                :     COUNTRY
 SRVC.                                                :     SERVICE COMPANY
 DATE.                                                :     DATE
 API .                                                :     API NUMBER
#
~Curve Information Block
#MNEM.UNIT       API CODE      Curve Description
#----------    -------------   -------------------
 DEPT.M                    :   Depth in Meters
 AC  .Î¢Ãë/Ã×                      :   AC
 CAL .ÀåÃ×                      :   CAL
 CAL .ÀåÃ×                      :   CAL
 COND.mS/m                      :   COND
 GR  .Î¢Â×ÇÙ                      :   GR
 RLML.Å·Ä·Ã×                      :   RLML
 RNML.Å·Ä·Ã×                      :   RNML
 R04 .Å·Ä·Ã×                      :   R04
 R25 .Å·Ä·Ã×                      :   R25
 R25 .Å·Ä·Ã×                      :   R25
 R4  .Å·Ä·Ã×                      :   R4
 SP  .ºÁ·ü                      :   SP
 SP  .mv                      :   SP
#
~A  DEPTH          AC        CAL        CAL       COND         GR       RLML       RNML        R04        R25        R25         R4         SP         SP
# ...
    607.500    560.764     33.300   -999.250    284.668      4.701      1.177      1.445      2.394      3.970      4.213      4.523     49.030     34.949
    607.625    558.188     33.252   -999.250    284.024      4.658      1.028      1.135      2.419      3.895      3.957      4.448     49.035     34.932
    607.750    553.680     33.422   -999.250    284.024      4.777      0.516      0.735      2.439      3.954      3.857      4.446     49.031     34.750
    607.875    548.528     32.807   -999.250    283.381      5.046      0.699      0.794      2.450      4.028      3.805      4.575     48.705     34.987
    608.000    542.665     32.320   -999.250    280.808      5.200      0.670      0.807      2.444      4.068      3.856      4.759     48.373     34.730
    608.125    529.853     31.720   -999.250    280.808      5.493      0.953      1.071      2.471      3.990      3.944      4.710     48.045     34.639
    608.250    519.227     31.362   -999.250    280.164      5.393      1.218      1.147      2.550      3.873      4.062      4.567     47.879     34.541
    608.375    516.329     31.403   -999.250    279.521      5.402      1.111      1.482      2.588      3.767      4.179      4.417     47.715     34.590
    608.500    516.973     31.826   -999.250    279.521      5.375      1.455      1.458      2.640      3.832      4.057      4.317     47.551     34.393
    608.625    516.973     32.380   -999.250    280.808      5.539      1.647      1.530      2.667      3.978      3.845      4.307     47.550     34.433
    608.750    512.626     32.710   -999.250    281.451      5.317      0.985      0.999      2.675      4.072      3.633      4.321     47.491     34.365
    608.875    501.518     32.681   -999.250    282.738      5.214      0.867      1.137      2.665      4.111      3.663      4.513     47.550     34.331
    609.000    461.270     32.488   -999.250    285.311      5.080      0.919      1.361      2.673      4.186      3.845      4.508     47.389     34.318
    609.125    419.733     32.067   -999.250    288.528      4.952      2.095      2.012      2.675      4.250      4.031      4.372     47.384     34.490
    609.250    415.225     31.445   -999.250    292.709      4.924      0.843      1.608      2.694      4.025      4.210      4.263     47.555     34.476
    609.375    436.034     30.736   -999.250    297.212      5.044      1.145      0.891      2.703      3.834      4.249      4.112     47.549     34.473
    609.500    467.663     29.619   -999.250    302.680      5.243      2.111      1.299      2.709      3.728      4.096      3.999     47.720     34.479
    609.625    502.162     29.694   -999.250    307.827      5.329      0.734      0.904      2.724      3.850      3.956      3.851     47.879     34.612
    609.750    524.862     32.400   -999.250    313.295      5.318      1.218      1.320      2.719      4.011      3.802      3.947     47.885     34.588
    609.875    544.382     34.104   -999.250    317.798      5.215      1.505      1.515      2.683      4.066      3.631      4.059     48.209     34.618
    610.000    545.308     34.334   -999.250    323.267      5.099      0.961      1.211      2.640      4.139      3.852      4.221     48.378     34.716
    610.125    527.143     34.112   -999.250    327.770      4.981      0.444      0.810      2.509      4.362      4.088      4.268     48.375     34.633
    610.250    506.240     32.330   -999.250    332.916      4.902      1.213      1.763      2.378      4.599      4.269      4.272     48.377     34.634
    610.375    485.378     30.951   -999.250    336.776      4.853      1.789      1.516      2.277      4.420      4.432      4.040     48.541     34.631
    610.500    467.387     28.331   -999.250    339.350      4.926      0.835      0.870      2.169      4.122      4.563      3.847     48.706     34.606
    610.625    459.016     26.083   -999.250    340.636      5.013      1.579      1.401      2.087      3.800      4.215      3.647     48.872     34.684
    610.750    458.372     24.871   -999.250    340.636      4.947      2.355      1.717      2.013      3.580      3.928      3.391     49.034     34.679
    610.875    462.236     24.268   -999.250    338.063      4.976      1.881      1.429      2.001      3.548      3.724      3.309     49.037     34.816
    611.000    467.387     24.207   -999.250    331.951      4.756      1.648      1.522      2.021      3.661      3.513      3.312     49.198     34.758
    611.125    469.319     24.735   -999.250    328.413      4.595      2.208      1.704      2.041      3.736      3.485      3.415     49.368     34.918
    611.250    463.201     25.958   -999.250    325.840      4.324      1.780      1.505      2.111      3.805      3.675      3.665     49.445     35.102
    611.375    422.390     28.347   -999.250    322.623      4.081      1.695      1.549      2.215      3.960      3.875      3.923     49.532     35.132
    611.500    408.222     29.611   -999.250    318.120      3.881      1.678      1.483      2.338      4.169      4.066      4.197     49.693     35.131
    611.625    388.146     29.982   -999.250    313.617      3.877      1.596      1.744      2.453      4.370      4.265      4.419     49.697     35.123
    611.750    375.943     29.915   -999.250    309.114      3.966      2.114      2.109      2.485      4.357      4.458      4.622     49.693     35.145
    611.875    385.120     29.811   -999.250    304.610      4.014      2.501      2.480      2.573      4.245      4.618      4.479     49.695     35.259
    612.000    393.330     30.070   -999.250    300.751      3.963      2.012      2.031      2.611      4.035      4.462      4.506     49.860     35.311
    612.125    393.330     30.883   -999.250    298.177      3.929      1.652      1.665      2.654      4.368      4.337      4.748     49.858     35.329
    612.250    393.330     28.954   -999.250    296.891      3.854      1.979      1.999      2.673      4.767      4.206      5.049     49.861     35.439
    612.375    397.838     27.744   -999.250    298.177      3.768      1.515      1.695      2.659      5.108      4.085      5.483     49.857     35.430
    612.500    415.225     27.103   -999.250    301.394      3.643      1.617      1.900      2.647      5.354      4.530      5.903     49.780     35.435
    612.625    470.688     30.669   -999.250    307.184      3.761      1.595      1.857      2.580      4.902      4.962      5.873     49.856     35.440
    612.750    508.172     32.668   -999.250    310.400      3.950      1.769      2.086      2.509      4.544      5.201      5.257     49.698     35.317
    612.875    542.732     31.158   -999.250    314.904      4.085      1.981      1.688      2.436      4.161      5.039      4.766     49.525     35.226
    613.000    579.761     29.504   -999.250    320.050      4.081      1.158      1.288      2.312      3.775      4.633      4.392     49.368     35.300
    613.125    601.620     29.407   -999.250    325.197      4.132      0.923      1.084      2.206      3.539      4.229      4.142     49.360     35.136
    613.250    614.857     31.763   -999.250    327.770      4.228      1.018      1.033      2.132      3.295      3.727      4.003     49.038     34.975
    613.375    617.433     34.115   -999.250    330.986      4.264      1.191      1.212      2.064      3.118      3.534      3.917     48.865     34.769
    613.500    614.857     35.004   -999.250    331.228      4.386      0.947      0.928      2.010      3.036      3.278      3.831     48.707     34.248
    613.625    612.169     35.104   -999.250    327.770      4.590      0.580      0.632      2.002      3.094      3.068      3.826     48.371     34.017
    613.750    610.350     34.935   -999.250    325.840      4.610      0.694      0.767      1.974      3.257      3.219      3.895     48.128     33.784
    613.875    592.962     33.572   -999.250    324.553      4.717      0.602      0.641      1.995      3.344      3.352      4.113     47.877     33.787
