~Version Information Block
 VERS.                2.00:     CWLS LOG ASCII STANDARD - VERSION 2.000000
 WRAP.                  NO:     One Line Per Depth Step
#
~Well Information Block
#MNEM.UNIT                     Data                         Information
#----------   ------------------------------------------   ----------------
 STRT.M                                        100.500:
 STOP.M                                       2142.000:
 STEP.M                                          0.125:
 NULL.                                        -999.250:
 COMP.                                   ²â¾®Êý¾Ý¿âµ¼³ö:     COMPANY 
 WELL.                                         ¹ÂÄÏ152-5:     Well 
 FLD .                                                :     Field 
 LOC .                                                :     LOCATION
 CNTY.                                                :     COUNTY
 STAT.                                                :     STATE
 CTRY.                                                :     COUNTRY
 SRVC.                                                :     SERVICE COMPANY
 DATE.                                                :     DATE
 API .                                                :     API NUMBER
#
~Curve Information Block
#MNEM.UNIT       API CODE      Curve Description
#----------    -------------   -------------------
 DEPT.M                    :   Depth in Meters
 AC  .Î¢Ãë/Ã×                      :   AC
 CAL .ÀåÃ×                      :   CAL
 CAL .ÀåÃ×                      :   CAL
 COND.mS/m                      :   COND
 GR  .Î¢Â×ÇÙ                      :   GR
 RLML.Å·Ä·Ã×                      :   RLML
 RNML.Å·Ä·Ã×                      :   RNML
 R04 .Å·Ä·Ã×                      :   R04
 R25 .Å·Ä·Ã×                      :   R25
 R25 .Å·Ä·Ã×                      :   R25
 R4  .Å·Ä·Ã×                      :   R4
 SP  .ºÁ·ü                      :   SP
 SP  .mv                      :   SP
#
~A  DEPTH          AC        CAL        CAL       COND         GR       RLML       RNML        R04        R25        R25         R4         SP         SP
# ...
   2122.000    206.578     24.272   -999.250    160.508      6.327      7.629      5.530     13.168     13.652     14.342     13.129     67.710     64.891
   2122.125    214.949     23.895   -999.250    169.514      6.734      8.208      6.161     12.406     14.937     14.779     13.579     68.080     65.193
   2122.250    227.104     23.287   -999.250    180.450      7.272      8.131      3.058     10.803     15.472     15.305     13.985     68.536     65.239
   2122.375    236.845     22.546   -999.250    189.457      7.392      3.500      2.611      8.580     15.748     14.381     14.196     68.853     65.465
   2122.500    253.588     22.161   -999.250    199.750      7.652      2.015      2.149      6.995     13.999     13.219     11.481     69.113     65.590
   2122.625    276.771     22.265   -999.250    208.756      8.048      1.732      1.848      6.032     12.837     12.056      9.281     69.186     65.829
   2122.750    303.719     22.532   -999.250    215.833      7.959      1.577      1.474      5.609     11.867     11.132      8.493     69.526     66.005
   2122.875    313.965     22.176   -999.250    220.979      7.659      2.054      2.028      5.319     11.192     10.420      6.942     70.179     66.262
   2123.000    315.812     21.877   -999.250    226.769      7.819      1.803      1.712      5.184     10.518      9.860      6.206     70.517     66.595
   2123.125    312.190     21.684   -999.250    228.699      7.895      1.609      1.301      5.105      9.838      9.497      5.472     71.172     66.657
   2123.250    331.155     21.646   -999.250    230.629      7.563      1.359      1.223      5.041      9.081      9.183      4.861     71.954     67.038
   2123.375    347.608     21.754   -999.250    229.483      7.712      1.527      1.397      5.008      9.474      8.893      4.463     72.642     67.077
   2123.500    362.420     21.899   -999.250    226.126      7.580      1.548      1.413      4.962     10.857      9.224      4.066     73.333     67.231
   2123.625    360.488     21.959   -999.250    222.909      7.183      1.629      1.706      4.839     12.073     10.140      3.972     73.982     67.627
   2123.750    318.629     22.023   -999.250    217.119      7.015      3.501      2.237      4.669     14.340     13.456      4.456     74.477     67.781
   2123.875    279.991     22.118   -999.250    211.330      7.060      7.397      5.170      4.571     16.402     16.301      5.149     74.621     67.870
   2124.000    266.467     22.266   -999.250    206.183      6.771      6.599      3.103      4.440     18.463     19.146      5.980     74.912     68.123
   2124.125    275.258     22.264   -999.250    201.680      6.834      7.835      2.419      4.367     21.248     20.751      6.806     75.207     68.237
   2124.250    298.875     22.093   -999.250    199.348      7.034      1.539      1.722      4.261     20.059     20.399      7.467     75.499     68.228
   2124.375    316.053     21.941   -999.250    197.177      7.296      1.642      1.344      4.207     17.230     19.541      7.018     75.792     68.394
   2124.500    337.948     22.185   -999.250    195.890      7.319      1.230      1.498      4.163     14.473     18.683      6.417     76.130     68.715
   2124.625    345.676     21.994   -999.250    192.673      6.854      1.353      1.563      4.132     11.833     17.672      5.456     76.681     68.688
   2124.750    332.153     21.739   -999.250    192.030      6.786      1.526      1.488      4.100      9.296     16.272      4.522     77.338     68.708
   2124.875    310.258     21.715   -999.250    187.527      7.235      1.397      1.417      4.093      7.681     14.160      4.083     77.987     68.749
   2125.000    308.712     21.658   -999.250    184.954      7.344      1.178      1.418      4.074      7.175      9.606      4.371     78.647     68.991
   2125.125    311.546     21.860   -999.250    179.164      7.188      1.694      1.668      4.032      6.669      8.156      4.822     79.292     69.030
   2125.250    317.985     22.093   -999.250    172.087      7.253      1.435      1.517      4.043      6.342      7.239      5.280     79.957     69.015
   2125.375    325.069     22.220   -999.250    163.724      7.408      1.271      1.443      4.042      6.238      6.596      5.770     80.597     69.185
   2125.500    317.985     22.193   -999.250    155.361      7.558      1.259      1.394      4.042      6.260      6.145      6.263     81.266     69.176
   2125.625    306.662     22.201   -999.250    148.928      7.772      1.564      1.610      4.042      7.164      6.196      6.938     81.902     69.138
   2125.750    284.499     22.218   -999.250    140.565      7.436      1.938      2.047      4.042      8.462      7.735      7.520     82.494     69.348
   2125.875    255.520     22.231   -999.250    134.132      6.479      5.929      3.387      4.047      9.731      8.995      6.881     82.886     69.351
   2126.000    238.947     22.276   -999.250    128.985      6.653      7.371      4.973      4.103     11.008     10.165      6.122     83.072     69.473
   2126.125    233.625     22.263   -999.250    124.803      6.221     11.105      1.796      4.095     12.282     11.132      4.390     83.876     69.511
   2126.250    247.873     22.216   -999.250    121.909      5.706      5.968      3.478      4.102     13.557     13.193      1.992   -999.250     69.398
   2126.375    261.960     22.212   -999.250    117.727      5.345      1.423      4.629      4.108     14.831     14.618      1.080   -999.250     69.348
   2126.500    290.616     22.326   -999.250    117.405      5.183      2.141      2.170      4.114     16.105     17.471      0.396   -999.250     69.470
   2126.625    299.310     22.675   -999.250    118.692      5.211      1.554      1.858      4.120     17.380     20.366     -0.206   -999.250     69.325
   2126.750    284.589     22.927   -999.250    120.944      5.326      0.818      1.482      4.119     18.654     22.048     -0.373   -999.250     69.297
   2126.875    269.481     23.441   -999.250    126.090      5.176      3.089      4.217      4.089     19.928     22.048     -0.599   -999.250     69.508
   2127.000    254.373     23.651   -999.250    129.307      4.785      6.843      3.812      4.047     21.193     20.903     -0.616   -999.250     69.487
   2127.125    248.436     23.427   -999.250    130.272      4.533      3.315      3.260      4.042     22.014     19.854     -0.666   -999.250     69.482
   2127.250    270.331     22.816   -999.250    130.593      4.728      2.968      2.842      4.041     20.785     18.511     -0.776   -999.250     69.509
   2127.375    283.855     22.605   -999.250    129.628      4.952      2.710      2.040      4.019     18.643     17.344     -0.844   -999.250     69.540
   2127.500    278.220     22.791   -999.250    129.628      5.002      3.599      2.782      4.041     16.476     15.875     -0.875   -999.250     69.581
   2127.625    264.485     22.960   -999.250    128.985      4.948      0.573      1.722      4.043     14.786     14.746     -0.927   -999.250     69.513
   2127.750    262.556     23.728   -999.250    131.558      5.280      0.547      0.765      4.036     14.429     14.135     -0.986   -999.250     69.625
   2127.875    276.781     23.838   -999.250    133.167      5.680      1.217      1.165      4.037     14.075     14.154     -1.084   -999.250     69.647
   2128.000    283.390     24.062   -999.250    134.775      6.047      4.434      1.896      4.046     13.728     14.402     -1.430   -999.250     69.735
   2128.125    287.718     24.197   -999.250    135.418      6.218     10.217      5.044      4.011     13.553     14.650     -1.588   -999.250     69.681
   2128.250    288.872     23.349   -999.250    131.558      5.871      6.672     10.204      4.017     14.099     14.898     -1.710   -999.250     69.669
   2128.375    283.251     22.767   -999.250    128.342      5.629      1.101      1.101      4.020     15.189     14.912     -1.781   -999.250     69.638
