~Version Information Block
 VERS.                2.00:     CWLS LOG ASCII STANDARD - VERSION 2.000000
 WRAP.                  NO:     One Line Per Depth Step
#
~Well Information Block
#MNEM.UNIT                     Data                         Information
#----------   ------------------------------------------   ----------------
 STRT.M                                        183.125:
 STOP.M                                       2134.000:
 STEP.M                                          0.125:
 NULL.                                        -999.250:
 COMP.                                   ²â¾®Êý¾Ý¿âµ¼³ö:     COMPANY 
 WELL.                                        ¹ÂÄÏ152-05:     Well 
 FLD .                                                :     Field 
 LOC .                                                :     LOCATION
 CNTY.                                                :     COUNTY
 STAT.                                                :     STATE
 CTRY.                                                :     COUNTRY
 SRVC.                                                :     SERVICE COMPANY
 DATE.                                                :     DATE
 API .                                                :     API NUMBER
#
~Curve Information Block
#MNEM.UNIT       API CODE      Curve Description
#----------    -------------   -------------------
 DEPT.M                    :   Depth in Meters
 AC  .Î¢Ãë/Ã×                      :   AC
 CAL .ÀåÃ×                      :   CAL
 CAL .ÀåÃ×                      :   CAL
 COND.ºÁÄ·Å·/Ã×                      :   COND
 GR  .Î¢Â×ÇÙ/Ð¡Ê±                      :   GR
 GR  .Î¢Â×ÇÙ/Ð¡Ê±                      :   GR
 RLML.Å·Ä·Ã×                      :   RLML
 RLML.Å·Ä·Ã×                      :   RLML
 RNML.Å·Ä·Ã×                      :   RNML
 RNML.Å·Ä·Ã×                      :   RNML
 R04 .Å·Ä·Ã×                      :   R04
 R25 .Å·Ä·Ã×                      :   R25
 R4  .Å·Ä·Ã×                      :   R4
 SP  .ºÁ·ü                      :   SP
 SP  .ºÁ·ü                      :   SP
#
~A  DEPTH          AC        CAL        CAL       COND         GR         GR       RLML       RLML       RNML       RNML        R04        R25         R4         SP         SP
# ...
    999.625   -999.250   -999.250   -999.250   -999.250   -999.250   -999.250   -999.250   -999.250   -999.250   -999.250   -999.250      2.657   -999.250    117.225   -999.250
    999.750   -999.250   -999.250   -999.250   -999.250   -999.250   -999.250   -999.250   -999.250   -999.250   -999.250   -999.250      2.691   -999.250    117.379   -999.250
    999.875   -999.250   -999.250   -999.250   -999.250   -999.250   -999.250   -999.250   -999.250   -999.250   -999.250   -999.250      2.722   -999.250    117.383   -999.250
   1000.000   -999.250   -999.250   -999.250    303.211   -999.250   -999.250   -999.250   -999.250   -999.250   -999.250   -999.250      2.774      2.561    117.379   -999.250
   1000.125   -999.250   -999.250   -999.250    311.421      8.828   -999.250      0.656   -999.250   -999.250   -999.250      1.942      2.822      2.561    117.382    116.017
   1000.250    492.222   -999.250   -999.250    319.632      8.926   -999.250      0.785   -999.250   -999.250      0.743      1.891      2.825      2.551    117.379    115.940
   1000.375    507.341   -999.250     24.740    327.842      9.121   -999.250      0.834   -999.250   -999.250      0.895      1.865      2.873      2.535    117.382    115.863
   1000.500    524.008   -999.250     24.142    334.000      9.474   -999.250      0.363   -999.250   -999.250      0.565      1.754      2.850      2.522    117.380    115.806
   1000.625    536.508   -999.250     23.563    348.866      9.879   -999.250      0.470   -999.250   -999.250      0.738      1.680      2.848      2.498    117.302    115.726
   1000.750    550.000   -999.250     23.129    363.732      9.342   -999.250      0.833   -999.250   -999.250      0.910      1.603      2.799      2.444    117.222    115.641
   1000.875    546.762   -999.250     22.552    378.598     10.090   -999.250      0.635   -999.250   -999.250      0.736      1.534      2.721      2.390    117.222    115.317
   1001.000    542.381   -999.250     22.124    392.240      9.667   -999.250      0.907   -999.250   -999.250      0.978      1.457      2.676      2.335    117.223    115.300
   1001.125    542.381   -999.250     22.401    404.400      9.335   -999.250      0.534   -999.250   -999.250      0.630      1.379      2.613      2.288    117.222    115.137
   1001.250    554.502   -999.250     22.595    419.120      9.589   -999.250      0.638   -999.250   -999.250      0.714      1.306      2.553      2.222    117.223    115.273
   1001.375    563.593   -999.250     22.217    428.720      9.904   -999.250      0.707   -999.250   -999.250      0.776      1.253      2.491      2.171    117.221    115.504
   1001.500    572.684   -999.250     22.491    437.339     10.300   -999.250      0.564   -999.250   -999.250      0.583      1.222      2.431      2.107    117.224    115.306
   1001.625    581.142   -999.250     22.976    442.747     10.819   -999.250      0.362   -999.250   -999.250      0.374      1.191      2.369      2.057    117.221    115.483
   1001.750    581.163   -999.250     23.529    448.155     11.235   -999.250      0.679   -999.250   -999.250      0.549      1.167      2.308      2.008    117.224    115.475
   1001.875    576.845   -999.250     23.993    451.760     11.779   -999.250      0.509   -999.250   -999.250      0.762      1.146      2.248      1.970    117.220    115.594
   1002.000    567.842   -999.250     24.750    438.804     12.320   -999.250      0.253   -999.250   -999.250      0.352      1.144      2.186      1.946    117.225    115.626
   1002.125    558.214   -999.250     24.807    426.821     11.598   -999.250      0.411   -999.250   -999.250      0.492      1.144      2.126      1.925    117.220    115.610
   1002.250    550.000   -999.250     24.507    412.599     10.992   -999.250      0.562   -999.250   -999.250      0.668      1.149      2.064      1.923    117.066    115.786
   1002.375    542.381   -999.250     23.952    397.717     10.372   -999.250      0.674   -999.250   -999.250      0.817      1.174      2.033      1.925    117.062    115.785
   1002.500    536.667   -999.250     23.585    384.288     10.612   -999.250      0.321   -999.250   -999.250      0.523      1.228      2.032      1.944    117.066    115.784
   1002.625    533.492   -999.250     23.165    371.793      9.562   -999.250      0.645   -999.250   -999.250      0.734      1.280      2.033      1.949    117.141    115.964
   1002.750    534.762   -999.250     23.067    354.434      9.909   -999.250      0.403   -999.250   -999.250      0.688      1.330      2.095      1.949    117.225    115.956
   1002.875    532.222   -999.250     23.336    339.120      9.271   -999.250      0.720   -999.250   -999.250      0.663      1.380      2.158      1.932    117.221    116.026
   1003.000    524.603   -999.250     23.653    327.600     10.153   -999.250      0.608   -999.250   -999.250      0.887      1.438      2.172      1.893    117.225    116.117
   1003.125    515.079   -999.250     23.794    316.720      9.527   -999.250      0.744   -999.250   -999.250      0.646      1.504      2.149      1.875    117.300    116.104
   1003.250    502.381   -999.250     23.706    306.480      9.876   -999.250      0.530   -999.250   -999.250      0.817      1.556      2.124      1.897    117.383    116.105
   1003.375    489.974   -999.250     23.461    298.800      9.436   -999.250      0.296   -999.250   -999.250      0.696      1.634      2.100      1.925    117.379    116.113
   1003.500    482.064   -999.250     23.386    293.040      9.866   -999.250      0.704   -999.250   -999.250      0.482      1.678      2.076      1.969    117.384    116.235
   1003.625    486.761   -999.250     24.012    287.280     10.158   -999.250      0.519   -999.250   -999.250      0.851      1.730      2.052      2.006    117.379    116.269
   1003.750    492.670   -999.250     24.563    282.160      9.538   -999.250      0.258   -999.250   -999.250      0.445      1.780      2.028      2.104    117.384    116.267
   1003.875    495.238   -999.250     25.046    277.680      9.889   -999.250      0.650   -999.250   -999.250      0.523      1.812      2.007      2.174    117.379    116.273
   1004.000    490.504   -999.250     25.009    274.480      9.805   -999.250      0.265   -999.250   -999.250      0.432      1.839      2.007      2.231    117.384    116.395
   1004.125    495.397   -999.250     25.216    273.200      9.241   -999.250      0.430   -999.250   -999.250      0.796      1.867      2.041      2.282    117.537    116.429
   1004.250    492.150   -999.250     25.931    273.200      8.613   -999.250      0.670   -999.250   -999.250      1.006      1.861      2.092      2.309    117.543    116.435
   1004.375    485.115   -999.250     26.980    273.161      9.221   -999.250      0.822   -999.250   -999.250      0.737      1.875      2.144      2.306    117.616    116.556
   1004.500    479.524   -999.250     27.966    274.448      8.938   -999.250      0.462   -999.250   -999.250      0.572      1.889      2.196      2.307    117.623    116.593
   1004.625    488.247   -999.250     28.118    275.769      8.536   -999.250      0.386   -999.250   -999.250      0.595      1.862      2.247      2.327    117.695    116.587
   1004.750    499.221   -999.250     27.355    276.442      8.969   -999.250      0.834   -999.250   -999.250      0.940      1.865      2.300      2.352    117.861    116.763
   1004.875    511.757   -999.250     26.661    277.680     10.026   -999.250      0.758   -999.250   -999.250      0.608      1.865      2.351      2.358    117.853    116.751
   1005.000    530.420   -999.250     25.608    278.320      9.442   -999.250      0.300   -999.250   -999.250      0.495      1.865      2.391      2.355    117.862    116.747
   1005.125    526.647   -999.250     24.900    278.960      9.951   -999.250      0.220   -999.250   -999.250      0.633      1.865      2.415      2.274    117.852    116.699
   1005.250    518.906   -999.250     23.925    278.960     10.434   -999.250      0.752   -999.250   -999.250      0.778      1.865      2.411      2.230    117.862    116.755
