~Version Information Block
 VERS.                2.00:     CWLS LOG ASCII STANDARD - VERSION 2.000000
 WRAP.                  NO:     One Line Per Depth Step
#
~Well Information Block
#MNEM.UNIT                     Data                         Information
#----------   ------------------------------------------   ----------------
 STRT.M                                        100.750:
 STOP.M                                       1515.000:
 STEP.M                                          0.125:
 NULL.                                        -999.250:
 COMP.                                   ²â¾®Êý¾Ý¿âµ¼³ö:     COMPANY 
 WELL.                                           ¹ÂÄÏ152:     Well 
 FLD .                                                :     Field 
 LOC .                                                :     LOCATION
 CNTY.                                                :     COUNTY
 STAT.                                                :     STATE
 CTRY.                                                :     COUNTRY
 SRVC.                                                :     SERVICE COMPANY
 DATE.                                                :     DATE
 API .                                                :     API NUMBER
#
~Curve Information Block
#MNEM.UNIT       API CODE      Curve Description
#----------    -------------   -------------------
 DEPT.M                    :   Depth in Meters
 AC  .Î¢Ãë/Ã×                      :   AC
 CAL .ÀåÃ×                      :   CAL
 CAL .ÀåÃ×                      :   CAL
 COND.mS/m                      :   COND
 RLML.Å·Ä·Ã×                      :   RLML
 RNML.Å·Ä·Ã×                      :   RNML
 R04 .Å·Ä·Ã×                      :   R04
 R25 .Å·Ä·Ã×                      :   R25
 R4  .Å·Ä·Ã×                      :   R4
 SP  .ºÁ·ü                      :   SP
 SP  .ºÁ·ü                      :   SP
#
~A  DEPTH          AC        CAL        CAL       COND       RLML       RNML        R04        R25         R4         SP         SP
# ...
   1366.500    474.233   -999.250     31.606    371.019      1.136      1.211      2.013      2.832      2.846    117.382    130.744
   1366.625    471.675   -999.250     31.508    372.293      1.122      1.209      2.013      2.834      2.844    117.512    130.750
   1366.750    470.396   -999.250     31.489    373.567      1.122      1.185      2.013      2.832      2.872    117.423    130.743
   1366.875    469.757   -999.250     31.525    374.841      1.119      1.175      2.013      2.809      2.901    117.386    130.752
   1367.000    469.118   -999.250     31.175    377.389      1.105      1.167      2.013      2.831      2.919    117.386    130.741
   1367.125    470.396   -999.250     30.805    378.662      1.081      1.143      2.012      2.809      2.924    117.388    130.753
   1367.250    474.872   -999.250     30.396    381.210      1.071      1.124      2.013      2.831      2.919    117.388    130.739
   1367.375    478.069   -999.250     30.591    382.484      1.009      1.081      1.984      2.822      2.902    117.388    130.596
   1367.500    483.824   -999.250     31.095    383.758      0.960      1.045      1.987      2.806      2.872    117.388    130.579
   1367.625    489.578   -999.250     31.684    384.395      0.909      0.978      1.958      2.809      2.873    117.381    130.438
   1367.750    497.251   -999.250     32.250    386.306      0.854      0.906      1.940      2.806      2.844    117.259    130.578
   1367.875    507.481   -999.250     32.304    388.217      0.848      0.901      1.918      2.784      2.847    117.226    130.598
   1368.000    513.235   -999.250     31.944    391.401      0.886      0.931      1.887      2.780      2.848    117.232    130.578
   1368.125    515.793   -999.250     31.570    394.586      0.889      0.941      1.854      2.758      2.801    117.196    130.598
   1368.250    516.432   -999.250     31.115    398.408      0.905      0.963      1.834      2.729      2.761    117.251    130.578
   1368.375    516.432   -999.250     30.698    404.140      0.938      0.985      1.813      2.706      2.725    117.230    130.438
   1368.500    515.793   -999.250     30.474    408.599      0.965      1.016      1.810      2.704      2.721    117.226    130.579
   1368.625    515.793   -999.250     30.543    413.694      0.991      1.036      1.781      2.681      2.696    117.227    130.596
   1368.750    515.793   -999.250     30.788    416.879      1.011      1.040      1.762      2.678      2.672    117.225    130.580
   1368.875    516.432   -999.250     30.989    416.879      1.019      1.033      1.756      2.655      2.638    117.228    130.436
   1369.000    517.391   -999.250     31.267    414.331      1.033      1.057      1.743      2.627      2.620    117.051    130.423
   1369.125    517.711   -999.250     31.551    411.783      1.032      1.041      1.731      2.604      2.571    117.065    130.435
   1369.250    515.793   -999.250     31.871    409.236      1.032      1.035      1.731      2.576      2.566    117.068    130.424
   1369.375    513.235   -999.250     32.297    407.325      1.032      1.038      1.731      2.579      2.567    117.068    130.434
   1369.500    510.997   -999.250     32.674    406.051      1.018      1.041      1.731      2.550      2.588    117.067    130.424
   1369.625    508.120   -999.250     32.853    404.140      1.019      1.044      1.729      2.528      2.565    117.067    130.434
   1369.750    504.923   -999.250     32.933    401.592      1.019      1.047      1.716      2.550      2.584    117.068    130.424
   1369.875    499.169   -999.250     32.540    400.318      1.019      1.051      1.729      2.554      2.596    117.068    130.434
   1370.000    494.054   -999.250     31.942    399.682      1.019      1.054      1.759      2.575      2.616    117.060    130.423
   1370.125    485.742   -999.250     31.540    400.318      1.016      1.057      1.757      2.580      2.614    116.938    130.435
   1370.250    476.790   -999.250     31.114    400.955      1.017      1.060      1.758      2.600      2.636    116.904    130.423
   1370.375    464.003   -999.250     30.898    401.592      1.009      1.063      1.779      2.606      2.654    116.905    130.435
   1370.500    451.215   -999.250     31.033    402.866      1.019      1.066      1.796      2.676      2.653    116.907    130.422
   1370.625    435.870   -999.250     31.270    402.866      1.019      1.069      1.830      2.709      2.675    116.911    130.277
   1370.750    414.770   -999.250     31.587    397.771      1.019      1.073      1.869      2.753      2.696    117.037    130.422
   1370.875    401.982   -999.250     31.863    388.854      1.020      1.076      1.902      2.811      2.717    116.894    130.277
   1371.000    403.261   -999.250     32.201    378.662      1.029      1.079      1.955      2.881      2.738    116.906    130.263
   1371.125    400.703   -999.250     32.573    368.471      1.035      1.082      2.014      2.888      2.760    116.909    130.276
   1371.250    393.031   -999.250     32.881    358.280      1.046      1.098      2.085      3.009      2.783    116.911    130.264
   1371.375    382.801   -999.250     33.148    349.363      1.073      1.094      2.137      3.041      2.837    116.876    130.275
   1371.500    397.050   -999.250     33.443    341.720      1.086      1.126      2.175      3.035      2.866    116.754    130.266
   1371.625    416.688   -999.250     33.726    330.255      1.109      1.193      2.208      2.989      2.901    116.748    130.114
   1371.750    439.706   -999.250     33.979    325.796      1.131      1.212      2.228      2.985      3.002    116.750    130.109
   1371.875    460.806   -999.250     34.223    324.522      1.124      1.185      2.247      2.963      3.050    116.715    130.112
   1372.000    478.708   -999.250     34.367    328.025      1.074      1.155      2.261      2.909      3.122    116.594    130.112
   1372.125    500.448   -999.250     34.136    334.713      1.049      1.113      2.262      2.877      3.072    116.585    130.109
   1372.250    502.366   -999.250     33.663    343.631      1.034      1.095      2.237      2.833      3.048    116.583    130.114
   1372.375    499.808   -999.250     33.188    352.548      1.044      1.110      2.213      2.808      2.982    116.618    130.107
   1372.500    496.611   -999.250     32.803    360.191      1.048      1.129      2.162      2.795      2.902    116.740    129.958
   1372.625    492.136   -999.250     32.392    367.834      1.058      1.141      2.111      2.782      2.852    116.747    129.946
   1372.750    487.660   -999.250     31.855    375.478      1.071      1.143      2.060      2.782      2.801    116.747    129.960
   1372.875    483.824   -999.250     31.332    380.573      1.069      1.162      2.014      2.807      2.770    116.744    129.945
   1373.000    480.627   -999.250     31.053    384.395      1.083      1.165      1.982      2.783      2.744    116.745    129.802
   1373.125    476.790   -999.250     30.908    386.943      1.083      1.172      1.940      2.782      2.745    116.802    129.944
   1373.250    474.872   -999.250     31.191    388.217      1.083      1.173      1.898      2.808      2.745    116.868    129.961
   1373.375    471.036   -999.250     31.525    386.943      1.083      1.162      1.881      2.833      2.745    116.914    129.944
   1373.500    469.118   -999.250     31.818    385.669      1.083      1.170      1.859      2.834      2.752    116.907    129.960
   1373.625    467.839   -999.250     32.137    384.395      1.083      1.182      1.839      2.833      2.771    116.889    129.945
   1373.750    467.199   -999.250     32.592    383.121      1.085      1.184      1.840      2.834      2.771    117.067    129.800
   1373.875    469.757   -999.250     32.857    382.484      1.071      1.187      1.834      2.859      2.790    117.104    129.947
   1374.000    472.315   -999.250     33.053    381.847      1.072      1.184      1.833      2.859      2.796    117.301    129.798
