~Version Information Block
 VERS.                2.00:     CWLS LOG ASCII STANDARD - VERSION 2.000000
 WRAP.                  NO:     One Line Per Depth Step
#
~Well Information Block
#MNEM.UNIT                     Data                         Information
#----------   ------------------------------------------   ----------------
 STRT.M                                        100.750:
 STOP.M                                       1515.000:
 STEP.M                                          0.125:
 NULL.                                        -999.250:
 COMP.                                   ²â¾®Êý¾Ý¿âµ¼³ö:     COMPANY 
 WELL.                                           ¹ÂÄÏ152:     Well 
 FLD .                                                :     Field 
 LOC .                                                :     LOCATION
 CNTY.                                                :     COUNTY
 STAT.                                                :     STATE
 CTRY.                                                :     COUNTRY
 SRVC.                                                :     SERVICE COMPANY
 DATE.                                                :     DATE
 API .                                                :     API NUMBER
#
~Curve Information Block
#MNEM.UNIT       API CODE      Curve Description
#----------    -------------   -------------------
 DEPT.M                    :   Depth in Meters
 AC  .Î¢Ãë/Ã×                      :   AC
 CAL .ÀåÃ×                      :   CAL
 CAL .ÀåÃ×                      :   CAL
 COND.mS/m                      :   COND
 RLML.Å·Ä·Ã×                      :   RLML
 RNML.Å·Ä·Ã×                      :   RNML
 R04 .Å·Ä·Ã×                      :   R04
 R25 .Å·Ä·Ã×                      :   R25
 R4  .Å·Ä·Ã×                      :   R4
 SP  .ºÁ·ü                      :   SP
 SP  .ºÁ·ü                      :   SP
#
~A  DEPTH          AC        CAL        CAL       COND       RLML       RNML        R04        R25         R4         SP         SP
# ...
   1267.375    400.064   -999.250     31.689    354.459      1.135      1.187      2.269      2.988      3.095    117.804    129.157
   1267.500    407.097   -999.250     31.595    355.732      1.135      1.192      2.241      2.974      3.058    117.754    129.158
   1267.625    414.130   -999.250     31.706    356.369      1.135      1.196      2.243      2.962      3.016    117.832    129.158
   1267.750    421.164   -999.250     31.780    357.643      1.135      1.200      2.243      2.935      2.980    117.719    129.157
   1267.875    429.476   -999.250     31.881    358.280      1.135      1.205      2.244      2.962      2.936    117.679    129.158
   1268.000    435.870   -999.250     32.042    359.236      1.136      1.209      2.215      2.987      2.907    117.604    129.314
   1268.125    440.985   -999.250     32.023    360.191      1.135      1.214      2.215      2.962      2.876    117.378    129.318
   1268.250    446.739   -999.250     32.111    362.102      1.137      1.218      2.244      2.987      2.873    117.401    129.313
   1268.375    449.297   -999.250     32.182    362.102      1.150      1.222      2.242      2.988      2.847    117.228    129.319
   1268.500    448.018   -999.250     32.253    362.102      1.160      1.227      2.248      2.987      2.823    117.010    129.312
   1268.625    445.460   -999.250     32.214    362.102      1.174      1.249      2.274      2.988      2.811    116.607    129.479
   1268.750    442.263   -999.250     32.212    360.191      1.186      1.281      2.311      2.988      2.801    116.237    129.627
   1268.875    440.345   -999.250     32.169    358.280      1.197      1.325      2.351      2.987      2.770    116.069    129.481
   1269.000    434.591   -999.250     32.129    354.140      1.214      1.368      2.377      2.963      2.770    115.626    129.308
   1269.125    428.836   -999.250     32.044    351.911      1.224      1.414      2.416      2.961      2.770    115.264    129.324
   1269.250    423.082   -999.250     32.002    348.089      1.231      1.430      2.456      2.963      2.775    115.017    129.148
   1269.375    416.688   -999.250     31.976    344.268      1.225      1.424      2.478      2.961      2.794    114.815    129.008
   1269.500    410.294   -999.250     31.921    342.357      1.233      1.403      2.504      2.963      2.793    114.828    128.988
   1269.625    403.900   -999.250     31.745    341.083      1.222      1.377      2.530      2.986      2.822    114.828    128.692
   1269.750    399.425   -999.250     31.737    340.446      1.197      1.405      2.598      2.988      2.839    114.777    128.670
   1269.875    402.621   -999.250     31.813    337.898      1.160      1.395      2.655      3.037      2.867    114.784    128.374
   1270.000    406.458   -999.250     32.090    330.255      1.143      1.391      2.725      3.065      2.952    114.829    128.353
   1270.125    407.737   -999.250     32.306    321.975      1.158      1.429      2.776      3.088      3.009    114.823    128.215
   1270.250    403.261   -999.250     32.583    311.783      1.216      1.523      2.866      3.193      3.101    114.823    128.197
   1270.375    396.867   -999.250     32.828    300.318      1.274      1.669      2.982      3.311      3.206    115.003    128.213
   1270.500    389.194   -999.250     33.130    289.490      1.346      1.888      3.104      3.423      3.308    114.977    128.199
   1270.625    378.325   -999.250     33.451    283.758      1.430      2.102      3.202      3.594      3.391    115.150    128.052
   1270.750    362.980   -999.250     33.606    286.943      1.442      1.705      3.136      3.731      3.479    115.085    128.201
   1270.875    354.668   -999.250     33.561    295.223      1.303      1.489      3.015      3.728      3.536    115.189    128.049
   1271.000    366.176   -999.250     33.482    304.777      1.229      1.408      2.883      3.603      3.561    115.315    127.727
   1271.125    387.656   -999.250     33.385    314.968      1.200      1.330      2.770      3.482      3.502    115.487    128.047
   1271.250    417.327   -999.250     33.202    325.159      1.204      1.268      2.667      3.366      3.384    115.460    128.046
   1271.375    384.958   -999.250     33.140    337.898      1.223      1.262      2.577      3.242      3.165    115.329    128.046
   1271.500    348.274   -999.250     33.461    348.726      1.237      1.274      2.498      3.117      3.025    115.292    128.047
   1271.625    366.631   -999.250     33.913    360.828      1.237      1.299      2.441      3.063      2.923    115.416    127.886
   1271.750    383.440   -999.250     34.474    362.102      1.237      1.314      2.381      2.963      2.857    115.469    127.888
   1271.875    395.588   -999.250     34.975    359.554      1.221      1.327      2.331      2.884      2.821    115.487    127.886
   1272.000    402.621   -999.250     35.385    358.917      1.212      1.328      2.282      2.861      2.821    115.452    127.888
   1272.125    407.737   -999.250     35.626    358.280      1.169      1.327      2.246      2.833      2.822    115.281    128.044
   1272.250    407.737   -999.250     35.678    358.917      1.133      1.327      2.215      2.810      2.841    115.038    128.047
   1272.375    407.737   -999.250     35.549    360.828      1.098      1.294      2.218      2.807      2.852    114.814    127.886
   1272.500    406.458   -999.250     35.321    362.739      1.071      1.258      2.190      2.874      2.871    114.820    127.888
   1272.625    405.818   -999.250     35.123    364.650      1.060      1.218      2.191      2.935      2.877    114.935    127.885
   1272.750    404.540   -999.250     35.047    364.650      1.047      1.177      2.226      2.938      2.896    115.144    127.889
   1272.875    403.900   -999.250     35.098    362.102      1.045      1.122      2.269      3.011      2.903    115.304    127.884
   1273.000    406.777   -999.250     35.236    357.006      1.059      1.108      2.311      3.118      2.916    115.474    127.889
   1273.125    412.852   -999.250     35.473    351.911      1.117      1.162      2.351      3.190      2.977    115.478    127.884
   1273.250    424.361   -999.250     35.809    343.631      1.194      1.254      2.414      3.246      3.042    115.333    127.890
   1273.375    437.788   -999.250     36.183    337.898      1.261      1.485      2.482      3.343      3.109    115.456    127.883
   1273.500    422.442   -999.250     36.592    333.439      1.288      1.786      2.525      3.399      3.173    115.475    127.732
   1273.625    392.391   -999.250     36.835    330.255      1.289      1.512      2.553      3.497      3.241    115.434    127.882
   1273.750    366.576   -999.250     37.051    327.070      1.218      1.275      2.505      3.527      3.303    115.305    127.891
   1273.875    334.207   -999.250     36.818    325.796      1.138      1.185      2.466      3.548      3.353    115.312    127.882
   1274.000    343.113   -999.250     36.414    326.433      1.046      1.151      2.426      3.502      3.381    115.314    127.891
   1274.125    360.479   -999.250     35.930    330.255      1.024      1.168      2.350      3.420      3.325    115.274    127.882
   1274.250    377.845   -999.250     35.369    334.713      1.030      1.186      2.265      3.322      3.258    115.273    127.891
   1274.375    395.211   -999.250     35.429    341.720      1.032      1.200      2.183      3.241      3.202    115.187    127.882
   1274.500    412.212   -999.250     35.900    348.089      1.035      1.214      2.170      3.143      3.133    115.140    127.891
   1274.625    417.327   -999.250     36.221    351.274      1.044      1.236      2.215      3.062      3.099    115.110    127.882
   1274.750    423.721   -999.250     36.295    350.637      1.045      1.231      2.250      2.989      3.098    114.991    127.891
   1274.875    427.558   -999.250     36.149    350.000      1.045      1.202      2.261      2.961      3.127    114.984    127.881
