~Version Information Block
 VERS.                2.00:     CWLS LOG ASCII STANDARD - VERSION 2.000000
 WRAP.                  NO:     One Line Per Depth Step
#
~Well Information Block
#MNEM.UNIT                     Data                         Information
#----------   ------------------------------------------   ----------------
 STRT.M                                        100.750:
 STOP.M                                       1515.000:
 STEP.M                                          0.125:
 NULL.                                        -999.250:
 COMP.                                   ²â¾®Êý¾Ý¿âµ¼³ö:     COMPANY 
 WELL.                                           ¹ÂÄÏ152:     Well 
 FLD .                                                :     Field 
 LOC .                                                :     LOCATION
 CNTY.                                                :     COUNTY
 STAT.                                                :     STATE
 CTRY.                                                :     COUNTRY
 SRVC.                                                :     SERVICE COMPANY
 DATE.                                                :     DATE
 API .                                                :     API NUMBER
#
~Curve Information Block
#MNEM.UNIT       API CODE      Curve Description
#----------    -------------   -------------------
 DEPT.M                    :   Depth in Meters
 AC  .Î¢Ãë/Ã×                      :   AC
 CAL .ÀåÃ×                      :   CAL
 CAL .ÀåÃ×                      :   CAL
 COND.mS/m                      :   COND
 RLML.Å·Ä·Ã×                      :   RLML
 RNML.Å·Ä·Ã×                      :   RNML
 R04 .Å·Ä·Ã×                      :   R04
 R25 .Å·Ä·Ã×                      :   R25
 R4  .Å·Ä·Ã×                      :   R4
 SP  .ºÁ·ü                      :   SP
 SP  .ºÁ·ü                      :   SP
#
~A  DEPTH          AC        CAL        CAL       COND       RLML       RNML        R04        R25         R4         SP         SP
# ...
   1404.625    526.023   -999.250     32.403    439.809      0.876      0.882      1.750      2.425      3.165    116.744    129.798
   1404.750    523.465   -999.250     31.226    442.994      0.878      0.886      1.704      2.321      2.873    116.775    129.788
   1404.875    520.269   -999.250     30.631    444.904      0.879      0.889      1.672      2.233      2.657    116.908    129.799
   1405.000    512.916   -999.250     30.392    447.134      0.879      0.892      1.655      2.194      2.526    117.036    129.788
   1405.125    506.202   -999.250     30.449    447.452      0.891      0.895      1.649      2.143      2.423    117.056    129.482
   1405.250    497.251   -999.250     30.459    448.089      0.865      0.898      1.629      2.117      2.314    117.182    129.629
   1405.375    485.742   -999.250     30.210    446.178      0.878      0.901      1.627      2.143      2.256    117.232    129.640
   1405.500    470.396   -999.250     29.707    442.357      0.877      0.904      1.608      2.220      2.235    117.220    129.630
   1405.625    456.969   -999.250     29.169    435.987      0.891      0.904      1.605      2.321      2.234    117.226    129.638
   1405.750    442.263   -999.250     28.519    427.707      0.893      0.891      1.576      2.373      2.233    117.061    129.631
   1405.875    423.721   -999.250     28.197    418.153      0.903      0.875      1.612      2.449      2.239    117.210    129.477
   1406.000    409.015   -999.250     28.454    406.688      0.904      0.857      1.676      2.553      2.272    117.071    129.475
   1406.125    391.113   -999.250     28.835    393.312      0.903      0.867      1.712      2.654      2.310    117.072    129.474
   1406.250    371.292   -999.250     29.302    379.936      0.894      0.872      1.767      2.732      2.365    117.068    129.476
   1406.375    360.422   -999.250     29.857    367.834      0.891      0.881      1.842      2.832      2.442    117.067    129.470
   1406.500    355.307   -999.250     30.363    358.280      0.891      0.890      1.917      2.937      2.523    117.060    129.477
   1406.625    357.225   -999.250     30.891    350.637      0.891      0.899      2.026      3.011      2.593    116.938    129.466
   1406.750    361.701   -999.250     31.581    342.994      0.891      0.908      2.121      3.064      2.691    116.904    129.161
   1406.875    368.095   -999.250     32.138    335.987      0.891      0.917      2.211      3.114      2.774    116.910    129.305
   1407.000    371.931   -999.250     32.621    331.529      0.894      0.926      2.289      3.167      2.858    116.907    129.160
   1407.125    373.210   -999.250     32.762    328.981      0.903      0.934      2.354      3.216      2.930    117.050    129.144
   1407.250    370.652   -999.250     32.697    330.255      0.894      0.943      2.405      3.193      2.991    116.738    129.159
   1407.375    367.455   -999.250     32.588    332.803      0.890      0.953      2.442      3.165      3.056    116.568    128.907
   1407.500    366.176   -999.250     32.437    335.987      0.887      0.947      2.454      3.142      3.106    116.400    128.997
   1407.625    365.537   -999.250     32.292    342.357      0.890      0.931      2.474      3.114      3.159    116.293    128.828
   1407.750    371.292   -999.250     32.131    348.726      0.881      0.915      2.475      3.090      3.179    116.261    128.517
   1407.875    380.882   -999.250     32.012    351.911      0.877      0.896      2.469      3.063      3.179    116.087    128.515
   1408.000    391.752   -999.250     31.793    351.274      0.890      0.890      2.449      3.014      3.202    115.927    127.719
   1408.125    399.744   -999.250     31.756    345.541      0.907      0.953      2.400      3.012      3.178    115.690    127.251
   1408.250    403.900   -999.250     31.748    340.446      0.939      0.976      2.362      2.988      3.163    115.363    126.603
   1408.375    398.465   -999.250     31.839    335.987      0.959      0.998      2.326      3.012      3.151    114.946    125.829
   1408.500    388.555   -999.250     31.953    332.166      0.984      1.018      2.343      3.039      3.128    114.365    124.853
   1408.625    376.407   -999.250     32.049    328.344      1.009      1.039      2.422      3.038      3.147    113.663    124.247
   1408.750    367.775   -999.250     32.068    325.159      1.036      1.059      2.485      3.090      3.226    112.711    123.896
   1408.875    362.020   -999.250     31.724    323.885      1.055      1.080      2.546      3.141      3.280    111.797    122.189
   1409.000    361.701   -999.250     31.288    322.293      1.072      1.101      2.585      3.193      3.357    110.583    121.442
   1409.125    362.980   -999.250     30.860    323.885      1.085      1.138      2.601      3.243      3.410    109.624    120.484
   1409.250    363.619   -999.250     30.701    327.707      1.083      1.177      2.602      3.269      3.404    108.719    119.626
   1409.375    365.217   -999.250     30.807    333.439      1.084      1.168      2.573      3.295      3.333    108.085    118.699
   1409.500    365.857   -999.250     30.948    337.898      1.041      1.060      2.542      3.295      3.255    107.587    118.341
   1409.625    365.537   -999.250     31.235    343.631      0.969      1.063      2.526      3.295      3.151    106.997    118.061
   1409.750    366.176   -999.250     31.458    349.363      0.919      1.095      2.491      3.295      3.081    106.653    117.868
   1409.875    365.537   -999.250     31.631    351.274      0.962      1.122      2.470      3.295      3.028    106.251    117.739
   1410.000    362.980   -999.250     31.846    354.459      0.999      1.112      2.464      3.295      2.926    105.890    117.713
   1410.125    361.061   -999.250     32.050    358.917      1.043      1.111      2.454      3.269      2.871    105.791    117.733
   1410.250    359.143   -999.250     31.949    360.191      1.091      1.171      2.456      3.269      2.921    106.015    117.876
   1410.375    357.864   -999.250     31.820    361.465      1.139      1.229      2.475      3.269      2.870    106.184    118.043
   1410.500    357.225   -999.250     31.718    360.191      1.153      1.287      2.474      3.243      2.820    106.295    118.356
   1410.625    356.586   -999.250     31.659    357.643      1.148      1.317      2.492      3.244      2.764    106.327    118.515
   1410.750    357.225   -999.250     31.607    355.096      1.131      1.251      2.497      3.243      2.744    106.205    118.676
   1410.875    355.307   -999.250     31.556    353.185      1.099      1.187      2.526      3.244      2.724    106.131    118.986
   1411.000    350.831   -999.250     31.541    353.185      1.113      1.186      2.525      3.269      2.718    105.903    118.835
   1411.125    348.913   -999.250     31.614    353.185      1.139      1.191      2.525      3.269      2.720    105.656    118.824
   1411.250    351.471   -999.250     31.652    353.822      1.171      1.212      2.525      3.269      2.741    105.373    118.677
   1411.375    357.225   -999.250     31.761    355.096      1.189      1.237      2.531      3.269      2.766    105.096    118.504
   1411.500    362.340   -999.250     31.895    356.369      1.221      1.265      2.553      3.269      2.804    104.852    118.200
   1411.625    369.373   -999.250     31.976    358.280      1.247      1.291      2.526      3.269      2.847    104.628    118.028
   1411.750    373.849   -999.250     32.053    360.191      1.264      1.310      2.529      3.269      2.873    104.376    117.882
   1411.875    373.849   -999.250     32.127    360.191      1.263      1.323      2.500      3.269      2.900    104.234    117.712
   1412.000    369.373   -999.250     32.190    360.828      1.263      1.325      2.503      3.269      2.896    104.193    117.564
   1412.125    364.258   -999.250     32.254    360.828      1.260      1.313      2.474      3.295      2.923    104.094    117.555
