~Version Information Block
 VERS.                2.00:     CWLS LOG ASCII STANDARD - VERSION 2.000000
 WRAP.                  NO:     One Line Per Depth Step
#
~Well Information Block
#MNEM.UNIT                     Data                         Information
#----------   ------------------------------------------   ----------------
 STRT.M                                        100.750:
 STOP.M                                       1515.000:
 STEP.M                                          0.125:
 NULL.                                        -999.250:
 COMP.                                   ²â¾®Êý¾Ý¿âµ¼³ö:     COMPANY 
 WELL.                                           ¹ÂÄÏ152:     Well 
 FLD .                                                :     Field 
 LOC .                                                :     LOCATION
 CNTY.                                                :     COUNTY
 STAT.                                                :     STATE
 CTRY.                                                :     COUNTRY
 SRVC.                                                :     SERVICE COMPANY
 DATE.                                                :     DATE
 API .                                                :     API NUMBER
#
~Curve Information Block
#MNEM.UNIT       API CODE      Curve Description
#----------    -------------   -------------------
 DEPT.M                    :   Depth in Meters
 AC  .Î¢Ãë/Ã×                      :   AC
 CAL .ÀåÃ×                      :   CAL
 CAL .ÀåÃ×                      :   CAL
 COND.mS/m                      :   COND
 RLML.Å·Ä·Ã×                      :   RLML
 RNML.Å·Ä·Ã×                      :   RNML
 R04 .Å·Ä·Ã×                      :   R04
 R25 .Å·Ä·Ã×                      :   R25
 R4  .Å·Ä·Ã×                      :   R4
 SP  .ºÁ·ü                      :   SP
 SP  .ºÁ·ü                      :   SP
#
~A  DEPTH          AC        CAL        CAL       COND       RLML       RNML        R04        R25         R4         SP         SP
# ...
   1198.750    499.808   -999.250     32.075    328.981      0.943      1.004      2.248      3.022      3.058    116.235    128.540
   1198.875    501.087   -999.250     32.194    329.618      0.928      1.002      2.216      3.014      3.045    116.115    128.665
   1199.000    502.366   -999.250     32.090    330.892      0.944      1.000      2.218      3.012      3.022    116.107    128.696
   1199.125    503.005   -999.250     31.920    331.529      0.944      0.998      2.214      2.989      2.974    116.060    128.668
   1199.250    503.645   -999.250     31.723    332.803      0.929      0.996      2.214      3.012      2.927    116.116    128.534
   1199.375    504.284   -999.250     31.613    334.395      0.930      0.994      2.190      3.054      2.904    116.058    128.512
   1199.500    504.284   -999.250     31.662    335.987      0.928      0.993      2.191      3.063      2.913    116.082    128.530
   1199.625    501.087   -999.250     31.715    337.898      0.941      1.003      2.171      3.091      2.951    115.951    128.675
   1199.750    492.775   -999.250     31.882    340.127      0.955      1.018      2.146      3.166      3.021    115.943    128.686
   1199.875    486.023   -999.250     32.008    342.038      0.958      1.033      2.141      3.187      3.077    115.921    128.678
   1200.000    481.297   -999.250     32.178    345.541      0.994      1.048      2.138      3.208      3.125    116.103    128.683
   1200.125    479.348   -999.250     32.411    347.771      0.980      1.063      2.139      3.233      3.120    116.449    128.680
   1200.250    462.564   -999.250     32.541    349.045      0.995      1.088      2.118      3.255      3.126    116.497    128.681
   1200.375    452.368   -999.250     32.766    349.363      1.003      1.125      2.120      3.280      3.174    116.590    128.523
   1200.500    447.379   -999.250     32.932    350.000      1.028      1.139      2.146      3.302      3.184    116.717    128.680
   1200.625    447.379   -999.250     33.096    350.637      1.063      1.145      2.172      3.321      3.203    116.751    128.683
   1200.750    449.936   -999.250     33.225    350.637      1.089      1.151      2.194      3.308      3.236    116.746    128.679
   1200.875    453.772   -999.250     33.275    350.000      1.102      1.157      2.193      3.299      3.267    116.667    128.684
   1201.000    456.330   -999.250     33.166    349.363      1.103      1.163      2.192      3.288      3.279    116.589    128.520
   1201.125    453.772   -999.250     32.804    348.408      1.090      1.169      2.164      3.280      3.281    116.586    128.525
   1201.250    449.936   -999.250     32.521    347.134      1.070      1.175      2.166      3.269      3.281    116.587    128.520
   1201.375    446.100   -999.250     32.193    345.223      1.051      1.182      2.167      3.261      3.281    116.585    128.525
   1201.500    442.903   -999.250     32.020    343.949      1.028      1.180      2.167      3.250      3.283    116.504    128.678
   1201.625    438.427   -999.250     31.913    342.994      1.009      1.158      2.167      3.193      3.255    116.345    128.684
   1201.750    435.230   -999.250     32.156    343.949      0.988      1.137      2.167      3.141      3.256    116.268    128.679
   1201.875    432.673   -999.250     32.634    346.815      0.980      1.115      2.167      3.090      3.262    116.090    128.684
   1202.000    430.754   -999.250     33.083    350.000      0.983      1.132      2.162      3.090      3.260    116.107    128.679
   1202.125    430.115   -999.250     33.516    352.548      0.993      1.109      2.142      3.064      3.235    116.074    128.683
   1202.250    430.115   -999.250     33.825    358.917      1.008      1.085      2.142      3.039      3.229    115.955    128.679
   1202.375    430.754   -999.250     33.972    362.739      1.007      1.077      2.141      3.038      3.230    115.961    128.682
   1202.500    433.312   -999.250     33.999    364.650      1.007      1.060      2.164      3.039      3.201    115.786    128.839
   1202.625    434.591   -999.250     33.798    365.287      1.003      1.058      2.143      3.063      3.204    115.794    128.840
   1202.750    433.312   -999.250     33.537    364.650      0.984      1.078      2.142      3.065      3.177    115.754    128.840
   1202.875    432.033   -999.250     33.230    362.739      0.964      1.124      2.136      3.102      3.173    115.812    128.839
   1203.000    429.156   -999.250     32.856    361.783      0.954      1.159      2.112      3.129      3.154    115.787    128.841
   1203.125    425.000   -999.250     32.637    360.191      0.994      1.183      2.094      3.153      3.153    115.960    128.838
   1203.250    420.524   -999.250     32.512    358.917      1.031      1.175      2.058      3.167      3.153    115.947    128.842
   1203.375    416.049   -999.250     32.502    358.280      1.069      1.166      2.027      3.178      3.155    115.945    128.837
   1203.500    411.573   -999.250     32.713    358.917      1.109      1.153      2.011      3.180      3.128    115.944    128.684
   1203.625    408.376   -999.250     33.013    362.102      1.098      1.131      2.012      3.178      3.101    115.935    128.836
   1203.750    407.097   -999.250     33.385    368.471      1.071      1.120      1.992      3.141      3.060    115.855    128.844
   1203.875    408.376   -999.250     33.702    376.115      1.045      1.078      1.987      3.127      3.031    116.063    128.836
   1204.000    411.573   -999.250     34.012    381.847      1.013      1.073      1.987      3.090      3.004    116.105    128.844
   1204.125    413.491   -999.250     34.187    388.854      0.980      1.030      1.988      3.050      2.970    116.110    128.836
   1204.250    417.327   -999.250     34.266    397.771      0.963      1.032      1.983      3.000      2.953    115.929    128.844
   1204.375    421.164   -999.250     34.440    404.140      0.939      1.048      1.963      2.935      2.943    115.914    128.835
   1204.500    423.721   -999.250     34.473    409.873      0.930      1.065      1.954      2.885      2.896    115.620    128.845
   1204.625    425.000   -999.250     34.316    414.331      0.929      1.082      1.963      2.820      2.870    115.599    128.835
   1204.750    426.279   -999.250     34.174    415.605      0.932      1.100      1.961      2.796      2.846    115.602    128.845
   1204.875    426.279   -999.250     33.945    414.968      0.951      1.107      1.961      2.756      2.821    115.631    128.835
   1205.000    425.639   -999.250     33.695    413.376      0.969      1.063      1.962      2.732      2.825    115.625    128.845
   1205.125    425.639   -999.250     33.474    411.146      0.965      1.018      1.964      2.756      2.796    115.801    128.835
   1205.250    424.361   -999.250     33.270    407.962      0.942      0.973      1.977      2.757      2.795    115.787    128.687
   1205.375    424.361   -999.250     33.092    404.140      0.891      0.928      1.991      2.756      2.776    115.784    128.676
   1205.500    423.721   -999.250     32.888    398.408      0.823      0.903      1.989      2.757      2.763    115.785    128.687
   1205.625    424.361   -999.250     32.880    393.312      0.786      0.950      2.007      2.756      2.775    115.790    128.836
   1205.750    424.361   -999.250     32.873    386.943      0.836      1.008      2.019      2.732      2.802    115.837    128.686
   1205.875    423.721   -999.250     32.690    382.484      0.888      1.055      2.034      2.756      2.842    115.920    128.678
   1206.000    423.082   -999.250     32.571    376.115      0.941      1.104      2.070      2.757      2.891    116.142    128.685
   1206.125    421.803   -999.250     32.352    372.293      0.973      1.108      2.076      2.782      2.875    115.948    128.678
   1206.250    418.606   -999.250     32.172    367.834      0.995      1.122      2.093      2.834      2.873    115.954    128.684
