~Version Information Block
 VERS.                2.00:     CWLS LOG ASCII STANDARD - VERSION 2.000000
 WRAP.                  NO:     One Line Per Depth Step
#
~Well Information Block
#MNEM.UNIT                     Data                         Information
#----------   ------------------------------------------   ----------------
 STRT.M                                        100.750:
 STOP.M                                       1515.000:
 STEP.M                                          0.125:
 NULL.                                        -999.250:
 COMP.                                   ²â¾®Êý¾Ý¿âµ¼³ö:     COMPANY 
 WELL.                                           ¹ÂÄÏ152:     Well 
 FLD .                                                :     Field 
 LOC .                                                :     LOCATION
 CNTY.                                                :     COUNTY
 STAT.                                                :     STATE
 CTRY.                                                :     COUNTRY
 SRVC.                                                :     SERVICE COMPANY
 DATE.                                                :     DATE
 API .                                                :     API NUMBER
#
~Curve Information Block
#MNEM.UNIT       API CODE      Curve Description
#----------    -------------   -------------------
 DEPT.M                    :   Depth in Meters
 AC  .Î¢Ãë/Ã×                      :   AC
 CAL .ÀåÃ×                      :   CAL
 CAL .ÀåÃ×                      :   CAL
 COND.mS/m                      :   COND
 RLML.Å·Ä·Ã×                      :   RLML
 RNML.Å·Ä·Ã×                      :   RNML
 R04 .Å·Ä·Ã×                      :   R04
 R25 .Å·Ä·Ã×                      :   R25
 R4  .Å·Ä·Ã×                      :   R4
 SP  .ºÁ·ü                      :   SP
 SP  .ºÁ·ü                      :   SP
#
~A  DEPTH          AC        CAL        CAL       COND       RLML       RNML        R04        R25         R4         SP         SP
# ...
   1031.000    403.261   -999.250     32.096    259.236      1.144      1.470      3.090      4.449      4.148    114.981    127.730
   1031.125    401.343   -999.250     32.286    257.006      1.175      1.504      3.120      4.449      4.174    114.992    127.727
   1031.250    398.785   -999.250     32.665    254.459      1.196      1.518      3.146      4.449      4.218    114.936    127.730
   1031.375    395.588   -999.250     33.210    252.548      1.224      1.546      3.170      4.474      4.251    114.985    127.728
   1031.500    393.031   -999.250     34.035    250.637      1.250      1.541      3.193      4.474      4.301    114.993    127.570
   1031.625    390.473   -999.250     34.794    248.726      1.261      1.452      3.217      4.500      4.316    114.999    127.571
   1031.750    387.276   -999.250     35.437    247.452      1.231      1.341      3.243      4.525      4.329    115.191    127.729
   1031.875    385.358   -999.250     35.697    246.815      1.148      1.322      3.243      4.526      4.353    115.038    127.731
   1032.000    383.440   -999.250     35.653    246.815      1.124      1.378      3.258      4.551      4.380    114.978    127.728
   1032.125    383.440   -999.250     35.492    246.815      1.155      1.438      3.240      4.560      4.399    114.987    127.941
   1032.250    387.276   -999.250     35.372    246.815      1.068      1.253      3.272      4.576      4.404    114.985    128.046
   1032.375    394.309   -999.250     35.241    247.452      1.033      1.222      3.243      4.604      4.403    114.985    128.048
   1032.500    400.703   -999.250     35.120    248.089      1.087      1.306      3.216      4.614      4.391    114.982    128.205
   1032.625    409.015   -999.250     35.228    248.089      1.123      1.331      3.218      4.629      4.377    114.968    128.207
   1032.750    415.409   -999.250     35.649    248.089      1.142      1.359      3.212      4.652      4.351    115.148    128.364
   1032.875    418.606   -999.250     36.157    246.815      1.156      1.387      3.190      4.655      4.353    115.143    128.523
   1033.000    414.770   -999.250     36.677    245.541      1.172      1.415      3.213      4.678      4.341    115.320    128.841
   1033.125    410.934   -999.250     36.554    244.268      1.187      1.423      3.191      4.629      4.328    115.489    129.156
   1033.250    408.376   -999.250     36.154    242.994      1.194      1.428      3.196      4.653      4.328    115.592    129.160
   1033.375    406.458   -999.250     35.565    243.631      1.187      1.433      3.180      4.680      4.323    115.655    129.314
   1033.500    405.179   -999.250     35.131    244.904      1.201      1.418      3.166      4.679      4.303    115.763    129.478
   1033.625    404.540   -999.250     34.723    245.541      1.199      1.406      3.166      4.680      4.302    115.990    129.630
   1033.750    405.179   -999.250     34.405    246.815      1.200      1.387      3.168      4.705      4.303    116.146    129.797
   1033.875    406.458   -999.250     34.462    248.089      1.209      1.378      3.163      4.705      4.305    116.262    129.947
   1034.000    408.056   -999.250     34.790    248.408      1.224      1.367      3.135      4.705      4.300    116.439    129.956
   1034.125    409.655   -999.250     34.971    249.363      1.224      1.365      3.129      4.730      4.273    116.460    130.105
   1034.250    410.934   -999.250     35.064    249.363      1.224      1.379      3.141      4.731      4.231    116.588    130.115
   1034.375    410.934   -999.250     35.187    249.363      1.225      1.388      3.161      4.730      4.222    116.717    130.106
   1034.500    410.934   -999.250     35.316    250.000      1.217      1.416      3.172      4.732      4.255    116.946    130.432
   1034.625    409.655   -999.250     35.446    250.000      1.224      1.438      3.189      4.755      4.301    116.865    130.582
   1034.750    408.376   -999.250     34.993    249.363      1.225      1.487      3.224      4.758      4.327    116.885    130.432
   1034.875    408.376   -999.250     34.488    248.726      1.234      1.516      3.249      4.781      4.354    116.974    130.583
   1035.000    407.737   -999.250     34.115    248.089      1.264      1.551      3.274      4.783      4.358    117.011    130.590
   1035.125    405.818   -999.250     33.773    246.178      1.310      1.593      3.349      4.806      4.379    116.884    130.585
   1035.250    403.261   -999.250     34.070    244.904      1.349      1.634      3.374      4.809      4.399    116.905    130.589
   1035.375    401.343   -999.250     34.252    242.357      1.361      1.656      3.390      4.832      4.404    116.911    130.586
   1035.500    398.785   -999.250     34.353    239.172      1.320      1.669      3.394      4.834      4.403    116.906    130.747
   1035.625    396.228   -999.250     34.184    237.898      1.276      1.685      3.424      4.833      4.422    117.089    130.905
   1035.750    393.670   -999.250     34.620    235.987      1.235      1.621      3.427      4.859      4.430    117.197    130.904
   1035.875    393.031   -999.250     35.403    234.076      1.202      1.548      3.419      4.858      4.430    117.269    130.907
   1036.000    395.269   -999.250     35.817    234.076      1.201      1.525      3.421      4.859      4.430    117.459    130.744
   1036.125    400.703   -999.250     35.877    235.350      1.227      1.500      3.371      4.859      4.430    117.586    130.749
   1036.250    408.376   -999.250     35.664    235.987      1.250      1.494      3.329      4.833      4.430    117.719    131.061
   1036.375    414.770   -999.250     35.423    238.535      1.258      1.494      3.316      4.833      4.431    118.018    131.066
   1036.500    421.164   -999.250     35.246    240.446      1.275      1.494      3.319      4.833      4.443    118.186    131.062
   1036.625    426.918   -999.250     35.111    242.357      1.291      1.494      3.298      4.834      4.457    118.359    130.907
   1036.750    432.673   -999.250     35.121    242.994      1.270      1.494      3.275      4.833      4.455    118.481    131.062
   1036.875    437.148   -999.250     35.168    245.541      1.189      1.505      3.261      4.834      4.454    118.644    131.064
   1037.000    441.624   -999.250     35.176    246.178      1.030      1.476      3.271      4.859      4.460    118.689    131.063
   1037.125    444.182   -999.250     35.251    246.815      1.154      1.343      3.290      4.859      4.485    118.734    131.170
   1037.250    446.739   -999.250     35.298    246.178      1.268      1.275      3.291      4.885      4.506    118.668    131.064
   1037.375    447.379   -999.250     35.263    245.541      1.336      1.517      3.300      4.885      4.527    118.686    131.220
   1037.500    448.018   -999.250     35.192    245.541      1.381      1.418      3.299      4.898      4.533    118.801    131.145
   1037.625    447.379   -999.250     35.020    244.904      1.144      1.292      3.349      4.911      4.532    118.472    131.060
   1037.750    447.379   -999.250     34.676    244.268      1.056      1.326      3.370      4.911      4.562    118.391    131.066
   1037.875    448.018   -999.250     34.384    243.631      1.163      1.381      3.383      4.936      4.578    118.207    131.060
   1038.000    450.256   -999.250     34.080    242.994      1.255      1.437      3.384      4.962      4.602    118.060    131.066
   1038.125    454.971   -999.250     33.853    242.994      1.323      1.492      3.405      4.987      4.639    117.821    130.902
   1038.250    458.248   -999.250     33.888    241.720      1.367      1.548      3.422      5.013      4.648    117.682    130.748
   1038.375    453.161   -999.250     34.169    240.446      1.354      1.576      3.418      5.089      4.699    117.525    130.744
   1038.500    446.531   -999.250     34.472    240.446      1.314      1.563      3.406      5.115      4.755    117.207    130.430
