~Version Information Block
 VERS.                2.00:     CWLS LOG ASCII STANDARD - VERSION 2.000000
 WRAP.                  NO:     One Line Per Depth Step
#
~Well Information Block
#MNEM.UNIT                     Data                         Information
#----------   ------------------------------------------   ----------------
 STRT.M                                        100.500:
 STOP.M                                       2142.000:
 STEP.M                                          0.125:
 NULL.                                        -999.250:
 COMP.                                   ²â¾®Êý¾Ý¿âµ¼³ö:     COMPANY 
 WELL.                                         ¹ÂÄÏ152-5:     Well 
 FLD .                                                :     Field 
 LOC .                                                :     LOCATION
 CNTY.                                                :     COUNTY
 STAT.                                                :     STATE
 CTRY.                                                :     COUNTRY
 SRVC.                                                :     SERVICE COMPANY
 DATE.                                                :     DATE
 API .                                                :     API NUMBER
#
~Curve Information Block
#MNEM.UNIT       API CODE      Curve Description
#----------    -------------   -------------------
 DEPT.M                    :   Depth in Meters
 AC  .Î¢Ãë/Ã×                      :   AC
 CAL .ÀåÃ×                      :   CAL
 CAL .ÀåÃ×                      :   CAL
 COND.mS/m                      :   COND
 GR  .Î¢Â×ÇÙ                      :   GR
 RLML.Å·Ä·Ã×                      :   RLML
 RNML.Å·Ä·Ã×                      :   RNML
 R04 .Å·Ä·Ã×                      :   R04
 R25 .Å·Ä·Ã×                      :   R25
 R25 .Å·Ä·Ã×                      :   R25
 R4  .Å·Ä·Ã×                      :   R4
 SP  .ºÁ·ü                      :   SP
 SP  .mv                      :   SP
#
~A  DEPTH          AC        CAL        CAL       COND         GR       RLML       RNML        R04        R25        R25         R4         SP         SP
# ...
   1582.500    393.974     23.725   -999.250    642.995      8.003      2.085      1.803      1.924      1.573      1.589      1.483     37.964     27.453
   1582.625    395.182     23.291   -999.250    642.352      8.062      1.767      1.618      1.925      1.608      1.615      1.499     37.808     27.456
   1582.750    398.321     23.166   -999.250    641.708      8.003      1.711      1.746      1.941      1.579      1.615      1.528     37.798     27.469
   1582.875    401.970     23.432   -999.250    642.995      7.978      1.655      1.603      1.958      1.579      1.565      1.529     37.809     27.484
   1583.000    404.278     23.652   -999.250    644.925      7.981      1.804      1.577      1.984      1.553      1.539      1.483     37.797     27.484
   1583.125    409.430     23.636   -999.250    651.358      7.626      1.941      1.754      2.077      1.474      1.489      1.430     37.645     27.478
   1583.250    412.649     23.622   -999.250    655.861      7.028      1.573      1.382      2.128      1.446      1.437      1.381     37.631     27.480
   1583.375    414.763     23.622   -999.250    658.435      7.203      1.352      1.514      2.158      1.362      1.387      1.350     37.480     27.483
   1583.500    415.225     23.693   -999.250    662.294      7.409      1.782      1.603      2.127      1.342      1.335      1.343     37.466     27.304
   1583.625    415.225     23.672   -999.250    666.154      7.551      1.647      1.525      2.068      1.319      1.285      1.320     37.316     27.441
   1583.750    415.527     23.502   -999.250    669.371      7.362      1.718      1.565      2.032      1.291      1.269      1.290     37.136     27.499
   1583.875    417.489     23.491   -999.250    673.231      6.977      1.505      1.460      2.004      1.238      1.259      1.238     37.151     27.578
   1584.000    418.445     23.494   -999.250    675.482      7.097      1.691      1.593      1.977      1.212      1.234      1.212     37.137     27.352
   1584.125    421.665     23.495   -999.250    679.021      7.258      1.413      1.655      1.946      1.170      1.209      1.170     36.987     27.366
   1584.250    424.885     23.480   -999.250    680.307      7.318      1.074      1.107      1.926      1.154      1.184      1.154     36.971     27.317
   1584.375    426.173     23.387   -999.250    681.594      7.166      1.815      1.782      1.904      1.133      1.158      1.133     36.987     27.147
   1584.500    425.897     23.361   -999.250    681.594      7.006      1.266      1.294      1.887      1.113      1.138      1.113     36.971     27.074
   1584.625    426.575     23.200   -999.250    679.664      6.928      1.786      1.572      1.864      1.095      1.089      1.095     36.989     26.957
   1584.750    432.406     23.345   -999.250    677.734      7.034      1.851      1.613      1.844      1.091      1.032      1.091     37.136     26.991
   1584.875    430.632     23.860   -999.250    673.231      6.970      1.468      1.489      1.847      1.063      1.125      1.063     37.155     26.836
   1585.000    423.919     23.973   -999.250    670.014      6.911      0.903      1.157      1.834      1.057      1.210      1.057     37.300     26.805
   1585.125    407.498     23.831   -999.250    666.798      7.342      1.078      1.251      1.822      1.038      1.209      1.038     37.321     26.737
   1585.250    408.303     23.595   -999.250    661.691      7.903      1.413      1.482      1.816      1.010      1.209      1.010     37.299     26.844
   1585.375    414.581     23.487   -999.250    658.435      7.595      2.738      2.613      1.799      1.034      1.183      1.034     37.487     26.860
   1585.500    418.445     23.638   -999.250    652.886      7.564      1.332      1.258      1.769      1.005      1.103      1.005     37.794     26.937
   1585.625    421.272     24.051   -999.250    643.638      7.243      1.529      1.804      1.770      0.972      1.031      0.971     37.982     26.814
   1585.750    422.667     24.074   -999.250    636.642      7.183      1.808      1.705      1.773      0.975      0.980      0.977     38.288     26.951
   1585.875    423.597     23.888   -999.250    629.043      7.340      1.354      1.350      1.802      1.042      0.954      1.048     38.477     26.995
   1586.000    423.275     23.848   -999.250    618.549      7.635      1.596      1.435      1.868      1.141      0.955      1.181     38.784     27.162
   1586.125    419.733     24.025   -999.250    611.472      8.004      1.508      1.549      1.919      1.289      1.006      1.289     38.806     27.159
   1586.250    408.480     24.533   -999.250    601.823      8.242      1.315      1.510      1.996      1.454      1.192      1.468     39.116     27.275
   1586.375    381.095     24.448   -999.250    592.173      8.502      1.838      2.051      2.092      1.734      1.361      1.619     39.465     27.296
   1586.500    354.048     24.317   -999.250    585.096      8.840      1.741      3.804      2.190      1.838      1.479      1.719     39.944     27.470
   1586.625    337.948     24.011   -999.250    575.447      9.036      3.779      3.230      2.326      1.782      1.599      1.660     40.288     27.579
   1586.750    344.388     23.673   -999.250    567.727      8.765      2.077      2.380      2.475      1.648      1.720      1.594     40.607     27.777
   1586.875    354.370     23.346   -999.250    563.224      8.422      1.428      1.507      2.563      1.561      1.750      1.560     40.945     27.877
   1587.000    362.603     23.056   -999.250    560.972      8.659      1.757      1.553      2.643      1.425      1.639      1.526     41.271     28.166
   1587.125    369.871     22.846   -999.250    561.294      8.566      1.659      1.638      2.617      1.262      1.524      1.386     41.272     28.399
   1587.250    375.943     22.649   -999.250    562.580      8.723      1.436      1.425      2.551      1.141      1.415      1.293     41.275     28.597
   1587.375    382.383     22.658   -999.250    565.154      9.006      1.578      1.441      2.469      1.036      1.299      1.247     41.433     28.857
   1587.500    388.178     22.676   -999.250    568.370      8.827      1.654      1.589      2.465      0.932      1.190      1.217     41.443     29.051
   1587.625    392.686     22.787   -999.250    570.944      8.896      1.636      1.588      2.448      0.849      1.074      1.198     41.595     29.329
   1587.750    393.974     23.081   -999.250    573.517      9.050      1.819      1.605      2.414      0.956      0.966      1.239     41.610     29.748
   1587.875    395.262     23.402   -999.250    573.517      9.190      1.736      1.601      2.416      1.383      1.133      1.321     41.923     30.082
   1588.000    395.262     23.510   -999.250    569.657      9.232      1.584      1.529      2.354      1.668      1.435      1.417     42.436     30.357
   1588.125    394.296     23.413   -999.250    563.224      8.894      1.464      1.499      2.331      1.945      1.689      1.815     42.911     30.670
   1588.250    380.129     23.262   -999.250    555.504      8.585      1.671      1.508      2.295      2.217      1.883      2.198     43.262     31.115
   1588.375    379.807     22.963   -999.250    547.784      8.072      2.919      2.899      2.179      2.398      2.045      2.415     43.901     31.477
   1588.500    381.739     24.399   -999.250    541.351      8.304      5.182      2.412      2.062      2.478      2.217      2.459     44.252     31.874
   1588.625    390.674     27.943   -999.250    537.491      8.468      0.418      1.247      1.996      2.362      2.376      2.362     44.603     32.487
   1588.750    405.405     27.514   -999.250    533.631      8.374      0.624      0.729      1.982      2.062      2.228      2.029     44.977     33.062
   1588.875    419.894     26.999   -999.250    530.415      8.715      1.165      0.995      1.970      1.774      2.075      1.673     45.312     33.379
