~Version Information Block
 VERS.                2.00:     CWLS LOG ASCII STANDARD - VERSION 2.000000
 WRAP.                  NO:     One Line Per Depth Step
#
~Well Information Block
#MNEM.UNIT                     Data                         Information
#----------   ------------------------------------------   ----------------
 STRT.M                                        100.500:
 STOP.M                                       2142.000:
 STEP.M                                          0.125:
 NULL.                                        -999.250:
 COMP.                                   ²â¾®Êý¾Ý¿âµ¼³ö:     COMPANY 
 WELL.                                         ¹ÂÄÏ152-5:     Well 
 FLD .                                                :     Field 
 LOC .                                                :     LOCATION
 CNTY.                                                :     COUNTY
 STAT.                                                :     STATE
 CTRY.                                                :     COUNTRY
 SRVC.                                                :     SERVICE COMPANY
 DATE.                                                :     DATE
 API .                                                :     API NUMBER
#
~Curve Information Block
#MNEM.UNIT       API CODE      Curve Description
#----------    -------------   -------------------
 DEPT.M                    :   Depth in Meters
 AC  .Î¢Ãë/Ã×                      :   AC
 CAL .ÀåÃ×                      :   CAL
 CAL .ÀåÃ×                      :   CAL
 COND.mS/m                      :   COND
 GR  .Î¢Â×ÇÙ                      :   GR
 RLML.Å·Ä·Ã×                      :   RLML
 RNML.Å·Ä·Ã×                      :   RNML
 R04 .Å·Ä·Ã×                      :   R04
 R25 .Å·Ä·Ã×                      :   R25
 R25 .Å·Ä·Ã×                      :   R25
 R4  .Å·Ä·Ã×                      :   R4
 SP  .ºÁ·ü                      :   SP
 SP  .mv                      :   SP
#
~A  DEPTH          AC        CAL        CAL       COND         GR       RLML       RNML        R04        R25        R25         R4         SP         SP
# ...
   1907.500    374.011     26.083   -999.250    547.784      8.489      2.020      1.437      1.944      2.149      2.035      2.059     52.836     43.682
   1907.625    397.597     26.261   -999.250    551.001      9.064      0.911      1.084      1.806      2.143      2.023      1.993     53.007     43.867
   1907.750    421.343     25.938   -999.250    555.504      9.480      1.443      1.312      1.643      2.092      1.946      1.872     53.330     44.073
   1907.875    440.662     25.606   -999.250    563.224      9.831      0.960      1.386      1.536      1.927      1.819      1.729     53.667     44.408
   1908.000    465.133     25.569   -999.250    569.014     10.115      1.365      1.465      1.403      1.770      1.667      1.586     53.990     44.991
   1908.125    489.282     26.073   -999.250    578.020      9.959      1.149      1.146      1.247      1.601      1.540      1.461     54.162     45.164
   1908.250    508.004     27.683   -999.250    587.670      9.621      0.892      0.999      1.153      1.376      1.453      1.336     54.485     45.408
   1908.375    517.939     30.113   -999.250    603.753      9.505      0.916      0.821      1.113      1.326      1.354      1.308     54.655     45.710
   1908.500    520.515     31.754   -999.250    617.906      9.740      0.818      0.766      1.071      1.321      1.260      1.295     54.815     46.067
   1908.625    513.753     31.760   -999.250    628.199      9.659      0.494      0.730      1.064      1.318      1.312      1.289     54.984     46.255
   1908.750    509.246     30.847   -999.250    637.848     10.150      0.586      0.710      1.054      1.347      1.362      1.280     55.146     46.487
   1908.875    506.348     30.045   -999.250    646.212     10.531      0.420      0.686      1.065      1.358      1.411      1.360     55.313     46.634
   1909.000    504.094     28.912   -999.250    648.785     10.723      0.801      0.621      1.126      1.436      1.463      1.405     55.476     46.730
   1909.125    499.264     28.218   -999.250    648.142     10.922      0.618      0.883      1.148      1.607      1.540      1.516     55.642     46.812
   1909.250    500.874     28.133   -999.250    645.568     11.003      0.661      0.883      1.163      1.734      1.615      1.461     55.642     46.843
   1909.375    499.586     28.086   -999.250    637.205     10.942      0.620      0.775      1.190      1.826      1.642      1.543     55.642     46.879
   1909.500    492.766     27.675   -999.250    630.129     10.898      1.052      0.876      1.202      1.931      1.713      1.612     55.642     46.857
   1909.625    484.862     27.118   -999.250    622.409     10.869      0.859      1.001      1.204      1.995      1.775      1.663     55.642     46.795
   1909.750    480.911     26.363   -999.250    620.479     10.993      0.572      0.700      1.205      1.989      1.834      1.697     55.643     46.955
   1909.875    493.468     25.590   -999.250    618.549     11.231      0.737      0.804      1.177      1.928      1.896      1.707     55.808     46.910
   1910.000    505.634     24.913   -999.250    617.906     11.128      0.888      0.945      1.202      1.857      1.970      1.657     55.808     46.707
   1910.125    518.784     24.244   -999.250    619.192     11.492      0.820      0.891      1.133      1.792      1.887      1.587     55.644     46.707
   1910.250    525.989     23.837   -999.250    623.052     11.589      0.616      0.686      1.099      1.752      1.770      1.451     55.643     46.659
   1910.375    540.156     23.456   -999.250    627.555     11.457      0.817      0.874      1.074      1.683      1.657      1.380     55.645     46.565
   1910.500    540.800     23.236   -999.250    630.772     11.169      0.492      0.655      1.047      1.572      1.564      1.370     55.808     46.567
   1910.625    538.040     23.314   -999.250    633.345     11.031      0.861      0.864      1.048      1.415      1.489      1.427     55.811     46.485
   1910.750    530.497     23.438   -999.250    635.275     10.892      0.415      0.645      0.996      1.372      1.387      1.424     55.642     46.576
   1910.875    522.769     23.390   -999.250    635.919     10.695      0.578      0.589      0.956      1.378      1.336      1.431     55.646     46.582
   1911.000    513.431     23.306   -999.250    636.562     10.629      0.948      0.800      0.965      1.323      1.286      1.471     55.643     46.696
   1911.125    502.806     23.192   -999.250    636.562     10.664      0.692      0.893      0.917      1.343      1.260      1.528     55.647     46.735
   1911.250    491.053     23.050   -999.250    634.632     10.795      0.625      0.855      0.917      1.376      1.261      1.549     55.643     46.821
   1911.375    480.267     23.004   -999.250    629.485     10.728      0.549      0.870      0.918      1.399      1.260      1.585     55.646     46.687
   1911.500    464.811     23.042   -999.250    619.836     10.880      0.854      0.893      0.934      1.422      1.312      1.631     55.808     46.874
   1911.625    463.523     23.020   -999.250    610.186     11.143      0.921      0.884      1.013      1.450      1.361      1.631     55.811     46.911
   1911.750    463.523     23.508   -999.250    601.823     10.737      0.713      0.785      1.073      1.450      1.388      1.634     55.808     47.069
   1911.875    463.523     24.554   -999.250    592.173     10.424      0.345      0.748      1.160      1.450      1.412      1.605     55.811     47.044
   1912.000    463.201     26.116   -999.250    583.167     10.163      0.674      0.835      1.257      1.449      1.439      1.604     55.809     47.018
   1912.125    454.508     27.932   -999.250    576.090      9.767      0.852      0.780      1.265      1.486      1.488      1.658     55.810     47.178
   1912.250    431.325     29.511   -999.250    568.692      9.498      0.574      0.733      1.296      1.581      1.490      1.708     55.809     47.374
   1912.375    408.142     31.489   -999.250    561.615      9.600      0.985      0.824      1.360      1.660      1.552      1.752     55.809     47.350
   1912.500    392.758     32.183   -999.250    554.539      9.744      0.840      0.982      1.378      1.713      1.617      1.793     55.974     47.362
   1912.625    381.095     32.122   -999.250    548.749      9.818      0.899      0.998      1.403      1.763      1.691      1.838     55.974     47.416
   1912.750    375.299     31.831   -999.250    545.211      9.299      0.903      0.963      1.408      1.836      1.743      1.881     55.809     47.413
   1912.875    371.435     32.005   -999.250    542.959      9.184      0.611      0.862      1.406      1.864      1.793      1.870     55.974     47.409
   1913.000    368.215     33.096   -999.250    539.743      9.371      0.613      0.940      1.434      1.853      1.817      1.842     55.974     47.217
   1913.125    364.995     34.236   -999.250    537.169      9.384      0.868      0.894      1.462      1.817      1.844      1.819     55.975     47.212
   1913.250    364.995     34.618   -999.250    535.561      9.046      0.426      0.760      1.460      1.837      1.870      1.811     55.972     47.209
   1913.375    363.707     34.028   -999.250    535.561      9.021      0.511      0.699      1.459      1.838      1.819      1.809     55.976     47.295
   1913.500    360.396     33.471   -999.250    536.526      9.160      0.521      0.812      1.459      1.838      1.794      1.838     55.971     47.212
   1913.625    356.808     34.107   -999.250    538.456      9.272      0.511      0.693      1.460      1.838      1.768      1.836     55.977     47.090
   1913.750    353.220     34.756   -999.250    540.708      9.463      0.447      0.682      1.387      1.838      1.743      1.871     55.970     47.042
   1913.875    350.828     34.890   -999.250    543.603      9.141      0.570      0.764      1.391      1.838      1.717      1.917     55.813     47.100
