~Version Information Block
 VERS.                2.00:     CWLS LOG ASCII STANDARD - VERSION 2.000000
 WRAP.                  NO:     One Line Per Depth Step
#
~Well Information Block
#MNEM.UNIT                     Data                         Information
#----------   ------------------------------------------   ----------------
 STRT.M                                        100.500:
 STOP.M                                       2142.000:
 STEP.M                                          0.125:
 NULL.                                        -999.250:
 COMP.                                   ²â¾®Êý¾Ý¿âµ¼³ö:     COMPANY 
 WELL.                                         ¹ÂÄÏ152-5:     Well 
 FLD .                                                :     Field 
 LOC .                                                :     LOCATION
 CNTY.                                                :     COUNTY
 STAT.                                                :     STATE
 CTRY.                                                :     COUNTRY
 SRVC.                                                :     SERVICE COMPANY
 DATE.                                                :     DATE
 API .                                                :     API NUMBER
#
~Curve Information Block
#MNEM.UNIT       API CODE      Curve Description
#----------    -------------   -------------------
 DEPT.M                    :   Depth in Meters
 AC  .Î¢Ãë/Ã×                      :   AC
 CAL .ÀåÃ×                      :   CAL
 CAL .ÀåÃ×                      :   CAL
 COND.mS/m                      :   COND
 GR  .Î¢Â×ÇÙ                      :   GR
 RLML.Å·Ä·Ã×                      :   RLML
 RNML.Å·Ä·Ã×                      :   RNML
 R04 .Å·Ä·Ã×                      :   R04
 R25 .Å·Ä·Ã×                      :   R25
 R25 .Å·Ä·Ã×                      :   R25
 R4  .Å·Ä·Ã×                      :   R4
 SP  .ºÁ·ü                      :   SP
 SP  .mv                      :   SP
#
~A  DEPTH          AC        CAL        CAL       COND         GR       RLML       RNML        R04        R25        R25         R4         SP         SP
# ...
   1147.000    504.094     30.053   -999.250    457.720      8.854      0.455      0.686      1.737      2.402      2.863      2.384     43.574     32.328
   1147.125    516.430     30.284   -999.250    462.223      8.631      0.468      0.662      1.719      2.248      2.759      2.293     43.599     32.412
   1147.250    530.497     30.579   -999.250    462.866      8.246      0.459      0.648      1.692      2.096      2.547      2.214     43.574     32.482
   1147.375    542.088     31.204   -999.250    464.153      8.331      0.438      0.587      1.667      1.958      2.357      2.151     43.269     32.300
   1147.500    551.104     32.721   -999.250    464.153      7.799      0.548      0.636      1.652      1.908      2.273      2.127     43.409     32.248
   1147.625    568.491     36.981   -999.250    464.153      7.355      0.380      0.687      1.663      1.870      2.052      2.095     43.598     32.384
   1147.750    558.832     36.553   -999.250    462.223      7.635      0.669      0.753      1.644      1.863      1.943      2.077     43.740     32.373
   1147.875    549.279     35.087   -999.250    456.433      8.232      0.747      0.831      1.613      1.864      1.925      2.065     43.597     32.410
   1148.000    540.800     33.267   -999.250    449.357      8.819      0.688      0.795      1.612      1.864      1.943      2.045     43.741     32.357
   1148.125    536.937     31.335   -999.250    441.637      9.491      0.644      0.943      1.618      1.863      1.976      2.050     43.925     32.378
   1148.250    538.949     30.110   -999.250    431.344      9.754      0.520      0.737      1.660      1.861      2.020      2.070     44.073     32.396
   1148.375    540.800     29.192   -999.250    421.560      9.528      0.925      0.874      1.685      1.901      2.002      2.071     43.923     32.268
   1148.500    541.444     29.428   -999.250    414.618      9.082      0.812      1.052      1.724      1.951      1.970      2.100     44.075     32.337
   1148.625    539.660     30.402   -999.250    407.541      8.776      0.603      0.856      1.770      2.002      1.900      2.097     44.249     32.298
   1148.750    529.853     32.203   -999.250    399.178      8.591      0.440      0.733      1.813      2.052      1.868      2.126     44.243     32.280
   1148.875    513.109     32.855   -999.250    390.172      8.718      0.652      0.914      1.904      2.103      1.849      2.144     44.246     32.259
   1149.000    497.783     33.607   -999.250    384.703      8.432      0.491      0.680      1.908      2.167      1.869      2.173     44.246     32.443
   1149.125    495.078     33.953   -999.250    380.522      8.030      0.459      0.585      1.908      2.251      1.925      2.231     44.408     32.572
   1149.250    503.436     34.799   -999.250    376.662      7.765      0.517      0.642      1.949      2.305      2.047      2.303     44.413     32.564
   1149.375    511.077     35.470   -999.250    374.089      7.708      0.880      1.094      2.001      2.402      2.099      2.446     44.405     32.565
   1149.500    515.041     35.795   -999.250    371.515      7.965      1.088      0.971      2.019      2.504      2.199      2.585     44.415     32.563
   1149.625    516.329     35.563   -999.250    373.445      8.338      0.821      0.857      2.037      2.503      2.280      2.688     44.404     32.745
   1149.750    514.397     34.703   -999.250    372.802      8.524      1.059      1.160      2.106      2.469      2.327      2.717     44.417     32.849
   1149.875    508.602     33.450   -999.250    373.445      8.604      0.587      0.669      2.169      2.452      2.458      2.742     44.567     32.911
   1150.000    501.596     32.199   -999.250    375.375      8.555      0.343      0.412      2.244      2.556      2.543      2.742     44.583     32.990
   1150.125    496.366     32.874   -999.250    378.592      8.428      1.058      1.042      2.237      2.643      2.559      2.742     44.567     33.033
   1150.250    486.646     35.134   -999.250    382.693      8.565      0.427      0.846      2.256      2.705      2.581      2.774     44.583     33.104
   1150.375    480.267     36.353   -999.250    388.242      8.662      0.579      0.919      2.273      2.790      2.559      2.975     44.567     33.063
   1150.500    486.063     36.281   -999.250    392.745      8.792      0.564      0.960      2.313      2.857      2.556      3.057     44.253     33.169
   1150.625    493.263     35.792   -999.250    397.610      9.050      0.520      0.817      2.312      2.922      2.558      3.129     44.403     33.208
   1150.750    500.230     35.523   -999.250    403.038      9.192      0.539      0.682      2.308      2.943      2.607      3.189     44.418     33.036
   1150.875    501.867     35.611   -999.250    409.471      9.298      0.984      0.984      2.252      2.989      2.634      3.204     44.403     33.049
   1151.000    505.060     35.849   -999.250    418.156      9.432      0.726      0.760      2.217      3.063      2.709      3.216     44.417     33.073
   1151.125    514.478     34.879   -999.250    429.414      9.610      0.460      0.460      2.185      3.123      2.811      3.130     44.404     33.016
   1151.250    522.769     33.130   -999.250    437.134      9.734      0.773      0.856      2.101      3.000      2.900      3.051     44.416     32.999
   1151.375    530.819     32.353   -999.250    445.497      9.846      0.969      0.937      2.059      2.945      2.970      2.974     44.240     32.871
   1151.500    542.732     32.204   -999.250    451.930      9.579      0.783      0.907      2.008      2.825      3.041      2.775     44.251     32.881
   1151.625    548.528     32.355   -999.250    458.363      9.115      0.663      0.863      1.953      2.762      3.111      2.637     44.240     32.857
   1151.750    553.036     31.785   -999.250    463.510      9.193      0.504      0.806      1.941      2.713      3.183      2.534     44.085     32.812
   1151.875    552.392     31.308   -999.250    469.299      9.296      0.538      0.800      1.911      2.642      3.242      2.479     44.242     32.716
   1152.000    548.528     31.140   -999.250    473.159      9.031      0.628      0.818      1.822      2.583      3.148      2.423     44.249     32.715
   1152.125    544.664     30.764   -999.250    475.733      8.672      0.689      0.929      1.853      2.511      3.061      2.301     44.189     32.756
   1152.250    541.498     29.875   -999.250    478.949      8.456      0.640      0.888      1.822      2.437      2.979      2.194     44.083     32.882
   1152.375    539.512     28.907   -999.250    480.879      8.378      0.595      0.836      1.802      2.383      2.892      2.175     44.079     32.848
   1152.500    538.868     28.632   -999.250    481.523      8.644      0.694      0.878      1.821      2.380      2.810      2.250     43.999     32.830
   1152.625    538.868     28.536   -999.250    480.879      8.937      0.642      0.888      1.794      2.382      2.759      2.252     43.915     32.860
   1152.750    538.224     28.287   -999.250    478.306      9.176      0.850      0.898      1.771      2.334      2.685      2.252     43.915     32.837
   1152.875    536.293     27.901   -999.250    475.733      9.214      0.653      0.895      1.769      2.301      2.632      2.251     43.917     32.710
   1153.000    533.073     28.019   -999.250    473.159      9.231      0.451      0.883      1.769      2.305      2.609      2.251     43.914     32.725
   1153.125    532.278     28.348   -999.250    471.229      9.077      0.494      0.826      1.769      2.274      2.531      2.251     43.918     32.713
   1153.250    531.785     28.977   -999.250    469.299      8.768      0.631      0.713      1.771      2.247      2.482      2.257     43.913     32.778
   1153.375    531.785     29.675   -999.250    467.370      8.931      0.752      0.828      1.790      2.271      2.455      2.276     43.753     32.673
