~Version Information Block
 VERS.                2.00:     CWLS LOG ASCII STANDARD - VERSION 2.000000
 WRAP.                  NO:     One Line Per Depth Step
#
~Well Information Block
#MNEM.UNIT                     Data                         Information
#----------   ------------------------------------------   ----------------
 STRT.M                                        183.125:
 STOP.M                                       2134.000:
 STEP.M                                          0.125:
 NULL.                                        -999.250:
 COMP.                                   ²â¾®Êý¾Ý¿âµ¼³ö:     COMPANY 
 WELL.                                        ¹ÂÄÏ152-05:     Well 
 FLD .                                                :     Field 
 LOC .                                                :     LOCATION
 CNTY.                                                :     COUNTY
 STAT.                                                :     STATE
 CTRY.                                                :     COUNTRY
 SRVC.                                                :     SERVICE COMPANY
 DATE.                                                :     DATE
 API .                                                :     API NUMBER
#
~Curve Information Block
#MNEM.UNIT       API CODE      Curve Description
#----------    -------------   -------------------
 DEPT.M                    :   Depth in Meters
 AC  .Î¢Ãë/Ã×                      :   AC
 CAL .ÀåÃ×                      :   CAL
 CAL .ÀåÃ×                      :   CAL
 COND.ºÁÄ·Å·/Ã×                      :   COND
 GR  .Î¢Â×ÇÙ/Ð¡Ê±                      :   GR
 GR  .Î¢Â×ÇÙ/Ð¡Ê±                      :   GR
 RLML.Å·Ä·Ã×                      :   RLML
 RLML.Å·Ä·Ã×                      :   RLML
 RNML.Å·Ä·Ã×                      :   RNML
 RNML.Å·Ä·Ã×                      :   RNML
 R04 .Å·Ä·Ã×                      :   R04
 R25 .Å·Ä·Ã×                      :   R25
 R4  .Å·Ä·Ã×                      :   R4
 SP  .ºÁ·ü                      :   SP
 SP  .ºÁ·ü                      :   SP
#
~A  DEPTH          AC        CAL        CAL       COND         GR         GR       RLML       RLML       RNML       RNML        R04        R25         R4         SP         SP
# ...
   1522.875    405.185   -999.250     25.989    596.091      6.340   -999.250      0.550   -999.250   -999.250      0.603      1.324      1.220      0.920    118.494    118.838
   1523.000    412.222   -999.250     26.655    603.445      6.692   -999.250      0.283   -999.250   -999.250      0.452      1.304      1.145      0.906    118.492    118.823
   1523.125    397.222   -999.250     27.601    602.804      7.011   -999.250      0.391   -999.250   -999.250      0.378      1.270      1.074      0.906    118.335    118.701
   1523.250    380.520   -999.250     28.711    602.136      6.814   -999.250      0.459   -999.250   -999.250      0.585      1.244      1.000      0.925    118.175    118.667
   1523.375    363.833   -999.250     30.313    597.758      7.075   -999.250      0.279   -999.250   -999.250      0.655      1.247      0.934      0.958    118.017    118.668
   1523.500    352.685   -999.250     29.472    597.785      7.717   -999.250      1.056   -999.250   -999.250      0.884      1.249      0.933      0.961    117.860    118.670
   1523.625    362.148   -999.250     27.222    598.320      7.032   -999.250      1.433   -999.250   -999.250      1.262      1.267      0.934      0.977    117.857    118.673
   1523.750    379.841   -999.250     25.128    594.267      7.223   -999.250      0.756   -999.250   -999.250      0.750      1.258      1.029      1.008    117.862    118.669
   1523.875    398.113   -999.250     22.930    589.834      7.438   -999.250      0.227   -999.250   -999.250      0.421      1.272      1.122      1.029    117.856    118.846
   1524.000    415.397   -999.250     23.689    583.548      7.525   -999.250      0.944   -999.250   -999.250      1.182      1.273      1.216      1.014    117.864    118.832
   1524.125    406.710   -999.250     24.713    577.262      7.663   -999.250      0.425   -999.250   -999.250      0.460      1.274      1.316      1.006    117.855    118.830
   1524.250    397.044   -999.250     25.719    574.411      7.855   -999.250      0.600   -999.250   -999.250      0.629      1.273      1.238      1.007    117.865    118.831
   1524.375    384.983   -999.250     26.449    575.885      8.184   -999.250      0.969   -999.250   -999.250      1.161      1.301      1.151      1.006    118.014    118.828
   1524.500    370.952   -999.250     24.874    577.360      7.960   -999.250      1.432   -999.250   -999.250      1.537      1.304      1.068      1.006    118.025    118.813
   1524.625    374.191   -999.250     23.935    578.480      7.402   -999.250      0.913   -999.250   -999.250      0.483      1.323      1.009      1.006    118.172    118.991
   1524.750    376.032   -999.250     23.627    574.507      7.144   -999.250      0.517   -999.250   -999.250      0.810      1.325      1.042      1.006    118.183    118.996
   1524.875    371.905   -999.250     23.404    569.240      7.369   -999.250      0.892   -999.250   -999.250      1.117      1.325      1.140      1.006    118.331    119.117
   1525.000    364.321   -999.250     23.594    563.973      6.656   -999.250      0.816   -999.250   -999.250      0.696      1.325      1.242      1.006    118.500    119.135
   1525.125    357.355   -999.250     23.726    558.707      7.098   -999.250      1.460   -999.250   -999.250      1.655      1.327      1.302      1.005    118.649    119.307
   1525.250    355.665   -999.250     23.295    553.440      7.175   -999.250      0.665   -999.250   -999.250      0.944      1.299      1.252      0.986    118.736    119.183
   1525.375    367.421   -999.250     23.437    553.053      6.458   -999.250      0.428   -999.250   -999.250      0.598      1.272      1.198      0.979    118.807    119.284
   1525.500    378.984   -999.250     23.929    553.520      7.162   -999.250      1.086   -999.250   -999.250      0.391      1.246      1.148      0.978    119.050    119.479
   1525.625    386.213   -999.250     24.535    551.160      6.953   -999.250      0.287   -999.250   -999.250      1.198      1.202      1.111      0.979    119.363    119.599
   1525.750    384.286   -999.250     25.164    548.000      6.465   -999.250      0.760   -999.250   -999.250      0.765      1.161      1.117      1.000    119.603    119.633
   1525.875    389.822   -999.250     25.267    544.174      6.384   -999.250      1.122   -999.250   -999.250      0.473      1.104      1.122      0.992    119.998    119.621
   1526.000    397.494   -999.250     25.200    535.184      6.619   -999.250      0.288   -999.250   -999.250      1.220      1.079      1.129      0.992    120.314    119.790
   1526.125    404.603   -999.250     26.572    526.196      6.337   -999.250      0.534   -999.250   -999.250      0.313      1.067      1.134      1.005    120.633    119.948
   1526.250    412.222   -999.250     29.355    517.159      7.073   -999.250      0.747   -999.250   -999.250      0.675      1.068      1.115      1.006    121.026    120.111
   1526.375    417.302   -999.250     32.131    507.352      6.065   -999.250      0.334   -999.250   -999.250      0.849      1.068      1.051      1.007    121.267    120.140
   1526.500    417.302   -999.250     34.916    496.560      6.400   -999.250      0.929   -999.250   -999.250      0.264      1.096      0.989      1.027    121.500    120.272
   1526.625    410.529   -999.250     37.184    486.320      6.563   -999.250      0.578   -999.250   -999.250      1.155      1.126      0.924      1.033    121.664    120.402
   1526.750    400.794   -999.250     38.705    476.720      6.096   -999.250      0.310   -999.250   -999.250      0.963      1.168      0.858      1.053    121.817    120.437
   1526.875    406.905   -999.250     38.058    469.680      6.509   -999.250      0.707   -999.250   -999.250      0.379      1.200      0.856      1.059    121.823    120.434
   1527.000    419.524   -999.250     38.069    461.040      7.262   -999.250      0.399   -999.250   -999.250      0.696      1.273      0.883      1.077    121.818    120.432
   1527.125    432.258   -999.250     39.051    454.960      8.085   -999.250      0.695   -999.250   -999.250      0.576      1.317      1.036      1.118    121.584    120.430
   1527.250    450.952   -999.250     38.019    454.960      8.512   -999.250      0.274   -999.250   -999.250      0.417      1.369      1.200      1.153    121.264    120.434
   1527.375    447.205   -999.250     36.186    461.360      8.889   -999.250      0.360   -999.250   -999.250      0.415      1.405      1.361      1.187    120.870    120.249
   1527.500    438.607   -999.250     34.287    470.960      8.908   -999.250      0.447   -999.250   -999.250      0.482      1.449      1.457      1.233    120.553    120.133
   1527.625    424.286   -999.250     32.306    481.840      9.272   -999.250      0.335   -999.250   -999.250      0.583      1.476      1.482      1.285    120.156    119.975
   1527.750    405.238   -999.250     27.678    492.720      9.915   -999.250      0.287   -999.250   -999.250      0.480      1.504      1.508      1.337    119.683    119.838
   1527.875    387.460   -999.250     26.023    503.600      8.889   -999.250      0.918   -999.250   -999.250      0.804      1.505      1.534      1.358    119.362    119.645
   1528.000    374.445   -999.250     24.464    515.760      7.470   -999.250      0.954   -999.250   -999.250      1.051      1.505      1.641      1.364    119.051    119.438
   1528.125    365.873   -999.250     22.915    527.920      7.655   -999.250      1.094   -999.250   -999.250      1.198      1.499      1.817      1.339    118.807    119.324
   1528.250    359.785   -999.250     22.206    546.000      8.025   -999.250      1.607   -999.250   -999.250      1.414      1.480      1.979      1.308    118.577    119.138
   1528.375    354.257   -999.250     21.892    560.289      7.578   -999.250      1.400   -999.250   -999.250      1.738      1.450      1.980      1.241    118.489    119.117
   1528.500    348.730   -999.250     21.901    573.902      7.316   -999.250      1.123   -999.250   -999.250      0.996      1.424      1.926      1.188    118.419    119.000
