~Version Information Block
 VERS.                2.00:     CWLS LOG ASCII STANDARD - VERSION 2.000000
 WRAP.                  NO:     One Line Per Depth Step
#
~Well Information Block
#MNEM.UNIT                     Data                         Information
#----------   ------------------------------------------   ----------------
 STRT.M                                        100.500:
 STOP.M                                       2142.000:
 STEP.M                                          0.125:
 NULL.                                        -999.250:
 COMP.                                   ²â¾®Êý¾Ý¿âµ¼³ö:     COMPANY 
 WELL.                                         ¹ÂÄÏ152-5:     Well 
 FLD .                                                :     Field 
 LOC .                                                :     LOCATION
 CNTY.                                                :     COUNTY
 STAT.                                                :     STATE
 CTRY.                                                :     COUNTRY
 SRVC.                                                :     SERVICE COMPANY
 DATE.                                                :     DATE
 API .                                                :     API NUMBER
#
~Curve Information Block
#MNEM.UNIT       API CODE      Curve Description
#----------    -------------   -------------------
 DEPT.M                    :   Depth in Meters
 AC  .Î¢Ãë/Ã×                      :   AC
 CAL .ÀåÃ×                      :   CAL
 CAL .ÀåÃ×                      :   CAL
 COND.mS/m                      :   COND
 GR  .Î¢Â×ÇÙ                      :   GR
 RLML.Å·Ä·Ã×                      :   RLML
 RNML.Å·Ä·Ã×                      :   RNML
 R04 .Å·Ä·Ã×                      :   R04
 R25 .Å·Ä·Ã×                      :   R25
 R25 .Å·Ä·Ã×                      :   R25
 R4  .Å·Ä·Ã×                      :   R4
 SP  .ºÁ·ü                      :   SP
 SP  .mv                      :   SP
#
~A  DEPTH          AC        CAL        CAL       COND         GR       RLML       RNML        R04        R25        R25         R4         SP         SP
# ...
   1361.500    451.288     23.794   -999.250    530.415     11.539      1.010      0.880      1.737      2.737      3.083      3.431     54.153     41.646
   1361.625    471.895     24.027   -999.250    527.841     11.608      0.312      0.721      1.643      2.621      2.944      3.226     54.487     41.987
   1361.750    493.790     23.939   -999.250    525.911     11.556      0.749      0.932      1.640      2.358      2.786      2.699     54.647     41.943
   1361.875    508.944     24.016   -999.250    523.981     11.293      0.535      0.781      1.640      2.169      2.608      2.563     54.486     41.713
   1362.000    525.989     24.379   -999.250    522.051     10.497      0.935      0.957      1.640      2.101      2.405      2.595     54.316     41.054
   1362.125    529.209     24.967   -999.250    520.122      9.658      0.750      1.012      1.640      2.123      2.295      2.632     54.156     40.925
   1362.250    529.853     25.154   -999.250    517.548      9.488      0.764      0.836      1.640      2.121      2.227      2.616     54.151     40.850
   1362.375    532.035     25.198   -999.250    515.618      9.077      0.531      0.871      1.641      2.122      2.176      2.551     54.156     40.688
   1362.500    533.430     25.289   -999.250    513.688      8.735      0.715      0.832      1.635      2.049      2.103      2.459     53.987     40.537
   1362.625    532.429     25.599   -999.250    511.758      8.524      0.750      0.831      1.617      1.969      2.010      2.387     53.991     40.370
   1362.750    529.370     25.728   -999.250    509.828      8.184      0.488      0.907      1.607      1.827      1.914      2.289     53.821     40.386
   1362.875    523.413     26.076   -999.250    509.185      7.833      0.786      0.769      1.581      1.683      1.821      2.199     53.662     40.224
   1363.000    529.531     26.624   -999.250    507.898      7.825      0.861      0.955      1.564      1.688      1.724      2.129     53.490     40.096
   1363.125    540.156     26.974   -999.250    505.325      7.995      0.628      0.755      1.566      1.740      1.645      2.124     53.334     40.222
   1363.250    543.376     27.442   -999.250    504.039      8.020      0.543      0.885      1.539      1.760      1.722      2.125     53.324     40.234
   1363.375    542.410     28.296   -999.250    502.109      7.752      0.696      0.747      1.511      1.782      1.797      2.162     53.171     40.019
   1363.500    541.444     29.411   -999.250    499.535      7.578      0.775      0.826      1.511      1.803      1.865      2.212     52.993     39.857
   1363.625    532.630     30.901   -999.250    495.675      7.486      0.475      0.690      1.517      1.882      1.940      2.229     52.678     39.609
   1363.750    516.329     32.839   -999.250    492.459      7.450      0.599      0.873      1.557      2.008      2.022      2.203     52.497     39.387
   1363.875    507.958     31.113   -999.250    489.242      7.481      0.695      0.738      1.588      2.102      2.050      2.200     52.349     39.298
   1364.000    506.670     30.000   -999.250    486.347      7.596      0.469      0.903      1.593      2.148      2.098      2.197     52.165     39.057
   1364.125    515.685     28.956   -999.250    484.096      7.766      0.691      0.721      1.588      2.195      2.152      2.226     51.855     38.943
   1364.250    509.246     29.874   -999.250    482.809      7.693      0.655      0.831      1.588      2.199      2.200      2.225     51.834     38.945
   1364.375    499.371     31.194   -999.250    481.523      7.555      0.685      0.741      1.588      2.244      2.231      2.226     51.691     38.782
   1364.500    484.628     30.934   -999.250    480.236      7.511      0.651      0.857      1.593      2.245      2.276      2.226     51.503     38.748
   1364.625    475.554     30.546   -999.250    479.593      7.905      0.467      0.737      1.641      2.256      2.314      2.226     51.361     38.631
   1364.750    468.031     30.160   -999.250    478.949      7.685      0.662      0.773      1.662      2.281      2.355      2.224     51.173     38.462
   1364.875    478.399     29.796   -999.250    478.949      7.545      0.536      0.906      1.667      2.301      2.398      2.215     50.867     38.475
   1365.000    494.112     29.342   -999.250    479.593      7.902      0.502      0.719      1.688      2.278      2.455      2.330     50.925     38.296
   1365.125    511.500     29.380   -999.250    481.523      8.269      0.737      0.923      1.707      2.278      2.454      2.328     50.702     38.299
   1365.250    525.667     30.632   -999.250    484.096      8.814      0.474      0.768      1.722      2.271      2.455      2.325     50.512     38.294
   1365.375    527.921     31.612   -999.250    486.669      8.675      0.798      0.849      1.681      2.207      2.403      2.303     50.536     38.297
   1365.500    530.175     32.213   -999.250    489.242      8.396      0.525      0.792      1.633      2.104      2.268      2.235     50.512     38.122
   1365.625    532.429     32.245   -999.250    491.172      8.365      0.666      0.940      1.602      1.994      2.174      2.173     50.371     38.139
   1365.750    529.917     31.882   -999.250    492.459      8.313      0.878      0.998      1.580      1.902      2.087      2.241     50.182     38.105
   1365.875    518.583     31.378   -999.250    493.746      8.140      0.589      0.765      1.571      1.889      2.009      2.251     49.875     37.961
   1366.000    509.890     31.068   -999.250    494.389      7.976      0.400      0.773      1.549      1.921      1.948      2.280     49.852     38.011
   1366.125    509.890     31.468   -999.250    493.746      7.812      0.705      0.985      1.532      1.991      2.020      2.275     49.708     37.987
   1366.250    512.466     31.957   -999.250    492.459      7.606      0.576      0.912      1.524      2.065      2.088      2.303     49.689     37.816
   1366.375    513.753     32.293   -999.250    491.816      7.395      0.829      0.971      1.557      2.074      2.151      2.303     49.541     37.821
   1366.500    509.568     32.969   -999.250    490.529      7.195      0.477      0.814      1.578      2.045      2.219      2.303     49.526     37.823
   1366.625    502.806     32.287   -999.250    490.529      7.421      0.576      0.902      1.605      2.045      2.276      2.304     49.374     37.836
   1366.750    489.650     31.094   -999.250    491.172      7.660      0.566      0.833      1.606      2.045      2.278      2.274     49.363     37.612
   1366.875    474.471     30.479   -999.250    493.746      7.834      0.484      0.885      1.617      2.045      2.252      2.252     49.371     37.667
   1367.000    488.316     30.306   -999.250    497.605      7.925      0.757      0.828      1.607      2.086      2.183      2.210     49.366     37.531
   1367.125    510.856     30.162   -999.250    500.822      7.838      0.842      1.033      1.601      2.096      2.119      2.105     49.203     37.642
   1367.250    529.209     29.773   -999.250    504.039      7.610      0.540      0.771      1.592      2.103      2.053      2.045     49.038     37.509
   1367.375    538.224     29.320   -999.250    505.969      7.348      0.274      0.579      1.613      2.123      2.062      2.045     49.201     37.454
   1367.500    539.834     29.931   -999.250    508.542      7.105      0.644      0.855      1.614      2.156      2.130      2.045     49.039     37.508
   1367.625    534.683     32.042   -999.250    510.472      6.867      0.487      0.701      1.596      2.230      2.206      2.045     49.035     37.450
   1367.750    531.463     34.049   -999.250    512.402      6.641      0.487      0.751      1.557      2.220      2.275      2.046     49.040     37.507
   1367.875    532.107     33.333   -999.250    513.688      6.540      0.518      0.662      1.491      2.085      2.157      2.006     49.034     37.497
