~Version Information Block
 VERS.                2.00:     CWLS LOG ASCII STANDARD - VERSION 2.000000
 WRAP.                  NO:     One Line Per Depth Step
#
~Well Information Block
#MNEM.UNIT                     Data                         Information
#----------   ------------------------------------------   ----------------
 STRT.M                                        100.500:
 STOP.M                                       2142.000:
 STEP.M                                          0.125:
 NULL.                                        -999.250:
 COMP.                                   ²â¾®Êý¾Ý¿âµ¼³ö:     COMPANY 
 WELL.                                         ¹ÂÄÏ152-5:     Well 
 FLD .                                                :     Field 
 LOC .                                                :     LOCATION
 CNTY.                                                :     COUNTY
 STAT.                                                :     STATE
 CTRY.                                                :     COUNTRY
 SRVC.                                                :     SERVICE COMPANY
 DATE.                                                :     DATE
 API .                                                :     API NUMBER
#
~Curve Information Block
#MNEM.UNIT       API CODE      Curve Description
#----------    -------------   -------------------
 DEPT.M                    :   Depth in Meters
 AC  .Î¢Ãë/Ã×                      :   AC
 CAL .ÀåÃ×                      :   CAL
 CAL .ÀåÃ×                      :   CAL
 COND.mS/m                      :   COND
 GR  .Î¢Â×ÇÙ                      :   GR
 RLML.Å·Ä·Ã×                      :   RLML
 RNML.Å·Ä·Ã×                      :   RNML
 R04 .Å·Ä·Ã×                      :   R04
 R25 .Å·Ä·Ã×                      :   R25
 R25 .Å·Ä·Ã×                      :   R25
 R4  .Å·Ä·Ã×                      :   R4
 SP  .ºÁ·ü                      :   SP
 SP  .mv                      :   SP
#
~A  DEPTH          AC        CAL        CAL       COND         GR       RLML       RNML        R04        R25        R25         R4         SP         SP
# ...
   1686.500    443.652     32.580   -999.250    550.357      9.305      0.889      0.678      1.206      2.258      2.292      2.020     51.830     39.758
   1686.625    429.393     32.700   -999.250    548.427      9.232      0.334      0.836      1.201      2.231      2.327      1.992     51.848     39.579
   1686.750    431.003     31.003   -999.250    545.211      8.975      0.817      0.958      1.201      2.231      2.330      1.985     51.995     39.403
   1686.875    435.350     30.680   -999.250    543.924      8.865      1.003      0.823      1.202      2.238      2.327      1.996     52.014     39.334
   1687.000    441.628     30.556   -999.250    541.994      8.780      0.470      0.665      1.204      2.244      2.330      2.026     51.995     39.232
   1687.125    443.560     29.571   -999.250    540.064      8.699      0.367      0.802      1.203      2.251      2.327      2.086     51.849     39.089
   1687.250    433.901     29.052   -999.250    538.778      8.951      0.814      1.013      1.227      2.223      2.305      2.146     51.996     38.988
   1687.375    418.499     28.923   -999.250    536.848      8.934      0.714      0.816      1.255      2.190      2.276      2.136     51.848     38.745
   1687.500    405.566     28.989   -999.250    535.561      8.990      0.689      0.941      1.304      2.158      2.228      2.179     51.667     38.733
   1687.625    399.314     29.955   -999.250    534.274      9.276      0.938      0.838      1.351      2.125      2.200      2.199     51.682     38.485
   1687.750    394.779     30.499   -999.250    531.701      9.185      0.956      1.156      1.388      2.092      2.151      2.230     51.669     38.404
   1687.875    391.418     31.133   -999.250    529.128      9.132      0.626      0.950      1.433      2.068      2.124      2.248     51.516     38.288
   1688.000    388.178     32.131   -999.250    527.198      9.249      0.985      0.882      1.538      2.061      2.100      2.251     51.342     38.338
   1688.125    383.993     32.764   -999.250    525.268      8.894      0.732      0.924      1.502      2.054      2.099      2.275     51.184     38.075
   1688.250    375.943     33.415   -999.250    522.695      8.709      0.627      0.837      1.536      2.047      2.100      2.330     51.014     37.690
   1688.375    371.435     34.045   -999.250    520.122      8.509      0.908      0.766      1.569      2.040      2.073      2.328     50.852     37.357
   1688.500    375.460     34.885   -999.250    518.192      8.381      0.528      0.695      1.593      2.033      2.049      2.329     50.686     37.347
   1688.625    384.637     35.902   -999.250    514.975      8.587      0.404      0.637      1.613      2.026      2.023      2.329     50.519     37.173
   1688.750    396.228     32.597   -999.250    513.688      8.756      0.391      0.634      1.614      2.019      1.998      2.357     50.358     36.909
   1688.875    401.058     31.558   -999.250    512.402      9.006      0.432      0.749      1.614      2.012      1.972      2.355     50.021     36.733
   1689.000    402.990     31.064   -999.250    510.472      9.208      0.501      0.815      1.607      2.004      1.922      2.358     49.865     36.348
   1689.125    392.686     30.415   -999.250    509.185      9.151      0.993      0.799      1.614      1.997      1.871      2.331     49.689     36.327
   1689.250    372.079     29.237   -999.250    507.255      9.200      0.681      0.678      1.614      1.975      1.845      2.297     49.536     36.067
   1689.375    362.741     28.225   -999.250    505.969      9.190      0.345      0.652      1.614      1.927      1.845      2.203     49.356     35.653
   1689.500    345.032     29.887   -999.250    504.682      9.033      0.669      0.948      1.614      1.879      1.896      2.059     48.876     35.256
   1689.625    352.116     30.934   -999.250    502.752      8.945      1.271      0.898      1.615      1.813      1.972      1.851     48.696     34.987
   1689.750    390.110     31.991   -999.250    500.179      9.094      0.427      0.844      1.615      1.638      1.997      1.764     48.216     34.733
   1689.875    410.074     32.759   -999.250    496.962      8.622      0.457      0.771      1.647      1.726      1.998      1.809     48.036     34.637
   1690.000    424.954     32.780   -999.250    495.032      8.821      0.433      0.707      1.711      1.832      1.997      1.953     47.555     34.434
   1690.125    440.340     31.656   -999.250    493.102      8.835      0.398      0.641      1.777      1.936      1.972      2.079     47.047     34.155
   1690.250    422.410     28.297   -999.250    490.529      8.799      0.381      0.656      1.785      2.041      1.850      2.228     46.727     33.791
   1690.375    396.550     27.004   -999.250    486.026      8.656      0.590      0.957      1.769      2.145      1.769      2.331     46.389     33.253
   1690.500    332.287     26.674   -999.250    482.809      8.280      1.443      1.523      1.766      2.249      1.924      2.416     46.064     32.994
   1690.625    300.598     26.735   -999.250    478.949      7.941      2.041      1.965      1.829      2.320      2.057      2.505     45.731     32.648
   1690.750    251.495     27.042   -999.250    476.376      8.263      1.824      1.610      1.944      2.215      2.189      2.438     45.235     32.255
   1690.875    241.352     27.274   -999.250    473.159      8.000      1.003      1.802      2.017      2.110      2.321      2.330     44.744     31.734
   1691.000    272.263     27.401   -999.250    469.299      7.665      1.241      1.470      2.107      2.006      2.316      2.226     44.408     31.249
   1691.125    299.310     27.412   -999.250    465.440      7.329      0.808      1.206      2.135      1.922      2.206      2.084     43.922     30.775
   1691.250    352.454     27.171   -999.250    462.866      7.491      1.442      1.488      2.130      1.985      2.096      2.051     43.415     30.086
   1691.375    375.299     26.525   -999.250    461.580      7.707      1.053      1.423      2.075      1.942      1.985      2.023     42.934     29.508
   1691.500    368.215     26.228   -999.250    460.936      7.996      2.432      2.388      2.026      1.911      1.875      1.989     42.588     28.930
   1691.625    368.014     26.563   -999.250    461.580      7.566      1.274      1.289      1.982      1.893      1.764      1.940     42.109     28.351
   1691.750    370.791     27.162   -999.250    462.866      6.981      1.750      1.492      1.975      1.909      1.643      1.945     41.927     27.899
   1691.875    373.367     28.024   -999.250    462.866      6.486      2.085      2.046      1.976      1.994      1.720      1.997     41.779     27.548
   1692.000    372.079     28.483   -999.250    462.223      6.592      1.736      1.637      1.977      2.035      1.808      2.043     41.432     27.314
   1692.125    370.791     29.046   -999.250    460.293      6.700      2.160      1.689      1.976      2.099      1.894      2.076     40.953     27.045
   1692.250    380.451     30.191   -999.250    457.076      6.502      1.136      1.062      2.004      2.147      1.998      2.140     40.772     27.013
   1692.375    385.603     31.077   -999.250    455.790      6.734      0.678      1.028      2.045      2.148      1.999      2.174     40.457     26.830
   1692.500    387.534     30.863   -999.250    456.433      6.619      0.752      1.285      2.109      2.149      1.998      2.203     40.277     26.657
   1692.625    392.029     30.322   -999.250    457.720      6.452      1.262      1.146      2.147      2.167      1.999      2.221     40.126     26.529
   1692.750    395.906     32.078   -999.250    460.936      6.256      0.645      1.238      2.156      2.250      1.972      2.226     40.113     26.639
   1692.875    400.414     32.988   -999.250    467.370      6.021      0.906      1.108      2.226      2.371      2.076      2.226     40.125     26.528
