~Version Information Block
 VERS.                2.00:     CWLS LOG ASCII STANDARD - VERSION 2.000000
 WRAP.                  NO:     One Line Per Depth Step
#
~Well Information Block
#MNEM.UNIT                     Data                         Information
#----------   ------------------------------------------   ----------------
 STRT.M                                        183.125:
 STOP.M                                       2134.000:
 STEP.M                                          0.125:
 NULL.                                        -999.250:
 COMP.                                   ²â¾®Êý¾Ý¿âµ¼³ö:     COMPANY 
 WELL.                                        ¹ÂÄÏ152-05:     Well 
 FLD .                                                :     Field 
 LOC .                                                :     LOCATION
 CNTY.                                                :     COUNTY
 STAT.                                                :     STATE
 CTRY.                                                :     COUNTRY
 SRVC.                                                :     SERVICE COMPANY
 DATE.                                                :     DATE
 API .                                                :     API NUMBER
#
~Curve Information Block
#MNEM.UNIT       API CODE      Curve Description
#----------    -------------   -------------------
 DEPT.M                    :   Depth in Meters
 AC  .Î¢Ãë/Ã×                      :   AC
 CAL .ÀåÃ×                      :   CAL
 CAL .ÀåÃ×                      :   CAL
 COND.ºÁÄ·Å·/Ã×                      :   COND
 GR  .Î¢Â×ÇÙ/Ð¡Ê±                      :   GR
 GR  .Î¢Â×ÇÙ/Ð¡Ê±                      :   GR
 RLML.Å·Ä·Ã×                      :   RLML
 RLML.Å·Ä·Ã×                      :   RLML
 RNML.Å·Ä·Ã×                      :   RNML
 RNML.Å·Ä·Ã×                      :   RNML
 R04 .Å·Ä·Ã×                      :   R04
 R25 .Å·Ä·Ã×                      :   R25
 R4  .Å·Ä·Ã×                      :   R4
 SP  .ºÁ·ü                      :   SP
 SP  .ºÁ·ü                      :   SP
#
~A  DEPTH          AC        CAL        CAL       COND         GR         GR       RLML       RLML       RNML       RNML        R04        R25         R4         SP         SP
# ...
   1741.375    330.318   -999.250     24.615    322.480      6.970      8.367      0.277      0.251      0.517      0.600      1.858      3.182      2.608    119.762    120.418
   1741.500    327.460   -999.250     25.264    328.880      7.246      8.699      0.349      0.482      0.672      0.784      1.818      2.929      2.477    120.226    120.597
   1741.625    331.695   -999.250     26.006    333.360      7.656      7.633      1.003      0.833      0.891      0.958      1.767      2.723      2.312    120.397    120.718
   1741.750    349.984   -999.250     26.463    337.200      6.570      8.221      0.671      0.696      0.713      1.129      1.707      2.547      2.150    120.541    120.755
   1741.875    368.272   -999.250     26.203    337.840      6.811      7.740      0.763      0.306      0.419      0.845      1.710      2.354      2.051    120.714    120.756
   1742.000    386.560   -999.250     26.453    335.280      7.184      7.824      0.192      0.636      0.770      0.416      1.736      2.162      1.975    120.857    120.771
   1742.125    399.566   -999.250     27.419    323.760      6.968      8.318      0.481      0.257      0.385      0.511      1.764      2.034      1.932    120.823    120.612
   1742.250    395.521   -999.250     28.550    305.200      7.172      8.621      0.375      0.616      0.706      0.638      1.844      2.091      1.897    120.380    120.453
   1742.375    388.101   -999.250     28.812    290.480      6.614      7.457      1.048      0.355      1.023      0.797      1.944      2.278      1.900    119.924    120.247
   1742.500    382.411   -999.250     27.034    277.680      6.185      7.293      0.579      2.020      1.852      1.071      2.011      2.463      1.975    119.587    119.909
   1742.625    378.608   -999.250     25.200    264.880      6.375      6.817      0.671      1.259      1.208      1.310      2.121      2.652      2.095    119.133    119.678
   1742.750    380.505   -999.250     23.786    251.440      6.728      6.692      0.696      1.466      1.368      0.935      2.249      2.799      2.319    118.795    119.352
   1742.875    383.056   -999.250     22.772    239.920      7.049      5.968      0.710      1.589      1.019      0.861      2.354      2.697      2.551    118.182    119.048
   1743.000    379.905   -999.250     22.404    230.320      7.467      6.189      0.912      0.842      1.000      1.083      2.452      2.620      2.754    117.845    118.638
   1743.125    372.273   -999.250     22.142    222.000      6.715      5.920      0.805      0.403      1.195      1.008      2.563      2.623      2.890    117.390    118.187
   1743.250    366.508   -999.250     22.021    213.680      6.855      6.545      0.929      0.909      0.740      1.003      2.646      2.692      2.872    117.054    117.819
   1743.375    362.698   -999.250     21.942    207.280      6.658      7.371      0.860      1.187      1.145      1.193      2.699      2.811      2.792    116.597    117.516
   1743.500    360.159   -999.250     21.952    206.011      6.192      7.826      0.758      1.912      1.767      1.207      2.775      2.925      2.736    116.264    117.183
   1743.625    359.524   -999.250     22.135    204.746      6.697      6.959      1.100      1.154      1.366      1.250      2.846      3.042      2.710    115.804    116.906
   1743.750    362.698   -999.250     22.319    201.524      7.177      7.500      1.401      1.445      1.700      1.421      2.890      3.157      2.688    115.314    116.615
   1743.875    367.778   -999.250     22.437    196.991      6.684      7.490      1.635      1.842      1.425      1.585      2.943      3.183      2.664    115.170    116.447
   1744.000    370.952   -999.250     22.524    191.834      7.089      7.112      1.093      1.647      1.734      1.709      2.979      3.158      2.686    114.999    116.295
   1744.125    374.122   -999.250     22.655    185.481      6.716      7.432      1.665      1.900      1.880      1.546      3.034      3.083      2.738    114.852    116.220
   1744.250    378.528   -999.250     22.704    179.157      7.262      6.573      0.953      1.980      1.545      1.760      3.106      3.007      2.788    114.682    115.984
   1744.375    382.989   -999.250     22.710    172.736      6.803      6.573      1.231      1.582      1.669      1.100      3.178      2.927      2.889    114.533    115.758
   1744.500    388.139   -999.250     22.641    166.320      6.892      6.293      1.031      2.086      2.128      1.201      3.234      2.983      3.028    114.523    115.650
   1744.625    391.905   -999.250     22.652    160.560      6.481      5.652      0.708      1.659      1.833      1.321      3.324      3.268      3.123    114.374    115.622
   1744.750    390.635   -999.250     22.571    154.800      5.922      6.245      1.121      1.730      2.041      1.125      3.426      3.620      3.285    114.364    115.434
   1744.875    386.191   -999.250     22.440    152.016      6.108      5.425      1.211      1.824      1.783      0.918      3.516      3.947      3.395    114.372    115.366
   1745.000    383.333   -999.250     22.294    148.272      6.723      6.089      0.567      1.216      1.288      1.012      3.592      4.184      3.568    114.364    115.279
   1745.125    380.476   -999.250     22.181    144.960      6.463      5.728      1.129      1.462      1.756      1.204      3.673      4.477      3.721    114.371    115.302
   1745.250    377.937   -999.250     22.096    141.840      5.976      5.657      0.770      1.593      1.651      1.073      3.738      4.784      3.880    114.523    115.306
   1745.375    375.397   -999.250     22.010    139.457      5.499      5.935      0.952      1.283      1.417      1.152      3.787      5.069      4.101    114.686    115.302
   1745.500    374.762   -999.250     22.013    137.482      5.665      5.628      0.804      1.864      1.926      1.340      3.847      5.063      4.242    114.841    115.305
   1745.625    374.762   -999.250     22.011    135.506      5.799      6.080      0.748      1.516      1.600      1.393      3.890      5.044      4.261    114.842    115.128
   1745.750    374.127   -999.250     22.085    133.530      5.712      6.949      1.380      1.842      1.511      1.277      3.941      5.153      4.302    115.001    115.141
   1745.875    372.222   -999.250     22.128    133.020      6.244      6.591      0.842      1.677      1.702      1.365      3.975      5.468      4.364    115.157    115.142
   1746.000    369.048   -999.250     22.256    133.309      5.640      6.448      0.970      1.167      1.355      1.355      3.974      5.792      4.484    115.161    115.176
   1746.125    369.048   -999.250     22.393    134.684      6.174      6.126      1.302      1.542      1.618      1.696      3.974      6.109      4.605    115.154    115.297
   1746.250    374.127   -999.250     22.535    138.131      5.797      5.954      0.849      2.047      2.040      1.295      3.970      6.431      4.729    115.162    115.305
   1746.375    380.476   -999.250     22.581    141.360      6.328      6.355      1.311      1.441      1.735      1.620      3.919      6.602      4.864    115.153    115.305
   1746.500    385.556   -999.250     22.580    148.691      5.973      6.263      1.008      0.967      1.533      1.415      3.868      6.366      4.980    115.005    115.305
   1746.625    390.000   -999.250     22.577    155.585      6.290      6.782      0.680      1.707      1.418      1.466      3.768      6.042      5.053    114.993    115.305
   1746.750    392.540   -999.250     22.489    163.120      6.621      7.196      0.520      1.667      1.777      0.919      3.654      6.139      5.073    114.847    115.305
   1746.875    390.000   -999.250     22.572    170.160      7.077      7.583      0.406      1.914      1.849      0.779      3.541      6.247      5.057    114.835    115.305
   1747.000    385.873   -999.250     22.530    179.760      7.606      8.230      0.711      1.999      1.399      1.015      3.422      6.144      5.018    114.688    115.305
