~Version Information Block
 VERS.                2.00:     CWLS LOG ASCII STANDARD - VERSION 2.000000
 WRAP.                  NO:     One Line Per Depth Step
#
~Well Information Block
#MNEM.UNIT                     Data                         Information
#----------   ------------------------------------------   ----------------
 STRT.M                                        100.500:
 STOP.M                                       2142.000:
 STEP.M                                          0.125:
 NULL.                                        -999.250:
 COMP.                                   ²â¾®Êý¾Ý¿âµ¼³ö:     COMPANY 
 WELL.                                         ¹ÂÄÏ152-5:     Well 
 FLD .                                                :     Field 
 LOC .                                                :     LOCATION
 CNTY.                                                :     COUNTY
 STAT.                                                :     STATE
 CTRY.                                                :     COUNTRY
 SRVC.                                                :     SERVICE COMPANY
 DATE.                                                :     DATE
 API .                                                :     API NUMBER
#
~Curve Information Block
#MNEM.UNIT       API CODE      Curve Description
#----------    -------------   -------------------
 DEPT.M                    :   Depth in Meters
 AC  .Î¢Ãë/Ã×                      :   AC
 CAL .ÀåÃ×                      :   CAL
 CAL .ÀåÃ×                      :   CAL
 COND.mS/m                      :   COND
 GR  .Î¢Â×ÇÙ                      :   GR
 RLML.Å·Ä·Ã×                      :   RLML
 RNML.Å·Ä·Ã×                      :   RNML
 R04 .Å·Ä·Ã×                      :   R04
 R25 .Å·Ä·Ã×                      :   R25
 R25 .Å·Ä·Ã×                      :   R25
 R4  .Å·Ä·Ã×                      :   R4
 SP  .ºÁ·ü                      :   SP
 SP  .mv                      :   SP
#
~A  DEPTH          AC        CAL        CAL       COND         GR       RLML       RNML        R04        R25        R25         R4         SP         SP
# ...
    711.500    464.443     30.631   -999.250    289.171      5.460      0.977      1.215      3.002      4.487      4.674      4.888     45.569     31.138
    711.625    474.042     30.543   -999.250    293.031      5.742      2.200      2.168      2.954      4.403      4.770      4.799     45.725     31.133
    711.750    482.843     30.433   -999.250    296.891      5.966      1.988      1.904      2.856      4.310      4.677      4.686     45.571     31.130
    711.875    489.282     30.101   -999.250    301.394      6.177      2.335      1.597      2.776      4.301      4.580      4.616     45.559     31.128
    712.000    487.994     29.911   -999.250    303.967      6.406      1.110      1.130      2.719      4.391      4.479      4.568     45.406     31.137
    712.125    463.115     29.737   -999.250    305.897      6.599      1.900      1.561      2.662      4.452      4.364      4.630     45.394     31.078
    712.250    460.948     29.421   -999.250    307.827      6.699      2.206      1.789      2.570      4.462      4.407      4.665     45.241     31.137
    712.375    487.886     29.156   -999.250    309.757      6.539      2.077      1.817      2.472      4.470      4.463      4.646     45.064     30.887
    712.500    518.728     28.973   -999.250    311.687      6.320      2.042      2.094      2.401      4.471      4.515      4.526     44.912     31.135
    712.625    546.596     29.088   -999.250    312.330      6.428      2.388      1.863      2.286      4.265      4.572      4.384     44.569     30.915
    712.750    559.476     29.492   -999.250    312.974      6.634      1.797      1.695      2.199      4.077      4.624      4.133     44.417     30.814
    712.875    563.983     29.889   -999.250    313.617      6.880      1.944      1.806      2.109      3.886      4.438      3.919     44.240     30.799
    713.000    578.795     30.192   -999.250    314.582      7.151      2.156      1.482      2.074      3.678      4.184      3.711     44.087     30.667
    713.125    592.962     30.349   -999.250    314.904      7.250      1.377      0.851      2.040      3.495      3.958      3.442     44.075     30.608
    713.250    589.742     29.927   -999.250    314.904      7.236      0.935      0.976      2.007      3.415      3.702      3.340     43.923     30.676
    713.375    584.591     29.461   -999.250    314.904      7.971      1.213      1.071      1.976      3.470      3.552      3.335     43.910     30.483
    713.500    583.303     29.306   -999.250    313.617      7.844      1.128      1.116      1.951      3.441      3.448      3.289     43.758     30.368
    713.625    582.659     29.244   -999.250    312.330      7.656      1.258      1.174      1.943      3.377      3.425      3.241     43.744     30.331
    713.750    577.131     29.141   -999.250    309.114      7.684      1.249      1.194      1.950      3.213      3.448      3.197     43.594     30.332
    713.875    569.135     29.070   -999.250    306.540      7.900      1.340      1.287      1.951      3.082      3.476      3.081     43.414     30.346
    714.000    565.915     29.122   -999.250    303.967      7.656      1.281      1.261      1.950      3.037      3.473      3.037     43.429     30.173
    714.125    564.627     29.178   -999.250    301.394      7.511      1.183      1.142      1.950      2.947      3.375      2.947     43.413     30.203
    714.250    565.292     29.235   -999.250    298.177      7.314      1.544      1.508      1.971      2.896      3.295      2.896     43.429     29.996
    714.375    568.974     29.294   -999.250    294.317      7.110      1.008      1.141      2.027      2.967      3.172      2.967     43.506     29.886
    714.500    575.621     29.323   -999.250    291.101      6.941      1.057      1.088      2.122      3.076      3.091      3.076     43.429     29.856
    714.625    566.982     29.294   -999.250    286.598      7.073      1.135      1.141      2.207      3.192      3.070      3.192     43.413     29.819
    714.750    554.324     29.258   -999.250    284.668      7.253      1.184      1.198      2.290      3.301      3.218      3.301     43.428     29.616
    714.875    549.816     29.359   -999.250    279.521      7.091      1.016      1.288      2.389      3.427      3.324      3.427     43.578     29.574
    715.000    548.528     30.063   -999.250    277.591      6.886      1.331      1.359      2.483      3.608      3.421      3.608     43.592     29.531
    715.125    548.528     31.541   -999.250    275.018      6.678      1.334      1.426      2.571      3.764      3.577      3.764     43.744     29.407
    715.250    547.240     32.713   -999.250    273.731      6.523      1.386      1.472      2.623      3.932      3.752      3.934     43.591     29.370
    715.375    547.884     33.383   -999.250    274.375      6.439      1.426      1.504      2.676      4.081      3.932      4.099     43.580     29.296
    715.500    551.104     33.764   -999.250    276.305      6.238      1.441      1.563      2.702      4.151      4.083      4.236     43.590     29.384
    715.625    560.397     32.190   -999.250    277.591      6.053      1.645      1.691      2.692      4.223      4.135      4.411     43.581     29.383
    715.750    570.254     31.141   -999.250    278.878      5.730      1.515      1.577      2.701      4.296      4.225      4.617     43.589     29.373
    715.875    575.575     30.445   -999.250    281.451      5.901      1.650      1.632      2.698      4.366      4.312      4.718     43.582     29.261
    716.000    574.529     29.865   -999.250    282.416      6.128      1.291      1.553      2.715      4.391      4.396      4.744     43.753     29.313
    716.125    568.964     29.182   -999.250    284.024      6.078      1.431      1.477      2.700      4.259      4.490      4.701     43.582     29.229
    716.250    566.559     29.291   -999.250    285.954      6.014      1.302      1.395      2.699      4.136      4.403      4.629     43.753     29.221
    716.375    565.915     30.602   -999.250    287.884      6.399      1.414      1.440      2.699      4.057      4.309      4.553     43.912     29.219
    716.500    565.271     29.697   -999.250    289.814      6.723      1.754      1.717      2.710      3.918      4.214      4.481     43.754     29.220
    716.625    559.777     29.009   -999.250    291.744      6.800      1.615      1.515      2.702      3.778      4.119      4.448     43.911     29.220
    716.750    545.308     28.693   -999.250    293.031      6.858      1.233      1.248      2.699      3.631      4.026      4.475     43.920     29.220
    716.875    528.565     28.544   -999.250    294.961      6.954      1.441      1.509      2.677      3.754      3.930      4.572     43.910     29.223
    717.000    517.617     28.491   -999.250    297.534      7.067      1.299      1.485      2.647      3.939      3.838      4.658     43.921     29.219
    717.125    496.366     28.729   -999.250    300.751      6.935      1.180      1.398      2.587      4.124      3.751      4.760     43.909     29.395
    717.250    469.963     29.169   -999.250    305.254      6.762      1.459      1.362      2.488      4.293      3.890      4.808     43.921     29.379
    717.375    496.366     29.210   -999.250    308.470      6.595      2.381      2.102      2.408      4.232      4.005      4.738     44.074     29.377
    717.500    550.460     28.809   -999.250    311.687      6.395      2.159      2.020      2.291      4.051      4.131      4.373     44.086     29.426
    717.625    571.067     28.568   -999.250    313.617      6.242      2.086      1.653      2.207      3.740      4.244      4.035     44.074     29.376
    717.750    601.334     28.926   -999.250    314.904      6.262      1.395      1.231      2.128      3.447      4.372      3.752     44.085     29.388
    717.875    599.764     31.279   -999.250    316.833      6.384      0.459      0.631      2.098      3.180      4.245      3.456     44.240     29.524
