~Version Information Block
 VERS.                2.00:     CWLS LOG ASCII STANDARD - VERSION 2.000000
 WRAP.                  NO:     One Line Per Depth Step
#
~Well Information Block
#MNEM.UNIT                     Data                         Information
#----------   ------------------------------------------   ----------------
 STRT.M                                        100.500:
 STOP.M                                       2142.000:
 STEP.M                                          0.125:
 NULL.                                        -999.250:
 COMP.                                   ²â¾®Êý¾Ý¿âµ¼³ö:     COMPANY 
 WELL.                                         ¹ÂÄÏ152-5:     Well 
 FLD .                                                :     Field 
 LOC .                                                :     LOCATION
 CNTY.                                                :     COUNTY
 STAT.                                                :     STATE
 CTRY.                                                :     COUNTRY
 SRVC.                                                :     SERVICE COMPANY
 DATE.                                                :     DATE
 API .                                                :     API NUMBER
#
~Curve Information Block
#MNEM.UNIT       API CODE      Curve Description
#----------    -------------   -------------------
 DEPT.M                    :   Depth in Meters
 AC  .Î¢Ãë/Ã×                      :   AC
 CAL .ÀåÃ×                      :   CAL
 CAL .ÀåÃ×                      :   CAL
 COND.mS/m                      :   COND
 GR  .Î¢Â×ÇÙ                      :   GR
 RLML.Å·Ä·Ã×                      :   RLML
 RNML.Å·Ä·Ã×                      :   RNML
 R04 .Å·Ä·Ã×                      :   R04
 R25 .Å·Ä·Ã×                      :   R25
 R25 .Å·Ä·Ã×                      :   R25
 R4  .Å·Ä·Ã×                      :   R4
 SP  .ºÁ·ü                      :   SP
 SP  .mv                      :   SP
#
~A  DEPTH          AC        CAL        CAL       COND         GR       RLML       RNML        R04        R25        R25         R4         SP         SP
# ...
    497.000   -999.250   -999.250   -999.250   -999.250   -999.250   -999.250   -999.250   -999.250   -999.250      2.157   -999.250     40.101   -999.250
    497.125   -999.250   -999.250   -999.250   -999.250   -999.250   -999.250   -999.250   -999.250   -999.250      2.145   -999.250     39.629   -999.250
    497.250   -999.250   -999.250   -999.250   -999.250   -999.250   -999.250   -999.250   -999.250   -999.250      2.044   -999.250     39.296   -999.250
    497.375   -999.250   -999.250   -999.250   -999.250   -999.250   -999.250   -999.250   -999.250   -999.250      1.945   -999.250     39.297   -999.250
    497.500   -999.250   -999.250   -999.250   -999.250   -999.250   -999.250   -999.250   -999.250   -999.250      1.844   -999.250     39.298   -999.250
    497.625   -999.250   -999.250   -999.250   -999.250   -999.250   -999.250   -999.250   -999.250   -999.250      1.701   -999.250     39.376   -999.250
    497.750   -999.250   -999.250   -999.250   -999.250   -999.250   -999.250   -999.250   -999.250   -999.250      1.557   -999.250     39.464   -999.250
    497.875   -999.250   -999.250   -999.250   -999.250   -999.250   -999.250   -999.250   -999.250   -999.250      1.414   -999.250     39.624   -999.250
    498.000   -999.250   -999.250   -999.250   -999.250   -999.250   -999.250   -999.250   -999.250   -999.250      1.364   -999.250     39.801   -999.250
    498.125   -999.250   -999.250   -999.250   -999.250   -999.250   -999.250   -999.250   -999.250   -999.250      1.424   -999.250     40.170   -999.250
    498.250   -999.250   -999.250   -999.250   -999.250   -999.250   -999.250   -999.250   -999.250   -999.250      1.484   -999.250     40.553   -999.250
    498.375   -999.250   -999.250   -999.250   -999.250   -999.250   -999.250   -999.250   -999.250   -999.250      1.544   -999.250     40.921   -999.250
    498.500   -999.250   -999.250   -999.250   -999.250   -999.250   -999.250   -999.250   -999.250   -999.250      1.605   -999.250     41.305   -999.250
    498.625   -999.250   -999.250   -999.250   -999.250   -999.250   -999.250   -999.250   -999.250   -999.250      1.592   -999.250     41.672   -999.250
    498.750   -999.250   -999.250   -999.250   -999.250   -999.250   -999.250   -999.250   -999.250   -999.250      1.468   -999.250     42.104   -999.250
    498.875   -999.250   -999.250   -999.250   -999.250   -999.250   -999.250   -999.250   -999.250   -999.250      1.341   -999.250     42.590   -999.250
    499.000   -999.250   -999.250   -999.250   -999.250   -999.250   -999.250   -999.250   -999.250   -999.250      1.217   -999.250     42.928   -999.250
    499.125   -999.250   -999.250   -999.250   -999.250   -999.250   -999.250   -999.250   -999.250   -999.250      1.156   -999.250     43.249   -999.250
    499.250   -999.250   -999.250   -999.250   -999.250   -999.250   -999.250   -999.250   -999.250   -999.250      1.227   -999.250     43.587   -999.250
    499.375   -999.250   -999.250   -999.250   -999.250   -999.250   -999.250   -999.250   -999.250   -999.250      1.293   -999.250     44.074   -999.250
    499.500   -999.250   -999.250   -999.250   -999.250   -999.250   -999.250   -999.250   -999.250   -999.250      1.366   -999.250     44.412   -999.250
    499.625   -999.250   -999.250   -999.250   -999.250   -999.250   -999.250   -999.250   -999.250   -999.250      1.462   -999.250     44.569   -999.250
    499.750   -999.250   -999.250   -999.250   -999.250   -999.250   -999.250   -999.250   -999.250   -999.250      1.516   -999.250     44.741   -999.250
    499.875   -999.250   -999.250   -999.250   -999.250   -999.250   -999.250   -999.250   -999.250   -999.250      1.563   -999.250     45.064   -999.250
    500.000    535.572     38.686   -999.250    407.541      8.697      0.783      0.805      1.666      1.605      1.567      1.786     45.153     31.768
    500.125    538.868     38.686   -999.250    404.968      8.597      0.946      0.702      1.718      1.631      1.614      1.864     45.230     31.768
    500.250    538.868     38.249   -999.250    402.395      8.401      0.650      0.925      1.795      1.709      1.593      1.864     45.400     31.290
    500.375    538.868     37.724   -999.250    401.108      8.211      1.242      1.307      1.821      1.735      1.589      1.890     45.396     31.290
    500.500    538.868     37.339   -999.250    399.821      8.010      1.387      1.395      1.849      1.807      1.567      1.948     45.400     31.294
    500.625    533.073     37.124   -999.250    399.178      7.742      1.424      1.460      1.885      1.812      1.615      1.999     45.562     31.289
    500.750    529.209     36.944   -999.250    398.535      7.760      1.364      1.320      1.922      1.840      1.643      2.050     45.729     31.467
    500.875    533.073     37.249   -999.250    398.535      7.934      1.821      1.499      1.976      1.871      1.666      2.100     45.729     31.454
    501.000    535.005     37.423   -999.250    400.465      8.461      1.847      1.715      2.031      1.932      1.718      2.165     45.564     31.413
    501.125    533.073     36.424   -999.250    402.395      8.816      1.582      1.472      2.068      2.023      1.768      2.198     45.565     31.305
    501.250    526.633     35.605   -999.250    403.681      8.751      1.644      1.551      2.109      2.110      1.794      2.200     45.563     31.250
    501.375    516.973     34.832   -999.250    404.325      8.937      1.812      1.682      2.158      2.210      1.845      2.204     45.567     31.413
    501.500    507.126     34.373   -999.250    406.898      8.953      2.322      1.885      2.157      2.300      1.920      2.146     45.563     31.446
    501.625    495.078     33.660   -999.250    408.828      9.148      2.036      1.652      2.159      2.276      1.947      2.066     45.403     31.566
    501.750    494.434     33.122   -999.250    412.688      9.015      1.444      1.370      2.108      2.203      2.022      2.001     45.232     31.616
    501.875    502.806     32.528   -999.250    414.618      8.922      1.065      1.195      2.067      2.170      2.074      1.961     45.074     31.320
    502.000    515.685     32.221   -999.250    417.513      8.656      0.817      1.012      2.024      2.174      2.149      1.902     45.066     31.144
    502.125    528.565     32.848   -999.250    419.764      8.621      0.929      1.078      1.943      2.144      2.188      1.886     44.910     30.696
    502.250    541.444     33.514   -999.250    422.981      8.636      0.890      1.043      1.888      2.127      2.231      1.831     44.736     30.617
    502.375    549.816     33.655   -999.250    424.911      8.671      1.075      1.214      1.822      2.093      2.276      1.788     44.581     30.652
    502.500    557.544     33.121   -999.250    425.554      8.721      1.546      1.440      1.752      2.101      2.319      1.765     44.406     30.734
    502.625    560.120     33.316   -999.250    424.267      8.798      1.347      1.560      1.680      2.122      2.353      1.729     44.251     30.550
    502.750    562.052     33.643   -999.250    421.051      9.111      0.753      0.757      1.633      2.122      2.293      1.736     44.242     30.523
    502.875    563.983     33.727   -999.250    420.407      9.431      1.070      1.149      1.626      2.115      2.243      1.787     44.085     30.477
    503.000    562.695     33.635   -999.250    418.477      9.773      1.626      1.573      1.628      2.185      2.194      1.847     44.077     30.382
    503.125    557.544     33.558   -999.250    416.548      9.990      1.317      1.315      1.661      2.279      2.143      1.910     44.084     30.337
    503.250    551.748     33.614   -999.250    414.618      9.758      1.405      1.361      1.697      2.346      2.095      1.956     43.914     30.331
    503.375    547.884     34.308   -999.250    412.688      9.659      1.344      1.362      1.790      2.402      2.044      2.031     43.752     30.331
