~Version Information Block
 VERS.                2.00:     CWLS LOG ASCII STANDARD - VERSION 2.000000
 WRAP.                  NO:     One Line Per Depth Step
#
~Well Information Block
#MNEM.UNIT                     Data                         Information
#----------   ------------------------------------------   ----------------
 STRT.M                                        183.125:
 STOP.M                                       2134.000:
 STEP.M                                          0.125:
 NULL.                                        -999.250:
 COMP.                                   ²â¾®Êý¾Ý¿âµ¼³ö:     COMPANY 
 WELL.                                        ¹ÂÄÏ152-05:     Well 
 FLD .                                                :     Field 
 LOC .                                                :     LOCATION
 CNTY.                                                :     COUNTY
 STAT.                                                :     STATE
 CTRY.                                                :     COUNTRY
 SRVC.                                                :     SERVICE COMPANY
 DATE.                                                :     DATE
 API .                                                :     API NUMBER
#
~Curve Information Block
#MNEM.UNIT       API CODE      Curve Description
#----------    -------------   -------------------
 DEPT.M                    :   Depth in Meters
 AC  .Î¢Ãë/Ã×                      :   AC
 CAL .ÀåÃ×                      :   CAL
 CAL .ÀåÃ×                      :   CAL
 COND.ºÁÄ·Å·/Ã×                      :   COND
 GR  .Î¢Â×ÇÙ/Ð¡Ê±                      :   GR
 GR  .Î¢Â×ÇÙ/Ð¡Ê±                      :   GR
 RLML.Å·Ä·Ã×                      :   RLML
 RLML.Å·Ä·Ã×                      :   RLML
 RNML.Å·Ä·Ã×                      :   RNML
 RNML.Å·Ä·Ã×                      :   RNML
 R04 .Å·Ä·Ã×                      :   R04
 R25 .Å·Ä·Ã×                      :   R25
 R4  .Å·Ä·Ã×                      :   R4
 SP  .ºÁ·ü                      :   SP
 SP  .ºÁ·ü                      :   SP
#
~A  DEPTH          AC        CAL        CAL       COND         GR         GR       RLML       RLML       RNML       RNML        R04        R25         R4         SP         SP
# ...
   1149.125    530.313   -999.250     22.456    386.440     10.861   -999.250      0.781   -999.250   -999.250      0.859      1.273      2.160      1.946    117.862    118.349
   1149.250    525.318   -999.250     22.346    387.120     10.251   -999.250      0.759   -999.250   -999.250      0.955      1.302      1.990      1.831    117.852    118.349
   1149.375    511.270   -999.250     22.515    382.640     10.312   -999.250      0.773   -999.250   -999.250      0.840      1.328      1.776      1.765    117.863    118.349
   1149.500    494.127   -999.250     22.888    374.320      9.936   -999.250      0.773   -999.250   -999.250      0.903      1.345      1.523      1.697    117.851    118.349
   1149.625    473.175   -999.250     23.364    358.960     10.125   -999.250      0.759   -999.250   -999.250      0.987      1.404      1.522      1.634    117.864    118.349
   1149.750    457.937   -999.250     24.008    344.368      9.700   -999.250      0.782   -999.250   -999.250      0.957      1.454      1.523      1.624    117.850    118.349
   1149.875    443.968   -999.250     24.572    328.520      9.176   -999.250      0.787   -999.250   -999.250      0.913      1.545      1.539      1.648    117.706    118.349
   1150.000    435.079   -999.250     25.379    311.600      9.256   -999.250      0.853   -999.250   -999.250      0.998      1.610      1.603      1.721    117.850    118.349
   1150.125    427.460   -999.250     25.985    298.160      8.607   -999.250      0.899   -999.250   -999.250      1.063      1.729      1.667      1.796    117.706    118.349
   1150.250    424.286   -999.250     26.912    275.120      8.675   -999.250      0.866   -999.250   -999.250      1.114      1.843      1.730      1.906    117.851    118.349
   1150.375    418.571   -999.250     27.842    256.984      8.060   -999.250      0.860   -999.250   -999.250      1.227      1.920      1.779      2.006    117.864    118.349
   1150.500    405.873   -999.250     28.456    237.680      8.033   -999.250      0.846   -999.250   -999.250      1.357      2.057      2.075      2.092    117.851    118.349
   1150.625    385.302   -999.250     28.911    218.800      8.695   -999.250      0.811   -999.250   -999.250      1.211      2.218      2.315      2.155    117.864    118.349
   1150.750    355.873   -999.250     29.169    204.080      8.455   -999.250      0.777   -999.250   -999.250      1.063      2.363      2.552      2.276    117.852    118.349
   1150.875    327.830   -999.250     29.099    190.640      7.748   -999.250      0.741   -999.250   -999.250      1.205      2.525      2.791      2.401    117.863    118.349
   1151.000    314.250   -999.250     29.072    184.880      8.555   -999.250      0.747   -999.250   -999.250      1.346      2.668      3.028      2.575    117.853    118.349
   1151.125    343.851   -999.250     29.318    178.413      8.403   -999.250      0.776   -999.250   -999.250      1.292      2.758      3.208      2.764    118.021    118.349
   1151.250    370.952   -999.250     29.523    175.889      8.244   -999.250      0.797   -999.250   -999.250      1.226      2.796      3.161      2.936    118.011    118.349
   1151.375    409.167   -999.250     29.628    177.865      8.877   -999.250      0.749   -999.250   -999.250      1.193      2.818      3.100      3.107    118.021    118.349
   1151.500    423.651   -999.250     29.504    181.056      9.299   -999.250      0.693   -999.250   -999.250      1.162      2.794      3.038      3.169    118.011    118.349
   1151.625    389.062   -999.250     29.126    184.240      9.001   -999.250      0.690   -999.250   -999.250      1.139      2.769      2.977      3.167    118.022    118.349
   1151.750    358.889   -999.250     28.774    186.800      9.408   -999.250      0.710   -999.250   -999.250      1.117      2.732      2.900      3.094    118.327    118.350
   1151.875    369.018   -999.250     28.423    188.080      9.691   -999.250      0.731   -999.250   -999.250      1.099      2.739      2.901      3.052    118.339    118.352
   1152.000    382.641   -999.250     28.437    189.680      9.890   -999.250      0.721   -999.250   -999.250      1.082      2.765      2.900      3.048    118.327    118.349
   1152.125    396.263   -999.250     28.705    191.280     10.349   -999.250      0.708   -999.250   -999.250      1.065      2.765      2.901      3.125    118.339    118.526
   1152.250    412.857   -999.250     28.796    192.560      9.844   -999.250      0.726   -999.250   -999.250      1.072      2.768      3.142      3.197    118.486    118.512
   1152.375    426.825   -999.250     28.353    192.560      9.890   -999.250      0.756   -999.250   -999.250      1.117      2.742      3.336      3.176    118.498    118.509
   1152.500    421.873   -999.250     28.064    194.480      8.858   -999.250      0.818   -999.250   -999.250      1.109      2.698      3.528      3.177    118.486    118.512
   1152.625    412.413   -999.250     27.815    196.932      8.305   -999.250      1.030   -999.250   -999.250      1.185      2.613      3.723      3.220    118.497    118.509
   1152.750    400.794   -999.250     27.701    201.998      7.962   -999.250      1.152   -999.250   -999.250      1.281      2.509      3.915      3.319    118.645    118.686
   1152.875    441.634   -999.250     28.034    209.059      8.406   -999.250      1.222   -999.250   -999.250      1.449      2.404      4.109      3.395    118.655    118.672
   1153.000    477.619   -999.250     28.663    217.512      8.552   -999.250      1.582   -999.250   -999.250      1.727      2.334      4.253      3.479    118.646    118.669
   1153.125    519.577   -999.250     29.982    226.610      8.917   -999.250      0.253   -999.250   -999.250      0.926      2.330      4.254      3.474    118.654    118.671
   1153.250    544.429   -999.250     31.240    236.226      8.441   -999.250      0.851   -999.250   -999.250      0.550      2.305      3.991      3.211    118.647    118.668
   1153.375    548.095   -999.250     32.489    245.095      9.144   -999.250      0.270   -999.250   -999.250      0.896      2.247      3.782      2.940    118.653    118.654
   1153.500    544.649   -999.250     33.949    254.598      9.639   -999.250      0.373   -999.250   -999.250      0.466      2.167      3.571      2.684    118.648    118.831
   1153.625    541.111   -999.250     33.034    265.520     10.190   -999.250      0.546   -999.250   -999.250      0.302      2.095      3.309      2.459    118.652    118.827
   1153.750    537.302   -999.250     31.456    277.040     10.514   -999.250      0.934   -999.250   -999.250      0.614      2.048      3.309      2.302    118.650    118.830
   1153.875    534.762   -999.250     29.854    287.920      9.870   -999.250      0.882   -999.250   -999.250      0.890      1.940      3.429      2.363    118.652    118.830
   1154.000    533.492   -999.250     28.174    295.600     10.134   -999.250      0.822   -999.250   -999.250      1.071      1.847      3.524      2.438    118.650    118.830
   1154.125    531.587   -999.250     27.288    303.280     10.463   -999.250      0.799   -999.250   -999.250      0.993      1.741      3.621      2.510    118.652    118.830
   1154.250    531.587   -999.250     26.389    309.040     10.604   -999.250      0.778   -999.250   -999.250      0.994      1.662      3.692      2.581    118.650    118.830
   1154.375    531.587   -999.250     25.690    314.800     10.252   -999.250      0.754   -999.250   -999.250      1.061      1.582      3.655      2.612    118.652    118.830
   1154.500    532.857   -999.250     25.103    321.840     10.637   -999.250      0.731   -999.250   -999.250      0.976      1.532      3.539      2.591    118.650    118.830
   1154.625    534.127   -999.250     24.992    328.880     11.105   -999.250      0.708   -999.250   -999.250      0.961      1.474      3.412      2.560    118.652    118.837
   1154.750    536.032   -999.250     24.865    337.200     10.377   -999.250      0.716   -999.250   -999.250      0.831      1.409      3.297      2.507    118.650    118.848
