~Version Information Block
 VERS.                2.00:     CWLS LOG ASCII STANDARD - VERSION 2.000000
 WRAP.                  NO:     One Line Per Depth Step
#
~Well Information Block
#MNEM.UNIT                     Data                         Information
#----------   ------------------------------------------   ----------------
 STRT.M                                        183.125:
 STOP.M                                       2134.000:
 STEP.M                                          0.125:
 NULL.                                        -999.250:
 COMP.                                   ²â¾®Êý¾Ý¿âµ¼³ö:     COMPANY 
 WELL.                                        ¹ÂÄÏ152-05:     Well 
 FLD .                                                :     Field 
 LOC .                                                :     LOCATION
 CNTY.                                                :     COUNTY
 STAT.                                                :     STATE
 CTRY.                                                :     COUNTRY
 SRVC.                                                :     SERVICE COMPANY
 DATE.                                                :     DATE
 API .                                                :     API NUMBER
#
~Curve Information Block
#MNEM.UNIT       API CODE      Curve Description
#----------    -------------   -------------------
 DEPT.M                    :   Depth in Meters
 AC  .Î¢Ãë/Ã×                      :   AC
 CAL .ÀåÃ×                      :   CAL
 CAL .ÀåÃ×                      :   CAL
 COND.ºÁÄ·Å·/Ã×                      :   COND
 GR  .Î¢Â×ÇÙ/Ð¡Ê±                      :   GR
 GR  .Î¢Â×ÇÙ/Ð¡Ê±                      :   GR
 RLML.Å·Ä·Ã×                      :   RLML
 RLML.Å·Ä·Ã×                      :   RLML
 RNML.Å·Ä·Ã×                      :   RNML
 RNML.Å·Ä·Ã×                      :   RNML
 R04 .Å·Ä·Ã×                      :   R04
 R25 .Å·Ä·Ã×                      :   R25
 R4  .Å·Ä·Ã×                      :   R4
 SP  .ºÁ·ü                      :   SP
 SP  .ºÁ·ü                      :   SP
#
~A  DEPTH          AC        CAL        CAL       COND         GR         GR       RLML       RLML       RNML       RNML        R04        R25         R4         SP         SP
# ...
   1816.125    340.311   -999.250     26.822    546.475      6.120   -999.250      0.901   -999.250   -999.250      0.814      1.659      1.164      1.286    114.044    115.462
   1816.250    333.025   -999.250     25.947    540.052      6.506   -999.250      0.422   -999.250   -999.250      0.448      1.636      1.171      1.290    114.053    115.449
   1816.375    325.724   -999.250     25.505    533.628      6.764   -999.250      0.347   -999.250   -999.250      0.482      1.653      1.239      1.357    114.043    115.627
   1816.500    321.429   -999.250     25.239    526.640      7.061   -999.250      0.352   -999.250   -999.250      0.602      1.686      1.304      1.365    114.213    115.620
   1816.625    334.127   -999.250     25.646    520.117      6.609   -999.250      0.375   -999.250   -999.250      0.731      1.711      1.372      1.338    114.200    115.608
   1816.750    331.164   -999.250     26.086    518.868      6.430   -999.250      0.569   -999.250   -999.250      0.931      1.738      1.443      1.310    114.214    115.786
   1816.875    322.910   -999.250     26.466    521.450      6.076   -999.250      0.405   -999.250   -999.250      0.658      1.736      1.445      1.309    114.357    115.790
   1817.000    317.075   -999.250     26.100    526.315      5.861   -999.250      0.662   -999.250   -999.250      0.722      1.742      1.443      1.349    114.374    115.914
   1817.125    313.810   -999.250     25.616    536.240      6.068   -999.250      0.468   -999.250   -999.250      0.852      1.756      1.445      1.408    114.514    115.949
   1817.250    320.136   -999.250     25.510    551.013      6.343   -999.250      0.370   -999.250   -999.250      0.701      1.740      1.483      1.439    114.534    115.947
   1817.375    333.492   -999.250     25.699    564.533      6.250   -999.250      0.417   -999.250   -999.250      0.630      1.706      1.614      1.412    114.671    115.946
   1817.500    345.263   -999.250     26.000    578.053      6.581   -999.250      0.425   -999.250   -999.250      0.653      1.661      1.775      1.408    114.693    115.943
   1817.625    357.167   -999.250     26.309    591.888      6.781   -999.250      0.495   -999.250   -999.250      0.611      1.599      1.776      1.344    114.830    115.929
   1817.750    369.683   -999.250     26.594    601.020      6.376   -999.250      0.771   -999.250   -999.250      0.617      1.535      1.682      1.278    114.852    116.107
   1817.875    370.318   -999.250     26.883    610.186      5.827   -999.250      0.470   -999.250   -999.250      0.685      1.483      1.554      1.207    114.988    116.103
   1818.000    366.967   -999.250     27.068    617.991      6.025   -999.250      0.488   -999.250   -999.250      0.752      1.451      1.423      1.155    115.010    116.105
   1818.125    360.432   -999.250     26.826    622.640      6.346   -999.250      0.622   -999.250   -999.250      0.822      1.425      1.295      1.111    115.147    116.106
   1818.250    350.635   -999.250     26.430    622.640      5.916   -999.250      0.421   -999.250   -999.250      0.863      1.430      1.165      1.085    115.167    116.107
   1818.375    342.381   -999.250     25.808    618.815      6.118   -999.250      0.641   -999.250   -999.250      0.701      1.402      1.112      1.058    115.149    116.109
   1818.500    341.111   -999.250     25.267    617.040      6.087   -999.250      1.062   -999.250   -999.250      0.912      1.402      1.112      1.058    115.166    116.074
   1818.625    339.206   -999.250     24.883    617.391      6.508   -999.250      1.315   -999.250   -999.250      1.128      1.402      1.129      1.059    115.309    115.952
   1818.750    333.492   -999.250     24.668    621.076      6.122   -999.250      1.050   -999.250   -999.250      1.351      1.374      1.146      1.078    115.323    115.948
   1818.875    324.960   -999.250     24.548    626.693      5.761   -999.250      0.853   -999.250   -999.250      1.173      1.376      1.163      1.112    115.310    115.966
   1819.000    316.191   -999.250     24.598    633.136      5.373   -999.250      0.536   -999.250   -999.250      0.933      1.376      1.179      1.149    115.163    115.787
   1819.125    308.095   -999.250     24.963    639.772      6.032   -999.250      0.633   -999.250   -999.250      0.793      1.376      1.196      1.185    115.153    115.933
   1819.250    320.992   -999.250     25.503    646.408      5.470   -999.250      0.504   -999.250   -999.250      0.786      1.376      1.214      1.212    115.161    115.797
   1819.375    337.778   -999.250     26.301    653.044      5.882   -999.250      0.342   -999.250   -999.250      0.701      1.377      1.214      1.192    114.996    115.797
   1819.500    360.159   -999.250     27.122    659.680      5.154   -999.250      0.339   -999.250   -999.250      0.576      1.379      1.214      1.181    115.002    115.624
   1819.625    356.508   -999.250     27.951    666.316      5.298   -999.250      0.452   -999.250   -999.250      0.537      1.351      1.214      1.156    114.997    115.457
   1819.750    350.311   -999.250     28.366    670.658      5.467   -999.250      0.479   -999.250   -999.250      0.618      1.345      1.215      1.129    114.842    115.479
   1819.875    344.136   -999.250     28.063    674.169      4.976   -999.250      0.331   -999.250   -999.250      0.707      1.308      1.203      1.088    114.840    115.481
   1820.000    338.226   -999.250     27.616    677.680      5.743   -999.250      0.483   -999.250   -999.250      0.580      1.271      1.162      1.070    114.842    115.461
   1820.125    332.222   -999.250     27.461    680.872      5.546   -999.250      0.710   -999.250   -999.250      0.668      1.253      1.121      1.032    114.682    115.332
   1820.250    337.579   -999.250     27.600    678.486      5.215   -999.250      0.754   -999.250   -999.250      0.909      1.247      1.081      1.000    114.683    115.332
   1820.375    349.187   -999.250     27.900    673.533      5.792   -999.250      0.307   -999.250   -999.250      0.828      1.240      1.040      0.963    114.682    115.456
   1820.500    360.794   -999.250     28.156    668.560      5.651   -999.250      0.340   -999.250   -999.250      0.662      1.249      1.000      0.921    114.524    115.466
   1820.625    359.847   -999.250     28.036    660.837      5.417   -999.250      0.636   -999.250   -999.250      0.501      1.277      0.958      0.885    114.445    115.463
   1820.750    351.053   -999.250     27.638    651.600      5.209   -999.250      0.386   -999.250   -999.250      0.570      1.295      0.908      0.874    114.365    115.448
   1820.875    343.651   -999.250     27.487    642.480      5.450   -999.250      0.530   -999.250   -999.250      0.504      1.320      0.908      0.855    114.366    115.634
   1821.000    337.937   -999.250     27.465    628.449      5.993   -999.250      0.368   -999.250   -999.250      0.554      1.350      0.908      0.854    114.285    115.754
   1821.125    334.127   -999.250     27.385    614.594      6.539   -999.250      0.387   -999.250   -999.250      0.691      1.428      0.908      0.849    114.208    115.780
   1821.250    332.886   -999.250     26.883    597.171      7.083   -999.250      0.872   -999.250   -999.250      1.047      1.500      0.933      0.829    114.205    115.837
   1821.375    321.514   -999.250     26.250    573.923      7.474   -999.250      1.693   -999.250   -999.250      1.403      1.559      0.968      0.854    114.050    115.786
   1821.500    307.463   -999.250     25.729    550.674      7.246   -999.250      1.271   -999.250   -999.250      1.750      1.629      1.009      0.879    114.046    115.736
   1821.625    297.937   -999.250     25.455    533.630      7.439   -999.250      0.541   -999.250   -999.250      0.770      1.666      1.087      0.911    114.051    115.788
   1821.750    293.492   -999.250     25.630    521.520      7.481   -999.250      0.657   -999.250   -999.250      0.980      1.737      1.187      0.991    114.046    115.767
