~Version Information Block
 VERS.                2.00:     CWLS LOG ASCII STANDARD - VERSION 2.000000
 WRAP.                  NO:     One Line Per Depth Step
#
~Well Information Block
#MNEM.UNIT                     Data                         Information
#----------   ------------------------------------------   ----------------
 STRT.M                                        183.125:
 STOP.M                                       2134.000:
 STEP.M                                          0.125:
 NULL.                                        -999.250:
 COMP.                                   ²â¾®Êý¾Ý¿âµ¼³ö:     COMPANY 
 WELL.                                        ¹ÂÄÏ152-05:     Well 
 FLD .                                                :     Field 
 LOC .                                                :     LOCATION
 CNTY.                                                :     COUNTY
 STAT.                                                :     STATE
 CTRY.                                                :     COUNTRY
 SRVC.                                                :     SERVICE COMPANY
 DATE.                                                :     DATE
 API .                                                :     API NUMBER
#
~Curve Information Block
#MNEM.UNIT       API CODE      Curve Description
#----------    -------------   -------------------
 DEPT.M                    :   Depth in Meters
 AC  .Î¢Ãë/Ã×                      :   AC
 CAL .ÀåÃ×                      :   CAL
 CAL .ÀåÃ×                      :   CAL
 COND.ºÁÄ·Å·/Ã×                      :   COND
 GR  .Î¢Â×ÇÙ/Ð¡Ê±                      :   GR
 GR  .Î¢Â×ÇÙ/Ð¡Ê±                      :   GR
 RLML.Å·Ä·Ã×                      :   RLML
 RLML.Å·Ä·Ã×                      :   RLML
 RNML.Å·Ä·Ã×                      :   RNML
 RNML.Å·Ä·Ã×                      :   RNML
 R04 .Å·Ä·Ã×                      :   R04
 R25 .Å·Ä·Ã×                      :   R25
 R4  .Å·Ä·Ã×                      :   R4
 SP  .ºÁ·ü                      :   SP
 SP  .ºÁ·ü                      :   SP
#
~A  DEPTH          AC        CAL        CAL       COND         GR         GR       RLML       RLML       RNML       RNML        R04        R25         R4         SP         SP
# ...
   1373.375    505.557   -999.250     22.593    359.600      8.457   -999.250      0.320   -999.250   -999.250      0.839      1.479      2.093      1.695    120.717    120.916
   1373.500    502.401   -999.250     22.320    355.660      8.773   -999.250      0.423   -999.250   -999.250      0.638      1.480      2.018      1.694    120.711    120.916
   1373.625    493.492   -999.250     22.222    351.257      8.547   -999.250      0.468   -999.250   -999.250      0.547      1.479      1.946      1.699    120.718    121.090
   1373.750    484.153   -999.250     22.740    350.042      9.167   -999.250      0.303   -999.250   -999.250      0.668      1.479      1.852      1.717    120.710    121.076
   1373.875    477.619   -999.250     23.528    350.111      8.950   -999.250      0.252   -999.250   -999.250      0.572      1.477      1.854      1.766    120.560    121.073
   1374.000    483.298   -999.250     23.961    353.200      8.798   -999.250      0.319   -999.250   -999.250      0.652      1.505      1.983      1.784    120.710    121.074
   1374.125    491.208   -999.250     23.896    358.960      9.042   -999.250      0.587   -999.250   -999.250      0.504      1.500      2.158      1.814    120.718    121.075
   1374.250    500.476   -999.250     23.466    366.640      8.709   -999.250      0.817   -999.250   -999.250      0.881      1.481      2.286      1.853    120.711    121.072
   1374.375    512.540   -999.250     22.828    375.600      8.902   -999.250      0.540   -999.250   -999.250      0.686      1.473      2.218      1.904    120.718    121.058
   1374.500    523.795   -999.250     22.363    385.840      8.181   -999.250      0.584   -999.250   -999.250      0.526      1.434      2.123      1.949    120.711    121.235
   1374.625    529.048   -999.250     22.026    396.080      7.906   -999.250      0.437   -999.250   -999.250      0.531      1.430      2.031      1.978    120.717    121.231
   1374.750    529.048   -999.250     22.171    403.120      8.669   -999.250      0.291   -999.250   -999.250      0.614      1.402      1.936      1.944    120.712    121.233
   1374.875    522.755   -999.250     22.441    408.216      8.255   -999.250      0.357   -999.250   -999.250      0.613      1.397      1.844      1.894    120.717    121.235
   1375.000    515.397   -999.250     22.210    406.249      8.450   -999.250      0.416   -999.250   -999.250      0.545      1.376      1.750      1.835    120.712    121.305
   1375.125    507.460   -999.250     21.999    401.142      8.949   -999.250      0.289   -999.250   -999.250      0.501      1.355      1.726      1.794    120.716    121.298
   1375.250    494.762   -999.250     22.490    389.014      8.559   -999.250      0.667   -999.250   -999.250      0.530      1.330      1.779      1.795    120.712    121.354
   1375.375    476.349   -999.250     23.198    378.755      7.994   -999.250      0.443   -999.250   -999.250      0.584      1.352      1.854      1.803    120.716    121.243
   1375.500    459.206   -999.250     23.838    368.767      7.216   -999.250      0.192   -999.250   -999.250      0.650      1.377      1.930      1.841    120.712    121.226
   1375.625    442.438   -999.250     24.436    355.585      7.262   -999.250      0.457   -999.250   -999.250      0.479      1.422      2.004      1.880    120.716    121.280
   1375.750    419.117   -999.250     25.033    346.174      7.070   -999.250      0.698   -999.250   -999.250      0.720      1.433      2.080      1.925    120.712    121.233
   1375.875    395.873   -999.250     25.629    334.180      6.991   -999.250      0.274   -999.250   -999.250      0.413      1.471      2.154      1.970    120.716    121.245
   1376.000    370.492   -999.250     26.226    323.120      7.178   -999.250      0.583   -999.250   -999.250      0.505      1.531      2.231      1.999    120.712    121.348
   1376.125    356.017   -999.250     26.845    317.360      7.268   -999.250      0.446   -999.250   -999.250      0.729      1.560      2.312      2.023    120.558    121.084
   1376.250    377.498   -999.250     26.861    314.160      7.545   -999.250      0.238   -999.250   -999.250      0.449      1.608      2.278      2.057    120.554    121.078
   1376.375    399.054   -999.250     26.529    315.440      7.786   -999.250      0.414   -999.250   -999.250      0.553      1.655      2.237      2.094    120.557    121.075
   1376.500    417.270   -999.250     26.272    319.920      7.719   -999.250      0.506   -999.250   -999.250      0.656      1.659      2.221      2.080    120.555    121.077
   1376.625    437.619   -999.250     26.736    326.960      7.890   -999.250      0.174   -999.250   -999.250      0.486      1.683      2.253      2.056    120.557    121.042
   1376.750    434.307   -999.250     27.215    335.280      8.418   -999.250      0.337   -999.250   -999.250      0.478      1.633      2.286      2.023    120.555    120.921
   1376.875    426.613   -999.250     27.703    342.320      8.194   -999.250      0.474   -999.250   -999.250      0.534      1.628      2.312      2.025    120.556    120.913
   1377.000    420.476   -999.250     27.651    353.840      7.743   -999.250      0.232   -999.250   -999.250      0.379      1.604      2.313      2.054    120.556    120.915
   1377.125    440.629   -999.250     27.546    362.800      8.233   -999.250      0.361   -999.250   -999.250      0.562      1.554      2.255      2.079    120.555    120.922
   1377.250    461.746   -999.250     27.441    374.320      8.692   -999.250      0.439   -999.250   -999.250      0.431      1.534      2.207      2.074    120.557    120.995
   1377.375    482.651   -999.250     27.340    385.840      9.185   -999.250      0.304   -999.250   -999.250      0.623      1.481      2.158      2.101    120.554    121.085
   1377.500    503.968   -999.250     27.413    398.000      8.502   -999.250      0.430   -999.250   -999.250      0.439      1.431      2.109      2.080    120.558    121.072
   1377.625    509.365   -999.250     27.871    406.320      8.441   -999.250      0.249   -999.250   -999.250      0.560      1.378      2.060      2.076    120.554    121.073
   1377.750    501.111   -999.250     28.420    413.360      8.840   -999.250      0.334   -999.250   -999.250      0.366      1.344      2.010      2.051    120.558    121.074
   1377.875    496.032   -999.250     28.336    417.840      9.138   -999.250      0.215   -999.250   -999.250      0.417      1.306      1.961      2.020    120.712    121.074
   1378.000    492.222   -999.250     26.973    420.400      7.892   -999.250      0.290   -999.250   -999.250      0.436      1.299      1.912      2.005    120.716    121.074
   1378.125    488.413   -999.250     25.374    419.760      8.009   -999.250      0.373   -999.250   -999.250      0.437      1.302      1.863      1.978    120.712    121.074
   1378.250    483.333   -999.250     23.738    412.720      7.758   -999.250      0.447   -999.250   -999.250      0.547      1.265      1.814      1.938    120.557    121.074
   1378.375    472.540   -999.250     22.578    399.280      7.695   -999.250      0.705   -999.250   -999.250      0.699      1.274      1.765      1.881    120.554    121.074
   1378.500    459.059   -999.250     23.370    385.200      7.306   -999.250      0.553   -999.250   -999.250      0.793      1.279      1.727      1.847    120.715    121.074
   1378.625    445.729   -999.250     24.110    372.400      7.855   -999.250      0.320   -999.250   -999.250      0.443      1.319      1.726      1.822    120.714    121.074
   1378.750    428.621   -999.250     24.878    357.040      7.759   -999.250      0.637   -999.250   -999.250      0.512      1.379      1.799      1.777    120.715    121.074
   1378.875    409.580   -999.250     25.479    345.520      7.541   -999.250      0.327   -999.250   -999.250      0.412      1.433      1.910      1.772    120.715    121.074
   1379.000    391.176   -999.250     26.324    332.720      8.002   -999.250      0.563   -999.250   -999.250      0.649      1.524      2.023      1.761    120.714    121.074
