~Version Information Block
 VERS.                2.00:     CWLS LOG ASCII STANDARD - VERSION 2.000000
 WRAP.                  NO:     One Line Per Depth Step
#
~Well Information Block
#MNEM.UNIT                     Data                         Information
#----------   ------------------------------------------   ----------------
 STRT.M                                        183.125:
 STOP.M                                       2134.000:
 STEP.M                                          0.125:
 NULL.                                        -999.250:
 COMP.                                   ²â¾®Êý¾Ý¿âµ¼³ö:     COMPANY 
 WELL.                                        ¹ÂÄÏ152-05:     Well 
 FLD .                                                :     Field 
 LOC .                                                :     LOCATION
 CNTY.                                                :     COUNTY
 STAT.                                                :     STATE
 CTRY.                                                :     COUNTRY
 SRVC.                                                :     SERVICE COMPANY
 DATE.                                                :     DATE
 API .                                                :     API NUMBER
#
~Curve Information Block
#MNEM.UNIT       API CODE      Curve Description
#----------    -------------   -------------------
 DEPT.M                    :   Depth in Meters
 AC  .Î¢Ãë/Ã×                      :   AC
 CAL .ÀåÃ×                      :   CAL
 CAL .ÀåÃ×                      :   CAL
 COND.ºÁÄ·Å·/Ã×                      :   COND
 GR  .Î¢Â×ÇÙ/Ð¡Ê±                      :   GR
 GR  .Î¢Â×ÇÙ/Ð¡Ê±                      :   GR
 RLML.Å·Ä·Ã×                      :   RLML
 RLML.Å·Ä·Ã×                      :   RLML
 RNML.Å·Ä·Ã×                      :   RNML
 RNML.Å·Ä·Ã×                      :   RNML
 R04 .Å·Ä·Ã×                      :   R04
 R25 .Å·Ä·Ã×                      :   R25
 R4  .Å·Ä·Ã×                      :   R4
 SP  .ºÁ·ü                      :   SP
 SP  .ºÁ·ü                      :   SP
#
~A  DEPTH          AC        CAL        CAL       COND         GR         GR       RLML       RLML       RNML       RNML        R04        R25         R4         SP         SP
# ...
   2115.125    283.173   -999.250     25.277    331.440      7.003   -999.250      0.332   -999.250   -999.250      0.550      1.989      2.774      2.457    126.384    128.601
   2115.250    306.191   -999.250     26.148    343.860      7.220   -999.250      0.423   -999.250   -999.250      0.691      1.969      3.056      2.152    126.359    128.633
   2115.375    327.804   -999.250     26.994    356.400      7.361   -999.250      0.490   -999.250   -999.250      0.596      1.968      3.159      1.935    126.334    128.806
   2115.500    345.344   -999.250     27.718    364.720      6.937   -999.250      0.360   -999.250   -999.250      0.480      1.967      2.934      1.765    126.309    128.758
   2115.625    352.540   -999.250     27.706    367.920      6.735   -999.250      0.212   -999.250   -999.250      0.389      1.967      2.589      1.694    126.284    128.770
   2115.750    348.280   -999.250     26.950    368.560      7.450   -999.250      0.507   -999.250   -999.250      0.747      1.973      2.233      1.740    126.259    128.766
   2115.875    335.397   -999.250     26.048    370.480      7.119   -999.250      0.836   -999.250   -999.250      1.063      1.964      1.883      1.841    126.234    128.768
   2116.000    324.603   -999.250     25.247    370.480      6.391   -999.250      0.382   -999.250   -999.250      0.622      1.968      1.930      1.937    126.209    128.782
   2116.125    300.476   -999.250     24.749    371.120      6.863   -999.250      0.626   -999.250   -999.250      0.569      1.969      2.050      1.996    126.184    128.605
   2116.250    305.298   -999.250     24.908    371.760      7.190   -999.250      0.362   -999.250   -999.250      0.635      1.963      2.159      2.067    126.159    128.608
   2116.375    315.744   -999.250     25.376    371.760      7.530   -999.250      0.221   -999.250   -999.250      0.519      1.941      2.279      2.178    126.134    128.603
   2116.500    329.683   -999.250     25.929    371.110      7.969   -999.250      0.440   -999.250   -999.250      0.439      1.968      2.413      2.228    126.109    128.608
   2116.625    347.460   -999.250     26.615    368.511      7.617   -999.250      0.259   -999.250   -999.250      0.619      1.968      2.417      2.232    126.083    128.433
   2116.750    364.603   -999.250     27.361    362.731      7.545   -999.250      0.264   -999.250   -999.250      0.532      1.964      2.414      2.181    126.059    128.412
   2116.875    380.238   -999.250     27.032    356.969      7.155   -999.250      0.159   -999.250   -999.250      0.367      1.964      2.468      2.108    126.033    128.295
   2117.000    395.714   -999.250     24.953    347.364      6.626   -999.250      0.516   -999.250   -999.250      0.503      1.968      2.517      2.018    126.009    128.289
   2117.125    386.825   -999.250     23.717    339.729      6.216   -999.250      0.877   -999.250   -999.250      0.849      1.968      2.595      1.841    125.983    128.253
   2117.250    365.318   -999.250     22.827    332.157      6.557   -999.250      0.603   -999.250   -999.250      1.213      1.968      2.697      1.771    125.953    128.132
   2117.375    342.103   -999.250     21.961    326.465      6.268   -999.250      0.513   -999.250   -999.250      0.830      1.968      2.773      1.823    125.972    128.125
   2117.500    325.238   -999.250     21.768    320.011      5.899   -999.250      0.868   -999.250   -999.250      0.899      1.968      2.799      1.941    125.997    128.128
   2117.625    311.905   -999.250     21.760    314.157      5.538   -999.250      0.629   -999.250   -999.250      1.030      1.968      2.823      1.999    126.021    128.122
   2117.750    304.286   -999.250     21.737    309.635      5.175   -999.250      0.803   -999.250   -999.250      1.004      1.968      2.799      2.004    126.046    128.285
   2117.875    303.016   -999.250     21.752    306.418      5.002   -999.250      0.728   -999.250   -999.250      1.092      1.968      2.797      2.004    126.070    128.456
   2118.000    303.651   -999.250     21.822    307.120      5.209   -999.250      0.626   -999.250   -999.250      0.997      1.968      2.773      1.999    126.095    128.571
   2118.125    304.921   -999.250     21.820    313.520      5.520   -999.250      0.793   -999.250   -999.250      1.006      1.963      2.772      2.028    126.120    128.608
   2118.250    306.191   -999.250     21.821    317.360      5.891   -999.250      0.944   -999.250   -999.250      0.978   -999.250      2.774      2.026    126.144    128.608
   2118.375    304.286   -999.250     21.823    319.280      6.247   -999.250      0.876   -999.250   -999.250      1.152   -999.250      2.772      2.028    126.169    128.609
   2118.500    299.206   -999.250     21.822    319.289      6.077   -999.250      1.335   -999.250   -999.250      1.324   -999.250      2.774      2.000    126.193    128.606
   2118.625    292.857   -999.250     21.889    320.563      5.867   -999.250      0.879   -999.250   -999.250      1.497   -999.250      2.772      1.999    126.218    128.785
   2118.750    287.143   -999.250     21.947    321.224      5.549   -999.250      1.501   -999.250   -999.250      1.627   -999.250      2.774      1.980    126.242    128.768
   2118.875    283.968   -999.250     22.025    321.200      5.697   -999.250      1.198   -999.250   -999.250      1.395   -999.250      2.772      1.974    126.267    128.942
   2119.000    285.238   -999.250     22.105    320.560      6.185   -999.250      0.436   -999.250   -999.250      1.804   -999.250      2.774      1.974    126.291    128.928
   2119.125    288.455   -999.250     22.188    319.280      6.704   -999.250      1.616   -999.250   -999.250      1.087   -999.250      2.772      1.976    126.316    128.925
   2119.250    293.112   -999.250     22.204    318.000      6.458   -999.250      1.282   -999.250   -999.250      1.387   -999.250      2.774      1.990    126.340    128.928
   2119.375    298.671   -999.250     22.202    315.440      6.034   -999.250      0.589   -999.250   -999.250      1.911   -999.250      2.772      1.976    126.365    128.930
   2119.500    304.235   -999.250     22.202    314.160      6.181   -999.250      0.812   -999.250   -999.250      1.144   -999.250      2.774      1.975    126.390    128.895
   2119.625    311.270   -999.250     22.202    311.600      5.913   -999.250      0.984   -999.250   -999.250      1.248   -999.250      2.772      1.975    126.414    128.775
   2119.750    308.393   -999.250     22.200    309.040      6.200   -999.250      0.909   -999.250   -999.250      1.330   -999.250      2.723      1.973    126.439    128.769
   2119.875    302.983   -999.250     22.195    302.640      6.535   -999.250      0.895   -999.250   -999.250      1.139   -999.250      2.721      1.952    126.463    128.731
   2120.000    297.573   -999.250     22.299    297.520      6.858   -999.250      0.938   -999.250   -999.250      1.228   -999.250      2.723      1.975    126.488    128.614
   2120.125    292.222   -999.250     22.392    292.400      7.409   -999.250      0.520   -999.250   -999.250      1.140   -999.250      2.734      1.969    126.512    128.429
   2120.250    285.873   -999.250     22.502    284.080      7.777   -999.250      0.789   -999.250   -999.250      0.924   -999.250      2.748      1.950    126.537    128.443
   2120.375    278.889   -999.250     22.643    278.320      7.493   -999.250      1.617   -999.250   -999.250      1.191   -999.250      2.747      1.977    126.561    128.447
   2120.500    271.905   -999.250     22.969    272.560      7.851   -999.250      1.203   -999.250   -999.250      1.778   -999.250      2.723      1.975    126.586    128.446
   2120.625    274.445   -999.250     23.215    266.160      8.328   -999.250      0.104   -999.250   -999.250      1.216   -999.250      2.722      1.974    126.610    128.438
   2120.750    291.191   -999.250     23.425    260.040      7.707   -999.250      1.006   -999.250   -999.250      0.551   -999.250      2.722   -999.250    126.635    128.317
