~Version Information Block
 VERS.                2.00:     CWLS LOG ASCII STANDARD - VERSION 2.000000
 WRAP.                  NO:     One Line Per Depth Step
#
~Well Information Block
#MNEM.UNIT                     Data                         Information
#----------   ------------------------------------------   ----------------
 STRT.M                                        100.750:
 STOP.M                                       1515.000:
 STEP.M                                          0.125:
 NULL.                                        -999.250:
 COMP.                                   ²â¾®Êý¾Ý¿âµ¼³ö:     COMPANY 
 WELL.                                           ¹ÂÄÏ152:     Well 
 FLD .                                                :     Field 
 LOC .                                                :     LOCATION
 CNTY.                                                :     COUNTY
 STAT.                                                :     STATE
 CTRY.                                                :     COUNTRY
 SRVC.                                                :     SERVICE COMPANY
 DATE.                                                :     DATE
 API .                                                :     API NUMBER
#
~Curve Information Block
#MNEM.UNIT       API CODE      Curve Description
#----------    -------------   -------------------
 DEPT.M                    :   Depth in Meters
 AC  .Î¢Ãë/Ã×                      :   AC
 CAL .ÀåÃ×                      :   CAL
 CAL .ÀåÃ×                      :   CAL
 COND.mS/m                      :   COND
 RLML.Å·Ä·Ã×                      :   RLML
 RNML.Å·Ä·Ã×                      :   RNML
 R04 .Å·Ä·Ã×                      :   R04
 R25 .Å·Ä·Ã×                      :   R25
 R4  .Å·Ä·Ã×                      :   R4
 SP  .ºÁ·ü                      :   SP
 SP  .ºÁ·ü                      :   SP
#
~A  DEPTH          AC        CAL        CAL       COND       RLML       RNML        R04        R25         R4         SP         SP
# ...
   1137.750    435.870   -999.250     38.886    269.108      1.084      1.194      2.812      3.860      4.252    114.766    127.098
   1137.875    434.591   -999.250     38.127    260.828      1.164      1.369      2.914      3.984      4.547    114.210    126.933
   1138.000    437.148   -999.250     37.389    253.822      1.274      1.553      3.006      4.116      4.919    114.002    126.781
   1138.125    432.992   -999.250     36.678    249.363      1.303      1.556      3.029      4.209      5.267    113.562    126.775
   1138.250    422.442   -999.250     35.842    247.452      1.262      1.486      3.029      4.324      5.542    113.458    126.781
   1138.375    407.737   -999.250     35.301    252.548      1.247      1.357      2.987      4.436      5.703    113.466    127.092
   1138.500    394.368   -999.250     35.098    260.191      1.224      1.284      2.930      4.550      5.529    113.535    127.415
   1138.625    383.905   -999.250     35.516    271.019      1.127      1.198      2.862      4.663      5.166    113.703    127.885
   1138.750    375.128   -999.250     35.994    287.580      1.007      1.093      2.765      4.703      4.848    114.015    128.050
   1138.875    392.391   -999.250     36.474    304.140      0.872      0.967      2.648      4.487      4.539    114.494    128.360
   1139.000    409.974   -999.250     36.917    321.975      0.808      0.849      2.524      4.134      4.198    114.864    128.684
   1139.125    451.412   -999.250     37.353    335.987      0.814      0.825      2.390      3.781      3.928    115.191    128.677
   1139.250    488.299   -999.250     37.528    350.637      0.839      0.844      2.258      3.576      3.688    115.557    129.002
   1139.375    525.187   -999.250     37.196    366.561      0.864      0.865      2.146      3.455      3.571    115.888    129.222
   1139.500    549.041   -999.250     36.302    375.478      0.892      0.886      2.043      3.320      3.452    116.077    129.478
   1139.625    559.910   -999.250     35.559    387.580      0.920      0.907      1.940      3.295      3.390    116.188    129.470
   1139.750    567.583   -999.250     34.792    395.223      0.943      0.928      1.872      3.269      3.292    116.258    129.319
   1139.875    572.698   -999.250     34.315    401.592      0.942      0.949      1.813      3.219      3.199    116.092    129.787
   1140.000    574.616   -999.250     34.435    405.732      0.936      0.945      1.803      3.180      3.100    116.090    129.795
   1140.125    573.338   -999.250     34.808    410.510      0.897      0.906      1.783      3.168      3.024    116.105    129.628
   1140.250    570.780   -999.250     35.296    412.420      0.861      0.868      1.783      3.141      2.954    116.061    129.636
   1140.375    568.223   -999.250     35.825    406.688      0.816      0.837      1.782      3.117      2.869    116.033    129.628
   1140.500    565.026   -999.250     36.134    400.318      0.816      0.839      1.810      3.115      2.775    115.922    129.478
   1140.625    562.468   -999.250     36.049    392.675      0.865      0.891      1.836      3.066      2.724    115.943    129.470
   1140.750    558.632   -999.250     35.693    382.484      0.940      0.942      1.832      3.038      2.671    115.912    129.478
   1140.875    555.435   -999.250     35.475    374.204      0.992      0.993      1.859      3.041      2.647    115.817    129.470
   1141.000    551.598   -999.250     35.353    362.739      1.031      1.045      1.885      3.037      2.622    115.809    129.479
   1141.125    549.041   -999.250     35.684    353.822      0.999      1.096      1.928      3.015      2.609    115.773    129.470
   1141.250    545.205   -999.250     36.075    344.904      0.903      1.059      1.964      2.986      2.618    115.652    129.480
   1141.375    541.368   -999.250     36.506    337.261      0.870      1.012      2.018      2.964      2.621    115.653    129.310
   1141.500    537.532   -999.250     36.930    332.803      0.891      0.965      2.085      2.985      2.669    115.777    129.323
   1141.625    535.614   -999.250     37.179    330.255      0.920      0.965      2.120      2.938      2.673    115.787    129.309
   1141.750    540.729   -999.250     37.237    334.713      0.962      0.984      2.119      2.934      2.721    115.782    129.324
   1141.875    546.483   -999.250     36.928    340.446      1.024      0.997      2.116      2.912      2.738    115.650    129.308
   1142.000    551.598   -999.250     36.363    345.541      1.078      1.009      2.125      2.883      2.796    115.673    129.008
   1142.125    557.353   -999.250     35.845    351.274      1.100      1.033      2.106      2.861      2.824    115.591    129.149
   1142.250    563.107   -999.250     35.276    353.822      1.109      1.055      2.095      2.858      2.888    115.470    129.008
   1142.375    563.107   -999.250     34.744    353.185      1.062      1.076      2.061      2.835      2.959    115.468    128.991
   1142.500    560.550   -999.250     34.678    350.000      0.995      1.097      2.051      2.833      3.016    115.462    129.007
   1142.625    558.632   -999.250     35.048    345.541      0.923      1.057      2.039      2.835      3.072    115.631    128.992
   1142.750    555.435   -999.250     35.551    339.809      0.876      1.007      2.035      2.859      3.078    115.530    128.846
   1142.875    552.877   -999.250     36.057    334.076      0.860      0.960      2.062      2.860      3.079    115.606    128.836
   1143.000    548.402   -999.250     36.366    328.344      0.852      0.915      2.102      2.834      3.030    115.481    128.685
   1143.125    544.565   -999.250     36.188    321.975      0.855      0.902      2.153      2.860      3.015    115.586    128.680
   1143.250    538.811   -999.250     35.849    314.331      0.882      0.890      2.204      2.885      3.000    115.488    128.682
   1143.375    532.417   -999.250     36.208    309.236      0.938      0.928      2.269      2.910      3.012    115.536    128.682
   1143.500    526.023   -999.250     36.714    302.866      0.986      0.990      2.328      2.988      3.053    115.501    128.680
   1143.625    518.350   -999.250     37.323    294.586      1.037      1.028      2.362      3.038      3.095    115.656    128.526
   1143.750    509.399   -999.250     37.788    290.127      1.094      1.067      2.392      3.081      3.185    115.607    128.678
   1143.875    503.037   -999.250     37.836    284.395      1.141      1.105      2.417      3.166      3.292    115.584    128.527
   1144.000    495.460   -999.250     37.401    280.255      1.175      1.144      2.452      3.219      3.409    115.628    128.518
   1144.125    487.020   -999.250     36.859    276.115      1.170      1.183      2.449      3.294      3.502    115.628    128.527
   1144.250    494.573   -999.250     36.726    274.204      1.120      1.212      2.433      3.347      3.625    115.621    128.518
   1144.375    503.005   -999.250     36.830    276.752      1.091      1.213      2.445      3.396      3.699    115.610    128.527
   1144.500    512.596   -999.250     36.966    281.210      1.097      1.215      2.405      3.449      3.612    115.592    128.519
   1144.625    523.465   -999.250     36.875    287.580      1.112      1.218      2.396      3.473      3.500    115.718    128.526
   1144.750    538.171   -999.250     36.472    295.860      1.145      1.220      2.365      3.424      3.407    115.952    128.520
   1144.875    549.041   -999.250     36.220    304.140      1.150      1.222      2.330      3.371      3.327    115.927    128.524
   1145.000    554.795   -999.250     35.853    313.694      1.176      1.224      2.252      3.347      3.247    116.055    128.680
   1145.125    556.714   -999.250     35.551    323.248      1.188      1.224      2.217      3.319      3.234    116.047    128.682
   1145.250    554.795   -999.250     35.350    329.618      1.210      1.224      2.151      3.295      3.230    116.293    128.523
