~Version Information Block
 VERS.                2.00:     CWLS LOG ASCII STANDARD - VERSION 2.000000
 WRAP.                  NO:     One Line Per Depth Step
#
~Well Information Block
#MNEM.UNIT                     Data                         Information
#----------   ------------------------------------------   ----------------
 STRT.M                                        183.125:
 STOP.M                                       2134.000:
 STEP.M                                          0.125:
 NULL.                                        -999.250:
 COMP.                                   ²â¾®Êý¾Ý¿âµ¼³ö:     COMPANY 
 WELL.                                        ¹ÂÄÏ152-05:     Well 
 FLD .                                                :     Field 
 LOC .                                                :     LOCATION
 CNTY.                                                :     COUNTY
 STAT.                                                :     STATE
 CTRY.                                                :     COUNTRY
 SRVC.                                                :     SERVICE COMPANY
 DATE.                                                :     DATE
 API .                                                :     API NUMBER
#
~Curve Information Block
#MNEM.UNIT       API CODE      Curve Description
#----------    -------------   -------------------
 DEPT.M                    :   Depth in Meters
 AC  .Î¢Ãë/Ã×                      :   AC
 CAL .ÀåÃ×                      :   CAL
 CAL .ÀåÃ×                      :   CAL
 COND.ºÁÄ·Å·/Ã×                      :   COND
 GR  .Î¢Â×ÇÙ/Ð¡Ê±                      :   GR
 GR  .Î¢Â×ÇÙ/Ð¡Ê±                      :   GR
 RLML.Å·Ä·Ã×                      :   RLML
 RLML.Å·Ä·Ã×                      :   RLML
 RNML.Å·Ä·Ã×                      :   RNML
 RNML.Å·Ä·Ã×                      :   RNML
 R04 .Å·Ä·Ã×                      :   R04
 R25 .Å·Ä·Ã×                      :   R25
 R4  .Å·Ä·Ã×                      :   R4
 SP  .ºÁ·ü                      :   SP
 SP  .ºÁ·ü                      :   SP
#
~A  DEPTH          AC        CAL        CAL       COND         GR         GR       RLML       RLML       RNML       RNML        R04        R25         R4         SP         SP
# ...
   1223.875    483.333   -999.250     25.088    331.440      9.568   -999.250      0.479   -999.250   -999.250      0.942      1.586      2.177      2.101    118.808    117.548
   1224.000    494.445   -999.250     25.437    341.040      8.945   -999.250      0.510   -999.250   -999.250      0.435      1.549      2.071      2.103    118.812    117.541
   1224.125    503.016   -999.250     25.946    348.080      9.239   -999.250      0.239   -999.250   -999.250      0.558      1.526      1.965      2.098    118.967    117.419
   1224.250    511.905   -999.250     25.795    356.976      9.744   -999.250      0.437   -999.250   -999.250      0.708      1.488      1.858      2.074    118.970    117.385
   1224.375    513.810   -999.250     25.139    365.223      9.495   -999.250      0.529   -999.250   -999.250      0.457      1.448      1.726      2.000    118.967    117.386
   1224.500    514.445   -999.250     24.437    371.053     10.009   -999.250      0.285   -999.250   -999.250      0.585      1.403      1.691      1.933    118.969    117.388
   1224.625    513.175   -999.250     23.650    375.014     10.860   -999.250      0.667   -999.250   -999.250      0.704      1.375      1.647      1.842    118.968    117.388
   1224.750    510.635   -999.250     22.823    377.606     10.121   -999.250      0.575   -999.250   -999.250      0.740      1.377      1.600      1.766    118.969    117.386
   1224.875    507.460   -999.250     22.336    378.191      9.839   -999.250      0.518   -999.250   -999.250      0.649      1.348      1.557      1.713    119.127    117.385
   1225.000    503.333   -999.250     22.011    377.149      9.950   -999.250      0.446   -999.250   -999.250      0.759      1.350      1.521      1.670    119.127    117.419
   1225.125    500.476   -999.250     21.651    372.960      9.387   -999.250      0.698   -999.250   -999.250      0.700      1.348      1.523      1.616    118.967    117.541
   1225.250    495.397   -999.250     21.388    363.427      9.015   -999.250      0.605   -999.250   -999.250      0.822      1.376      1.521      1.617    119.128    117.548
   1225.375    487.825   -999.250     21.251    350.034      8.981   -999.250      0.551   -999.250   -999.250      0.604      1.373      1.549      1.618    118.966    117.549
   1225.500    478.286   -999.250     21.503    339.045      8.887   -999.250      0.353   -999.250   -999.250      0.504      1.409      1.572      1.618    118.970    117.548
   1225.625    468.779   -999.250     22.082    325.450      8.342   -999.250      0.595   -999.250   -999.250      0.592      1.472      1.600      1.619    118.965    117.551
   1225.750    458.039   -999.250     22.523    312.240      8.461   -999.250      0.210   -999.250   -999.250      0.575      1.566      1.762      1.639    118.971    117.547
   1225.875    443.333   -999.250     22.828    300.720      8.823   -999.250      0.488   -999.250   -999.250      0.516      1.661      1.908      1.661    119.123    117.725
   1226.000    426.825   -999.250     23.082    285.360      9.162   -999.250      0.734   -999.250   -999.250      0.676      1.777      2.048      1.726    118.972    117.711
   1226.125    413.492   -999.250     23.464    275.760      9.045   -999.250      0.408   -999.250   -999.250      0.367      1.866      2.194      1.799    119.122    117.708
   1226.250    399.524   -999.250     24.051    262.639      9.730   -999.250      0.286   -999.250   -999.250      0.592      1.968      2.269      1.898    119.131    117.708
   1226.375    390.635   -999.250     24.970    253.098      8.517   -999.250      0.559   -999.250   -999.250      0.850      2.050      2.289      1.970    119.122    117.708
   1226.500    383.651   -999.250     25.889    242.475      8.801   -999.250      0.434   -999.250   -999.250      0.481      2.145      2.302      1.973    119.131    117.708
   1226.625    370.402   -999.250     26.900    234.390      7.882   -999.250      0.895   -999.250   -999.250      0.613      2.229      2.315      2.000    119.281    117.708
   1226.750    357.027   -999.250     27.851    229.040      8.054   -999.250      0.201   -999.250   -999.250      0.772      2.279      2.443      2.033    119.288    117.709
   1226.875    343.651   -999.250     28.901    224.560      8.385   -999.250      0.648   -999.250   -999.250      0.998      2.344      2.588      2.101    119.283    117.709
   1227.000    328.836   -999.250     29.913    221.360      8.502   -999.250      0.320   -999.250   -999.250      0.520      2.386      2.727      2.216    119.128    117.706
   1227.125    310.635   -999.250     28.759    220.080      8.110   -999.250      1.115   -999.250   -999.250      0.837      2.424      2.833      2.309    118.967    117.691
   1227.250    322.937   -999.250     27.445    222.000      8.775   -999.250      0.453   -999.250   -999.250      1.297      2.433      2.873      2.405    118.968    117.866
   1227.375    339.054   -999.250     27.467    226.480      9.117   -999.250      0.921   -999.250   -999.250      1.024      2.452      2.851      2.459    118.810    117.897
   1227.500    355.934   -999.250     27.382    230.960      8.593   -999.250      0.607   -999.250   -999.250      0.707      2.456      2.771      2.504    118.808    118.029
   1227.625    372.814   -999.250     26.795    236.080      9.238   -999.250      0.932   -999.250   -999.250      1.025      2.435      2.602      2.556    118.812    118.158
   1227.750    377.302   -999.250     26.265    241.840      9.015   -999.250      0.373   -999.250   -999.250      0.815      2.410      2.491      2.561    118.807    118.193
   1227.875    367.646   -999.250     25.643    247.600      8.633   -999.250      0.721   -999.250   -999.250      1.100      2.404      2.494      2.560    118.812    118.191
   1228.000    360.256   -999.250     25.495    252.720      8.342   -999.250      0.599   -999.250   -999.250      0.377      2.405      2.591      2.541    118.807    118.189
   1228.125    352.919   -999.250     25.729    255.280      8.430   -999.250      0.809   -999.250   -999.250      0.759      2.404      2.678      2.528    118.813    118.189
   1228.250    349.396   -999.250     25.714    257.840      8.070   -999.250      0.411   -999.250   -999.250      0.475      2.384      2.761      2.489    118.807    118.189
   1228.375    356.832   -999.250     25.518    261.040      8.618   -999.250      0.696   -999.250   -999.250      0.601      2.378      2.847      2.463    118.654    118.196
   1228.500    362.072   -999.250     25.280    263.600      8.424   -999.250      0.436   -999.250   -999.250      0.570      2.359      2.926      2.457    118.650    118.318
   1228.625    361.138   -999.250     25.034    264.824      8.063   -999.250      0.486   -999.250   -999.250      0.816      2.356      3.004      2.437    118.653    118.353
   1228.750    356.349   -999.250     24.708    265.486      8.551   -999.250      0.432   -999.250   -999.250      0.677      2.328      3.053      2.419    118.650    118.351
   1228.875    360.452   -999.250     24.684    265.504      7.991   -999.250      0.360   -999.250   -999.250      0.567      2.323      3.055      2.408    118.652    118.348
   1229.000    368.413   -999.250     24.955    265.512      7.251   -999.250      0.384   -999.250   -999.250      0.688      2.304      3.028      2.382    118.651    118.345
   1229.125    379.206   -999.250     25.637    265.501      7.543   -999.250      0.737   -999.250   -999.250      0.818      2.302      3.029      2.356    118.652    118.378
   1229.250    395.073   -999.250     26.366    265.481      7.871   -999.250      0.346   -999.250   -999.250      0.919      2.299      3.078      2.357    118.651    118.511
   1229.375    410.650   -999.250     27.061    264.829      8.199   -999.250      0.626   -999.250   -999.250      0.429      2.327      3.132      2.356    118.652    118.455
   1229.500    422.381   -999.250     27.665    265.471      7.773   -999.250      0.859   -999.250   -999.250      1.099      2.320      3.180      2.354    118.652    118.382
