~Version Information Block
 VERS.                2.00:     CWLS LOG ASCII STANDARD - VERSION 2.000000
 WRAP.                  NO:     One Line Per Depth Step
#
~Well Information Block
#MNEM.UNIT                     Data                         Information
#----------   ------------------------------------------   ----------------
 STRT.M                                        183.125:
 STOP.M                                       2134.000:
 STEP.M                                          0.125:
 NULL.                                        -999.250:
 COMP.                                   ²â¾®Êý¾Ý¿âµ¼³ö:     COMPANY 
 WELL.                                        ¹ÂÄÏ152-05:     Well 
 FLD .                                                :     Field 
 LOC .                                                :     LOCATION
 CNTY.                                                :     COUNTY
 STAT.                                                :     STATE
 CTRY.                                                :     COUNTRY
 SRVC.                                                :     SERVICE COMPANY
 DATE.                                                :     DATE
 API .                                                :     API NUMBER
#
~Curve Information Block
#MNEM.UNIT       API CODE      Curve Description
#----------    -------------   -------------------
 DEPT.M                    :   Depth in Meters
 AC  .Î¢Ãë/Ã×                      :   AC
 CAL .ÀåÃ×                      :   CAL
 CAL .ÀåÃ×                      :   CAL
 COND.ºÁÄ·Å·/Ã×                      :   COND
 GR  .Î¢Â×ÇÙ/Ð¡Ê±                      :   GR
 GR  .Î¢Â×ÇÙ/Ð¡Ê±                      :   GR
 RLML.Å·Ä·Ã×                      :   RLML
 RLML.Å·Ä·Ã×                      :   RLML
 RNML.Å·Ä·Ã×                      :   RNML
 RNML.Å·Ä·Ã×                      :   RNML
 R04 .Å·Ä·Ã×                      :   R04
 R25 .Å·Ä·Ã×                      :   R25
 R4  .Å·Ä·Ã×                      :   R4
 SP  .ºÁ·ü                      :   SP
 SP  .ºÁ·ü                      :   SP
#
~A  DEPTH          AC        CAL        CAL       COND         GR         GR       RLML       RLML       RNML       RNML        R04        R25         R4         SP         SP
# ...
   1666.625    404.603   -999.250     26.128    499.800      8.059   -999.250      0.281   -999.250   -999.250      0.653      1.303      1.366      1.161    118.322    120.799
   1666.750    422.751   -999.250     27.077    490.868      8.178   -999.250      0.286   -999.250   -999.250      0.340      1.273      1.335      1.179    118.347    121.089
   1666.875    436.508   -999.250     27.932    482.561      8.597   -999.250      0.348   -999.250   -999.250      0.470      1.274      1.290      1.185    118.796    121.231
   1667.000    440.873   -999.250     29.003    476.080      8.882   -999.250      0.322   -999.250   -999.250      0.515      1.287      1.298      1.185    119.139    121.458
   1667.125    437.778   -999.250     28.265    472.880      8.473   -999.250      0.752   -999.250   -999.250      0.376      1.298      1.383      1.179    119.746    121.699
   1667.250    431.587   -999.250     27.438    474.160      9.058   -999.250      0.253   -999.250   -999.250      0.963      1.325      1.427      1.139    120.089    121.866
   1667.375    423.651   -999.250     26.702    474.800      7.965   -999.250      0.367   -999.250   -999.250      0.628      1.348      1.369      1.110    120.221    121.879
   1667.500    412.857   -999.250     25.990    472.880      8.203   -999.250      0.593   -999.250   -999.250      0.554      1.374      1.313      1.083    120.404    121.889
   1667.625    402.698   -999.250     25.936    467.760      8.948   -999.250      0.376   -999.250   -999.250      0.560      1.420      1.255      1.083    120.698    121.714
   1667.750    395.079   -999.250     26.135    463.280      8.317   -999.250      0.426   -999.250   -999.250      0.530      1.473      1.239      1.084    120.876    121.540
   1667.875    389.365   -999.250     26.193    460.080      8.399   -999.250      0.379   -999.250   -999.250      0.631      1.524      1.333      1.105    121.016    121.559
   1668.000    387.778   -999.250     25.905    460.080      7.945   -999.250      0.445   -999.250   -999.250      0.683      1.575      1.468      1.163    121.032    121.351
   1668.125    390.000   -999.250     25.378    462.320      7.215   -999.250      0.954   -999.250   -999.250      0.883      1.605      1.603      1.254    121.019    121.200
   1668.250    386.191   -999.250     24.826    470.000      7.301   -999.250      1.181   -999.250   -999.250      1.326      1.630      1.724      1.302    120.712    120.956
   1668.375    378.571   -999.250     24.421    479.920      7.499   -999.250      0.553   -999.250   -999.250      0.632      1.656      1.725      1.344    120.546    120.692
   1668.500    369.048   -999.250     24.244    491.180      7.905   -999.250      1.254   -999.250   -999.250      1.086      1.685      1.679      1.367    120.234    120.484
   1668.625    359.975   -999.250     24.229    505.355      7.142   -999.250      0.873   -999.250   -999.250      1.329      1.684      1.601      1.392    119.756    120.111
   1668.750    353.051   -999.250     24.390    519.377      6.572   -999.250      0.351   -999.250   -999.250      0.517      1.684      1.521      1.401    119.439    119.758
   1668.875    349.251   -999.250     24.845    539.767      6.993   -999.250      0.519   -999.250   -999.250      0.620      1.685      1.443      1.383    118.966    119.314
   1669.000    348.083   -999.250     25.400    559.920      7.253   -999.250      0.389   -999.250   -999.250      0.846      1.659      1.363      1.350    118.646    118.859
   1669.125    347.467   -999.250     25.968    577.840      6.873   -999.250      0.971   -999.250   -999.250      1.135      1.633      1.285      1.292    118.493    118.567
   1669.250    349.334   -999.250     26.033    590.820      6.532   -999.250      0.377   -999.250   -999.250      0.598      1.609      1.205      1.226    118.170    118.076
   1669.375    352.505   -999.250     26.137    602.620      6.092   -999.250      0.236   -999.250   -999.250      0.413      1.549      1.127      1.164    117.701    117.846
   1669.500    357.611   -999.250     27.036    615.600      6.162   -999.250      0.537   -999.250   -999.250      0.600      1.498      1.035      1.114    117.536    117.523
   1669.625    359.524   -999.250     27.945    619.509      6.174   -999.250      0.400   -999.250   -999.250      0.822      1.462      1.010      1.064    117.068    117.076
   1669.750    354.445   -999.250     28.352    623.851      5.917   -999.250      0.919   -999.250   -999.250      1.052      1.421      1.058      1.018    116.585    116.903
   1669.875    347.460   -999.250     27.549    627.769      5.812   -999.250      0.238   -999.250   -999.250      0.438      1.386      1.119      0.990    116.275    116.611
   1670.000    344.286   -999.250     27.567    629.043      6.015   -999.250      0.569   -999.250   -999.250      0.407      1.345      1.163      0.949    115.872    116.386
   1670.125    346.186   -999.250     28.720    628.503      5.618   -999.250      0.373   -999.250   -999.250      0.629      1.325      1.108      0.931    115.482    116.147
   1670.250    351.871   -999.250     29.727    627.723      5.377   -999.250      0.455   -999.250   -999.250      0.436      1.304      1.062      0.902    115.159    115.928
   1670.375    355.646   -999.250     29.099    626.940      5.740   -999.250      0.219   -999.250   -999.250      0.573      1.298      1.018      0.904    114.847    115.955
   1670.500    358.254   -999.250     28.012    626.160      5.345   -999.250      0.956   -999.250   -999.250      0.312      1.271      0.972      0.906    114.683    115.786
   1670.625    357.619   -999.250     28.352    625.380      5.898   -999.250      0.276   -999.250   -999.250      1.022      1.276      0.934      0.926    114.529    115.612
   1670.750    353.628   -999.250     29.058    624.560      5.580   -999.250      0.390   -999.250   -999.250      0.231      1.248      0.933      0.951    114.366    115.623
   1670.875    346.825   -999.250     29.737    624.758      5.892   -999.250      0.334   -999.250   -999.250      0.471      1.248      0.996      1.004    114.369    115.626
   1671.000    354.233   -999.250     30.623    624.968      5.728   -999.250      0.255   -999.250   -999.250      0.347      1.248      1.052      1.012    114.366    115.625
   1671.125    368.968   -999.250     31.746    625.182      5.853   -999.250      0.366   -999.250   -999.250      0.392      1.247      1.110      1.028    114.210    115.625
   1671.250    386.825   -999.250     32.766    627.670      6.404   -999.250      0.205   -999.250   -999.250      0.338      1.248      1.162      1.057    114.207    115.625
   1671.375    382.778   -999.250     30.399    632.996      6.974   -999.250      0.404   -999.250   -999.250      0.760      1.219      1.163      1.055    114.210    115.625
   1671.500    372.222   -999.250     27.054    638.330      6.838   -999.250      0.912   -999.250   -999.250      1.145      1.220      1.162      1.076    114.049    115.625
   1671.625    361.631   -999.250     26.221    643.665      6.612   -999.250      0.247   -999.250   -999.250      0.354      1.201      1.214      1.084    113.893    115.626
   1671.750    351.501   -999.250     26.853    648.999      6.303   -999.250      0.310   -999.250   -999.250      0.422      1.194      1.264      1.077    113.731    115.623
   1671.875    348.086   -999.250     28.080    654.344      5.848   -999.250      0.263   -999.250   -999.250      0.514      1.175      1.265      1.058    113.576    115.610
   1672.000    351.870   -999.250     29.309    659.134      6.252   -999.250      0.445   -999.250   -999.250      0.572      1.175      1.265      1.030    113.573    115.784
   1672.125    354.445   -999.250     31.548    660.622      6.102   -999.250      0.645   -999.250   -999.250      0.489      1.195      1.239      1.034    113.576    115.759
   1672.250    351.905   -999.250     31.158    663.092      5.826   -999.250      0.497   -999.250   -999.250      0.663      1.196      1.163      1.006    113.415    115.818
