~Version Information Block
 VERS.                2.00:     CWLS LOG ASCII STANDARD - VERSION 2.000000
 WRAP.                  NO:     One Line Per Depth Step
#
~Well Information Block
#MNEM.UNIT                     Data                         Information
#----------   ------------------------------------------   ----------------
 STRT.M                                        100.500:
 STOP.M                                       2142.000:
 STEP.M                                          0.125:
 NULL.                                        -999.250:
 COMP.                                   ²â¾®Êý¾Ý¿âµ¼³ö:     COMPANY 
 WELL.                                         ¹ÂÄÏ152-5:     Well 
 FLD .                                                :     Field 
 LOC .                                                :     LOCATION
 CNTY.                                                :     COUNTY
 STAT.                                                :     STATE
 CTRY.                                                :     COUNTRY
 SRVC.                                                :     SERVICE COMPANY
 DATE.                                                :     DATE
 API .                                                :     API NUMBER
#
~Curve Information Block
#MNEM.UNIT       API CODE      Curve Description
#----------    -------------   -------------------
 DEPT.M                    :   Depth in Meters
 AC  .Î¢Ãë/Ã×                      :   AC
 CAL .ÀåÃ×                      :   CAL
 CAL .ÀåÃ×                      :   CAL
 COND.mS/m                      :   COND
 GR  .Î¢Â×ÇÙ                      :   GR
 RLML.Å·Ä·Ã×                      :   RLML
 RNML.Å·Ä·Ã×                      :   RNML
 R04 .Å·Ä·Ã×                      :   R04
 R25 .Å·Ä·Ã×                      :   R25
 R25 .Å·Ä·Ã×                      :   R25
 R4  .Å·Ä·Ã×                      :   R4
 SP  .ºÁ·ü                      :   SP
 SP  .mv                      :   SP
#
~A  DEPTH          AC        CAL        CAL       COND         GR       RLML       RNML        R04        R25        R25         R4         SP         SP
# ...
   1257.500    491.858     34.082   -999.250    435.847      9.245      0.612      1.135      1.922      3.446      3.511      2.910     44.251     32.265
   1257.625    489.282     31.852   -999.250    440.994      9.062      0.804      0.854      1.918      3.395      3.404      2.847     44.240     32.255
   1257.750    484.775     29.609   -999.250    445.497      8.755      0.408      0.697      1.900      3.335      3.302      2.784     44.250     32.427
   1257.875    477.752     27.326   -999.250    449.357      8.669      0.692      0.796      1.906      3.256      3.191      2.721     44.406     32.452
   1258.000    463.700     26.654   -999.250    451.930      8.661      0.569      0.834      1.893      3.111      3.066      2.655     44.414     32.874
   1258.125    450.000     26.728   -999.250    454.503      8.892      0.803      0.850      1.904      2.984      2.989      2.672     44.408     32.959
   1258.250    476.725     27.179   -999.250    456.433      9.164      1.076      1.016      1.898      2.829      2.913      2.716     44.412     33.051
   1258.375    495.722     25.725   -999.250    459.006      8.730      0.980      1.121      1.898      2.711      2.863      2.762     44.409     33.174
   1258.500    501.196     24.579   -999.250    459.650      8.811      0.895      1.013      1.899      2.717      2.836      2.807     44.411     33.311
   1258.625    500.230     24.100   -999.250    460.293      8.967      1.075      0.999      1.899      2.720      2.838      2.852     44.411     33.555
   1258.750    480.267     24.005   -999.250    460.293      8.347      1.029      0.874      1.899      2.659      2.836      2.837     44.410     33.469
   1258.875    459.660     23.938   -999.250    461.580      8.135      0.526      0.591      1.899      2.592      2.712      2.779     44.412     33.602
   1259.000    469.963     24.074   -999.250    464.796      8.455      1.000      0.965      1.897      2.491      2.633      2.721     44.574     33.809
   1259.125    479.945     24.688   -999.250    469.299      8.708      0.602      0.756      1.862      2.453      2.543      2.661     44.577     33.941
   1259.250    490.892     25.919   -999.250    473.159      8.703      0.363      0.538      1.826      2.363      2.432      2.636     44.573     34.122
   1259.375    502.806     27.148   -999.250    476.376      8.483      0.343      0.511      1.793      2.389      2.305      2.629     44.578     34.350
   1259.500    517.939     27.880   -999.250    480.236      8.656      0.326      0.514      1.775      2.415      2.333      2.623     44.573     34.385
   1259.625    520.193     29.529   -999.250    484.739      8.855      0.446      0.639      1.771      2.442      2.373      2.616     44.578     34.285
   1259.750    512.466     31.322   -999.250    489.242      9.108      0.845      0.825      1.723      2.470      2.408      2.576     44.573     34.432
   1259.875    509.890     31.821   -999.250    494.389      9.479      0.582      0.899      1.730      2.467      2.457      2.497     44.578     34.472
   1260.000    511.822     30.915   -999.250    498.892      9.751      0.795      0.761      1.696      2.432      2.380      2.419     44.573     34.354
   1260.125    519.630     30.363   -999.250    502.109      9.410      0.513      0.654      1.691      2.402      2.281      2.339     44.577     34.079
   1260.250    526.633     31.597   -999.250    504.682      9.017      0.438      0.575      1.692      2.340      2.181      2.266     44.574     33.929
   1260.375    529.853     33.831   -999.250    507.898      8.311      0.467      0.642      1.695      2.234      2.126      2.237     44.411     33.982
   1260.500    529.853     35.275   -999.250    510.472      8.437      0.404      0.704      1.638      2.286      2.150      2.295     44.410     33.867
   1260.625    527.261     35.426   -999.250    512.402      8.257      0.455      0.546      1.640      2.303      2.227      2.305     44.410     33.991
   1260.750    521.481     35.260   -999.250    513.688      7.969      0.595      0.499      1.640      2.372      2.302      2.371     44.410     33.823
   1260.875    513.753     34.326   -999.250    514.975      7.885      0.388      0.644      1.640      2.424      2.358      2.424     44.409     33.702
   1261.000    510.534     33.610   -999.250    516.262      7.997      0.314      0.365      1.611      2.428      2.406      2.428     44.247     33.687
   1261.125    506.026     32.821   -999.250    518.192      8.299      0.719      0.731      1.612      2.454      2.457      2.454     44.243     33.561
   1261.250    504.738     31.772   -999.250    519.478      8.179      0.578      0.578      1.603      2.445      2.505      2.445     44.247     33.424
   1261.375    506.026     30.730   -999.250    520.765      8.288      0.534      0.780      1.592      2.388      2.463      2.388     44.077     33.368
   1261.500    513.753     28.819   -999.250    521.408      8.469      0.328      0.541      1.566      2.323      2.418      2.323     44.083     33.551
   1261.625    519.509     28.181   -999.250    523.981      8.865      0.384      0.590      1.565      2.270      2.376      2.270     44.077     33.281
   1261.750    529.209     28.955   -999.250    526.555      9.272      0.383      0.555      1.557      2.251      2.327      2.252     43.918     33.344
   1261.875    542.088     30.021   -999.250    529.771      9.210      0.335      0.521      1.521      2.206      2.265      2.225     43.913     32.869
   1262.000    547.240     31.139   -999.250    532.345      9.187      0.444      0.563      1.476      2.191      2.193      2.226     43.752     32.564
   1262.125    551.748     31.659   -999.250    534.274      9.570      0.659      0.651      1.459      2.106      2.123      2.226     43.749     32.363
   1262.250    553.680     30.821   -999.250    537.491      9.838      0.488      0.672      1.435      2.055      2.048      2.228     43.585     32.140
   1262.375    553.036     29.189   -999.250    537.491      9.760      0.797      0.856      1.438      1.988      1.998      2.199     43.585     32.082
   1262.500    551.748     27.637   -999.250    539.421      9.610      0.541      0.552      1.402      1.943      1.959      2.180     43.584     31.854
   1262.625    549.816     27.054   -999.250    538.778      9.626      0.812      0.829      1.358      1.882      1.922      2.167     43.421     31.633
   1262.750    547.884     27.276   -999.250    538.134      9.706      0.610      0.758      1.331      1.839      1.870      2.099     43.418     31.470
   1262.875    545.952     27.406   -999.250    534.918      9.698      0.701      0.752      1.330      1.789      1.821      2.095     43.256     31.437
   1263.000    543.376     27.760   -999.250    531.380      9.668      0.477      0.754      1.330      1.707      1.769      2.063     43.252     31.085
   1263.125    537.004     28.484   -999.250    525.268      9.758      0.764      0.776      1.333      1.655      1.719      2.034     43.092     31.094
   1263.250    529.209     30.122   -999.250    516.262      9.888      0.838      0.844      1.307      1.613      1.692      2.008     43.088     30.996
   1263.375    526.633     30.316   -999.250    507.255      9.550      0.726      0.726      1.279      1.561      1.668      1.991     43.091     30.794
   1263.500    524.701     30.158   -999.250    499.535      9.227      0.664      0.727      1.276      1.525      1.692      2.022     42.923     30.319
   1263.625    522.709     30.595   -999.250    487.312      9.079      0.716      0.692      1.302      1.643      1.719      2.021     42.925     29.940
   1263.750    517.617     31.069   -999.250    480.879      8.677      0.754      0.763      1.331      1.755      1.768      2.050     42.924     30.076
   1263.875    511.822     31.117   -999.250    474.446      8.738      0.631      0.778      1.352      1.839      1.795      2.101     42.759     30.105
