~Version Information Block
 VERS.                2.00:     CWLS LOG ASCII STANDARD - VERSION 2.000000
 WRAP.                  NO:     One Line Per Depth Step
#
~Well Information Block
#MNEM.UNIT                     Data                         Information
#----------   ------------------------------------------   ----------------
 STRT.M                                        100.750:
 STOP.M                                       1515.000:
 STEP.M                                          0.125:
 NULL.                                        -999.250:
 COMP.                                   ²â¾®Êý¾Ý¿âµ¼³ö:     COMPANY 
 WELL.                                           ¹ÂÄÏ152:     Well 
 FLD .                                                :     Field 
 LOC .                                                :     LOCATION
 CNTY.                                                :     COUNTY
 STAT.                                                :     STATE
 CTRY.                                                :     COUNTRY
 SRVC.                                                :     SERVICE COMPANY
 DATE.                                                :     DATE
 API .                                                :     API NUMBER
#
~Curve Information Block
#MNEM.UNIT       API CODE      Curve Description
#----------    -------------   -------------------
 DEPT.M                    :   Depth in Meters
 AC  .Î¢Ãë/Ã×                      :   AC
 CAL .ÀåÃ×                      :   CAL
 CAL .ÀåÃ×                      :   CAL
 COND.mS/m                      :   COND
 RLML.Å·Ä·Ã×                      :   RLML
 RNML.Å·Ä·Ã×                      :   RNML
 R04 .Å·Ä·Ã×                      :   R04
 R25 .Å·Ä·Ã×                      :   R25
 R4  .Å·Ä·Ã×                      :   R4
 SP  .ºÁ·ü                      :   SP
 SP  .ºÁ·ü                      :   SP
#
~A  DEPTH          AC        CAL        CAL       COND       RLML       RNML        R04        R25         R4         SP         SP
# ...
   1305.500    455.691   -999.250     32.572    360.191      0.933      1.006      2.192      3.063      3.256    116.587    129.789
   1305.625    446.100   -999.250     33.110    357.006      0.952      1.031      2.196      3.067      3.283    116.587    129.640
   1305.750    439.066   -999.250     33.654    353.185      0.972      1.061      2.221      3.088      3.307    116.587    129.789
   1305.875    432.673   -999.250     34.126    349.363      1.004      1.090      2.248      3.118      3.338    116.587    129.798
   1306.000    426.918   -999.250     34.610    344.904      1.032      1.120      2.288      3.190      3.401    116.587    129.789
   1306.125    423.082   -999.250     35.141    341.720      1.063      1.149      2.301      3.221      3.441    116.587    129.798
   1306.250    419.246   -999.250     35.560    337.898      1.104      1.178      2.321      3.318      3.480    116.587    129.790
   1306.375    419.885   -999.250     35.816    332.803      1.122      1.208      2.341      3.348      3.506    116.587    129.797
   1306.500    420.524   -999.250     35.676    328.981      1.133      1.236      2.344      3.370      3.511    116.587    129.790
   1306.625    418.606   -999.250     35.514    325.796      1.098      1.237      2.374      3.399      3.493    116.584    129.796
   1306.750    414.770   -999.250     35.582    327.707      1.038      1.202      2.393      3.472      3.441    116.570    129.791
   1306.875    412.212   -999.250     35.722    330.892      0.982      1.146      2.411      3.501      3.391    116.747    129.795
   1307.000    410.294   -999.250     35.954    332.803      0.922      1.043      2.425      3.524      3.405    116.751    130.109
   1307.125    416.688   -999.250     36.193    333.439      0.885      0.931      2.423      3.551      3.463    116.875    130.112
   1307.250    427.558   -999.250     36.446    331.529      0.867      0.919      2.423      3.601      3.536    116.910    129.792
   1307.375    441.624   -999.250     36.661    328.981      0.876      0.969      2.426      3.627      3.619    116.908    129.795
   1307.500    456.330   -999.250     36.824    327.707      0.893      1.020      2.398      3.628      3.695    116.907    129.792
   1307.625    470.396   -999.250     36.877    330.255      0.900      1.068      2.393      3.601      3.744    116.907    129.795
   1307.750    485.742   -999.250     36.281    334.713      0.933      1.039      2.375      3.526      3.737    116.907    129.791
   1307.875    491.496   -999.250     35.154    339.809      0.959      1.021      2.346      3.472      3.650    116.908    129.795
   1308.000    492.136   -999.250     33.836    344.904      0.977      1.049      2.322      3.347      3.511    116.905    129.792
   1308.125    490.857   -999.250     32.234    349.363      0.983      1.106      2.260      3.242      3.375    116.890    129.795
   1308.250    490.857   -999.250     31.150    353.185      0.993      1.141      2.225      3.143      3.186    117.069    129.633
   1308.375    492.136   -999.250     30.516    358.280      0.979      1.184      2.219      3.114      3.050    117.075    129.477
   1308.500    495.332   -999.250     30.140    360.828      1.002      1.231      2.171      2.989      2.911    117.164    130.109
   1308.625    498.529   -999.250     30.191    363.376      1.046      1.222      2.166      2.883      2.788    117.080    130.112
   1308.750    501.726   -999.250     30.334    364.013      1.075      1.210      2.138      2.829      2.721    117.085    129.633
   1308.875    503.005   -999.250     30.638    364.013      1.098      1.196      2.112      2.756      2.656    116.906    129.636
   1309.000    503.325   -999.250     30.921    365.287      1.100      1.159      2.115      2.707      2.642    116.910    129.634
   1309.125    499.808   -999.250     31.309    368.471      1.045      1.091      2.087      2.731      2.635    116.907    129.636
   1309.250    494.054   -999.250     31.559    371.656      1.005      1.043      2.090      2.784      2.642    116.907    129.633
   1309.375    487.660   -999.250     31.787    375.478      1.055      1.112      2.092      2.830      2.643    116.907    129.636
   1309.500    480.627   -999.250     31.932    374.841      1.110      1.173      2.064      2.886      2.644    116.907    129.474
   1309.625    472.954   -999.250     32.100    371.019      1.154      1.198      2.064      2.936      2.637    116.914    129.320
   1309.750    466.560   -999.250     32.197    366.561      1.183      1.185      2.069      2.962      2.642    117.036    129.314
   1309.875    459.527   -999.250     32.250    363.376      1.175      1.137      2.088      3.013      2.646    117.071    129.480
   1310.000    455.051   -999.250     32.140    359.554      1.129      1.158      2.087      3.038      2.676    117.069    129.550
   1310.125    451.535   -999.250     31.657    358.280      1.120      1.248      2.085      3.039      2.721    117.067    129.482
   1310.250    450.895   -999.250     31.202    356.369      1.158      1.326      2.116      3.063      2.750    117.067    129.468
   1310.375    456.650   -999.250     31.444    355.732      1.176      1.279      2.128      3.090      2.790    117.066    129.484
   1310.500    461.445   -999.250     31.851    356.369      1.147      1.183      2.143      3.088      2.822    117.067    129.467
   1310.625    455.051   -999.250     32.485    357.643      1.106      1.137      2.169      3.091      2.851    117.081    129.327
   1310.750    448.018   -999.250     33.143    359.236      1.083      1.179      2.167      3.088      2.905    116.963    129.465
   1310.875    441.944   -999.250     33.878    361.465      1.085      1.225      2.167      3.065      2.948    117.048    129.328
   1311.000    439.706   -999.250     34.586    363.694      1.071      1.226      2.167      3.087      3.016    116.911    129.465
   1311.125    454.731   -999.250     35.434    365.605      1.070      1.183      2.167      3.091      3.047    116.904    129.486
   1311.250    470.077   -999.250     36.281    367.197      1.064      1.129      2.167      3.087      3.076    116.825    129.465
   1311.375    481.266   -999.250     37.100    368.790      1.042      1.094      2.167      3.040      3.080    116.738    129.485
   1311.500    491.496   -999.250     36.142    369.745      1.016      1.069      2.159      3.010      3.051    116.765    129.467
   1311.625    492.775   -999.250     34.726    370.382      1.001      1.070      2.168      2.963      3.052    116.586    129.325
   1311.750    487.020   -999.250     33.268    369.745      0.994      1.070      2.137      2.959      3.051    116.589    129.468
   1311.875    484.143   -999.250     33.114    368.790      1.008      1.063      2.146      2.912      3.051    116.620    129.482
   1312.000    482.545   -999.250     33.733    367.197      1.018      1.047      2.166      2.883      3.052    116.690    129.471
   1312.125    483.824   -999.250     34.134    365.287      1.008      1.030      2.167      2.810      3.045    116.675    129.479
   1312.250    488.299   -999.250     34.113    362.739      1.017      1.021      2.166      2.755      3.008    116.585    129.473
   1312.375    493.414   -999.250     31.194    360.191      1.030      1.030      2.159      2.733      2.952    116.577    129.477
   1312.500    500.448   -999.250     31.485    358.280      1.034      1.082      2.140      2.704      2.926    116.535    129.475
   1312.625    508.440   -999.250     31.707    357.006      1.020      1.133      2.135      2.707      2.902    116.388    129.474
   1312.750    514.834   -999.250     31.975    360.191      1.016      1.184      2.115      2.705      2.868    116.551    129.477
   1312.875    514.514   -999.250     32.108    365.287      0.998      1.226      2.097      2.706      2.852    116.595    129.472
   1313.000    507.801   -999.250     32.019    371.656      1.004      1.206      2.017      2.705      2.834    116.591    129.478
