~Version Information Block
 VERS.                2.00:     CWLS LOG ASCII STANDARD - VERSION 2.000000
 WRAP.                  NO:     One Line Per Depth Step
#
~Well Information Block
#MNEM.UNIT                     Data                         Information
#----------   ------------------------------------------   ----------------
 STRT.M                                        100.500:
 STOP.M                                       2142.000:
 STEP.M                                          0.125:
 NULL.                                        -999.250:
 COMP.                                   ²â¾®Êý¾Ý¿âµ¼³ö:     COMPANY 
 WELL.                                         ¹ÂÄÏ152-5:     Well 
 FLD .                                                :     Field 
 LOC .                                                :     LOCATION
 CNTY.                                                :     COUNTY
 STAT.                                                :     STATE
 CTRY.                                                :     COUNTRY
 SRVC.                                                :     SERVICE COMPANY
 DATE.                                                :     DATE
 API .                                                :     API NUMBER
#
~Curve Information Block
#MNEM.UNIT       API CODE      Curve Description
#----------    -------------   -------------------
 DEPT.M                    :   Depth in Meters
 AC  .Î¢Ãë/Ã×                      :   AC
 CAL .ÀåÃ×                      :   CAL
 CAL .ÀåÃ×                      :   CAL
 COND.mS/m                      :   COND
 GR  .Î¢Â×ÇÙ                      :   GR
 RLML.Å·Ä·Ã×                      :   RLML
 RNML.Å·Ä·Ã×                      :   RNML
 R04 .Å·Ä·Ã×                      :   R04
 R25 .Å·Ä·Ã×                      :   R25
 R25 .Å·Ä·Ã×                      :   R25
 R4  .Å·Ä·Ã×                      :   R4
 SP  .ºÁ·ü                      :   SP
 SP  .mv                      :   SP
#
~A  DEPTH          AC        CAL        CAL       COND         GR       RLML       RNML        R04        R25        R25         R4         SP         SP
# ...
    932.500    500.359     27.959   -999.250    318.763      8.303      0.817      1.010      2.312      3.210      3.321      3.206     42.596     30.332
    932.625    500.874     28.118   -999.250    319.407      8.100      0.579      1.231      2.344      3.231      3.294      3.221     42.593     30.334
    932.750    501.518     28.190   -999.250    318.763      7.937      1.061      1.064      2.333      3.238      3.295      3.233     42.594     30.335
    932.875    502.162     27.848   -999.250    318.763      8.049      0.827      0.881      2.346      3.252      3.269      3.248     42.595     30.322
    933.000    502.806     28.363   -999.250    319.407      8.183      0.521      0.886      2.367      3.228      3.244      3.225     42.593     30.447
    933.125    503.450     29.108   -999.250    320.050      8.197      1.000      1.018      2.380      3.234      3.244      3.234     42.596     30.334
    933.250    503.450     29.397   -999.250    321.337      8.163      1.084      0.951      2.365      3.229      3.219      3.229     42.592     30.486
    933.375    503.450     29.665   -999.250    322.623      8.127      0.875      1.231      2.363      3.208      3.193      3.210     42.432     30.526
    933.500    504.738     29.721   -999.250    323.910      8.030      0.607      1.019      2.363      3.208      3.194      3.203     42.427     30.646
    933.625    506.026     29.442   -999.250    325.197      7.995      0.555      0.848      2.335      3.179      3.194      3.183     42.433     30.659
    933.750    506.670     29.387   -999.250    325.840      7.941      0.855      1.035      2.308      3.182      3.194      3.182     42.426     30.786
    933.875    507.314     29.377   -999.250    326.483      7.816      1.089      1.192      2.312      3.182      3.219      3.182     42.434     30.840
    934.000    507.958     29.325   -999.250    326.483      7.654      0.662      0.640      2.401      3.178      3.244      3.177     42.426     30.735
    934.125    507.958     29.467   -999.250    325.840      7.507      1.069      1.001      2.408      3.131      3.296      3.132     42.600     30.585
    934.250    509.366     29.648   -999.250    325.840      7.493      0.493      0.945      2.421      3.161      3.371      3.100     42.590     30.960
    934.375    509.246     29.654   -999.250    325.840      7.683      0.871      0.843      2.432      3.157      3.423      3.049     42.601     30.956
    934.500    511.620     29.510   -999.250    325.840      7.782      0.412      0.809      2.442      3.161      3.447      2.984     42.755     31.002
    934.625    511.178     29.370   -999.250    325.840      7.831      0.979      1.130      2.440      3.182      3.448      2.947     42.766     31.131
    934.750    512.466     29.112   -999.250    326.483      7.929      0.876      0.894      2.443      3.203      3.447      2.963     42.920     31.162
    934.875    510.534     28.885   -999.250    327.127      7.996      0.604      0.824      2.464      3.208      3.423      2.994     42.931     31.202
    935.000    501.518     28.797   -999.250    327.770      7.905      1.105      1.009      2.475      3.205      3.396      2.994     43.169     31.281
    935.125    491.858     28.793   -999.250    328.413      7.725      0.558      0.889      2.491      3.234      3.371      3.025     43.261     31.266
    935.250    483.487     28.943   -999.250    329.056      7.917      0.975      1.014      2.505      3.233      3.371      3.058     43.417     31.364
    935.375    473.183     28.945   -999.250    329.700      7.630      0.592      1.019      2.550      3.234      3.396      3.065     43.591     31.481
    935.500    470.607     28.934   -999.250    329.700      7.554      0.755      1.138      2.596      3.234      3.448      3.096     43.748     31.617
    935.625    464.811     28.923   -999.250    329.700      7.558      0.980      1.052      2.643      3.232      3.472      3.128     43.920     31.753
    935.750    459.016     29.344   -999.250    329.700      7.570      0.564      0.905      2.669      3.231      3.551      3.160     44.079     31.792
    935.875    454.508     29.629   -999.250    330.343      7.496      0.852      1.024      2.761      3.301      3.593      3.193     44.249     31.770
    936.000    449.356     29.893   -999.250    331.951      7.274      0.603      0.973      2.836      3.328      3.674      3.230     44.409     31.893
    936.125    439.351     29.662   -999.250    336.133      7.272      0.581      0.966      2.843      3.413      3.747      3.266     44.744     31.789
    936.250    431.969     29.367   -999.250    344.496      7.424      0.650      1.132      2.879      3.485      3.829      3.340     44.904     32.270
    936.375    418.445     29.093   -999.250    350.286      7.557      0.979      1.335      2.860      3.601      3.903      3.458     45.074     32.716
    936.500    411.523     28.764   -999.250    354.789      7.646      1.933      1.990      2.848      3.668      3.604      3.575     45.398     33.235
    936.625    403.207     28.320   -999.250    358.649      7.753      1.570      1.392      2.782      3.834      3.369      3.698     45.569     33.821
    936.750    399.770     27.876   -999.250    361.222      7.357      1.379      2.249      2.697      3.859      3.172      3.697     45.727     34.134
    936.875    406.854     27.232   -999.250    361.222      7.316      1.849      1.729      2.574      3.851      3.090      3.596     46.065     34.429
    937.000    412.649     26.463   -999.250    359.292      7.298      0.601      0.939      2.464      3.657      3.044      3.479     46.386     34.837
    937.125    415.225     26.332   -999.250    355.432      6.993      1.262      0.651      2.381      3.444      3.064      3.357     46.560     34.966
    937.250    413.937     26.546   -999.250    348.356      6.940      1.942      1.705      2.338      3.231      3.170      3.181     46.880     35.373
    937.375    408.786     26.582   -999.250    339.350      7.192      1.829      1.578      2.394      3.018      3.294      2.953     47.055     35.572
    937.500    405.566     26.243   -999.250    334.203      7.462      2.066      1.718      2.532      2.804      3.397      2.762     47.374     35.739
    937.625    403.962     25.827   -999.250    329.700      7.735      1.791      1.842      2.780      2.738      3.488      2.873     47.551     36.041
    937.750    401.690     26.032   -999.250    328.413      7.972      0.714      0.694      2.897      2.853      3.577      2.959     47.539     36.193
    937.875    401.058     26.350   -999.250    327.770      8.107      1.463      1.421      3.026      2.968      3.667      3.062     47.551     36.214
    938.000    412.266     26.632   -999.250    327.770      8.139      0.910      0.952      3.108      3.084      3.755      3.170     47.539     36.389
    938.125    426.260     26.509   -999.250    329.056      8.178      1.438      1.192      3.083      3.199      3.846      3.247     47.386     36.387
    938.250    441.306     26.263   -999.250    332.916      8.153      2.031      1.904      3.065      3.315      3.934      3.361     47.210     36.356
    938.375    454.830     26.337   -999.250    338.063      8.101      1.403      1.608      3.024      3.430      4.025      3.445     47.055     36.091
    938.500    466.421     26.644   -999.250    343.209      8.156      1.741      1.949      2.956      3.540      4.107      3.549     46.882     35.556
    938.625    467.387     26.958   -999.250    345.139      8.270      0.687      0.861      2.861      3.631      3.909      3.640     46.560     35.129
    938.750    462.236     27.281   -999.250    347.069      8.335      1.160      1.301      2.763      3.696      3.718      3.688     46.388     34.742
    938.875    468.031     27.399   -999.250    348.999      8.325      0.442      0.513      2.674      3.781      3.524      3.675     45.900     34.480
