~Version Information Block
 VERS.                2.00:     CWLS LOG ASCII STANDARD - VERSION 2.000000
 WRAP.                  NO:     One Line Per Depth Step
#
~Well Information Block
#MNEM.UNIT                     Data                         Information
#----------   ------------------------------------------   ----------------
 STRT.M                                        183.125:
 STOP.M                                       2134.000:
 STEP.M                                          0.125:
 NULL.                                        -999.250:
 COMP.                                   ²â¾®Êý¾Ý¿âµ¼³ö:     COMPANY 
 WELL.                                        ¹ÂÄÏ152-05:     Well 
 FLD .                                                :     Field 
 LOC .                                                :     LOCATION
 CNTY.                                                :     COUNTY
 STAT.                                                :     STATE
 CTRY.                                                :     COUNTRY
 SRVC.                                                :     SERVICE COMPANY
 DATE.                                                :     DATE
 API .                                                :     API NUMBER
#
~Curve Information Block
#MNEM.UNIT       API CODE      Curve Description
#----------    -------------   -------------------
 DEPT.M                    :   Depth in Meters
 AC  .Î¢Ãë/Ã×                      :   AC
 CAL .ÀåÃ×                      :   CAL
 CAL .ÀåÃ×                      :   CAL
 COND.ºÁÄ·Å·/Ã×                      :   COND
 GR  .Î¢Â×ÇÙ/Ð¡Ê±                      :   GR
 GR  .Î¢Â×ÇÙ/Ð¡Ê±                      :   GR
 RLML.Å·Ä·Ã×                      :   RLML
 RLML.Å·Ä·Ã×                      :   RLML
 RNML.Å·Ä·Ã×                      :   RNML
 RNML.Å·Ä·Ã×                      :   RNML
 R04 .Å·Ä·Ã×                      :   R04
 R25 .Å·Ä·Ã×                      :   R25
 R4  .Å·Ä·Ã×                      :   R4
 SP  .ºÁ·ü                      :   SP
 SP  .ºÁ·ü                      :   SP
#
~A  DEPTH          AC        CAL        CAL       COND         GR         GR       RLML       RLML       RNML       RNML        R04        R25         R4         SP         SP
# ...
   2040.375    324.603   -999.250     20.994    481.840      7.366   -999.250      0.448   -999.250   -999.250      0.807      1.840      1.763      1.651    120.611    121.102
   2040.500    322.698   -999.250     20.821    486.320      6.999   -999.250      0.538   -999.250   -999.250      0.789      1.795      1.649      1.606    120.866    121.256
   2040.625    318.254   -999.250     20.740    489.200      6.772   -999.250      0.524   -999.250   -999.250      0.799      1.712      1.536      1.548    119.935    121.309
   2040.750    314.445   -999.250     20.742    490.160      7.782   -999.250      0.644   -999.250   -999.250      0.872      1.663      1.424      1.432    119.090    121.246
   2040.875    310.635   -999.250     20.825    487.600      8.608   -999.250      0.601   -999.250   -999.250      0.917      1.685      1.317      1.364    118.350    120.880
   2041.000    307.460   -999.250     20.980    478.960      8.459   -999.250      0.536   -999.250   -999.250      0.822      1.684      1.320      1.325    118.328    120.594
   2041.125    301.792   -999.250     21.162    467.440      8.022   -999.250      0.360   -999.250   -999.250      0.755      1.696      1.316      1.312    118.348    120.595
   2041.250    297.330   -999.250     21.413    455.920      7.872   -999.250      0.647   -999.250   -999.250      0.838      1.762      1.320      1.358    118.740    120.589
   2041.375    296.045   -999.250     21.790    444.080      7.649   -999.250      1.006   -999.250   -999.250      1.000      1.838      1.603      1.453    119.158    120.809
   2041.500    296.674   -999.250     22.024    429.360      8.138   -999.250      0.744   -999.250   -999.250      1.163      1.913      1.897      1.605    119.544    121.040
   2041.625    294.762   -999.250     22.255    416.880      7.715   -999.250      0.982   -999.250   -999.250      1.276      1.984      2.179      1.796    119.958    121.346
   2041.750    288.413   -999.250     22.432    406.000      7.921   -999.250      0.712   -999.250   -999.250      0.943      2.067      2.474      1.993    120.389    121.860
   2041.875    282.698   -999.250     22.527    398.000      7.971   -999.250      0.481   -999.250   -999.250      0.971      2.045      2.794      2.225    121.031    122.236
   2042.000    293.977   -999.250     22.571    392.880      8.303   -999.250      0.751   -999.250   -999.250      0.841      2.044      2.826      2.467    121.341    122.549
   2042.125    301.746   -999.250     22.584    390.320      8.207   -999.250      0.396   -999.250   -999.250      0.695      2.095      2.782      2.687    121.397    122.998
   2042.250    310.635   -999.250     22.527    392.880      8.304   -999.250      0.872   -999.250   -999.250      0.550      2.191      2.674      2.690    121.661    123.259
   2042.375    321.429   -999.250     22.265    397.360      8.210   -999.250      0.320   -999.250   -999.250      0.431      2.284      2.556      2.553    121.979    123.464
   2042.500    329.683   -999.250     21.985    403.760      7.831   -999.250      0.292   -999.250   -999.250      0.546      2.354      2.447      2.405    122.057    123.669
   2042.625    329.683   -999.250     21.633    413.360      7.400   -999.250      0.251   -999.250   -999.250      0.689      2.386      2.330      2.231    122.135    123.788
   2042.750    327.778   -999.250     21.350    423.600      7.170   -999.250      0.310   -999.250   -999.250      0.631      2.399      2.220      2.070    122.135    123.792
   2042.875    327.143   -999.250     21.252    438.320      7.296   -999.250      0.443   -999.250   -999.250      0.565      2.378      2.104      1.939    121.817    123.669
   2043.000    328.117   -999.250     21.322    453.040      6.756   -999.250      0.537   -999.250   -999.250      0.654      2.315      1.994      1.854    121.343    123.552
   2043.125    330.408   -999.250     21.314    465.200      7.096   -999.250      0.392   -999.250   -999.250      0.782      2.285      1.879      1.816    120.866    123.333
   2043.250    330.413   -999.250     21.316    481.840      6.511   -999.250      0.565   -999.250   -999.250      0.817      2.248      1.767      1.776    120.234    122.872
   2043.375    328.455   -999.250     21.364    500.594      5.587   -999.250      0.858   -999.250   -999.250      0.823      2.169      1.654      1.723    119.599    122.270
   2043.500    323.934   -999.250     21.378    519.402      5.738   -999.250      0.530   -999.250   -999.250      0.949      2.076      1.547      1.621    119.125    121.554
   2043.625    318.799   -999.250     21.378    547.242      5.968   -999.250      0.330   -999.250   -999.250      1.125      1.999      1.476      1.511    118.490    121.030
   2043.750    317.515   -999.250     21.379    566.143      6.106   -999.250      0.505   -999.250   -999.250      0.812      1.932      1.409      1.407    117.858    120.283
   2043.875    320.073   -999.250     21.409    581.240      5.780   -999.250      0.463   -999.250   -999.250      0.736      1.878      1.341      1.311    117.540    119.818
   2044.000    322.019   -999.250     21.369    591.600      5.436   -999.250      0.449   -999.250   -999.250      0.760      1.813      1.273      1.223    117.066    119.310
   2044.125    321.426   -999.250     21.439    601.963      6.185   -999.250      0.530   -999.250   -999.250      0.782      1.786      1.206      1.162    116.589    118.969
   2044.250    318.868   -999.250     21.439    612.335      6.050   -999.250      0.564   -999.250   -999.250      0.803      1.741      1.138      1.070    116.274    118.638
   2044.375    314.979   -999.250     21.440    615.600      5.801   -999.250      0.565   -999.250   -999.250      0.798      1.686      1.062      1.009    115.797    118.227
   2044.500    310.635   -999.250     21.441    609.393      5.574   -999.250      0.529   -999.250   -999.250      0.785      1.654      1.061      0.977    115.482    118.025
   2044.625    308.730   -999.250     21.442    604.490      5.922   -999.250      0.484   -999.250   -999.250      0.776      1.635      1.062      0.956    115.321    117.862
   2044.750    310.635   -999.250     21.439    599.586      6.317   -999.250      0.518   -999.250   -999.250      0.797      1.605      1.061      0.953    115.165    117.697
   2044.875    312.540   -999.250     21.504    594.679      6.710   -999.250      0.539   -999.250   -999.250      0.818      1.610      1.204      0.967    115.200    117.530
   2045.000    316.409   -999.250     21.569    589.770      6.981   -999.250      0.527   -999.250   -999.250      0.840      1.582      1.380      0.979    115.250    117.547
   2045.125    320.250   -999.250     21.565    586.778      6.579   -999.250      0.514   -999.250   -999.250      0.862      1.582      1.559      1.015    115.294    117.549
   2045.250    323.419   -999.250     21.561    586.766      6.131   -999.250      0.524   -999.250   -999.250      0.882      1.583      1.698      1.081    115.345    117.548
   2045.375    322.111   -999.250     21.631    589.404      5.682   -999.250      0.702   -999.250   -999.250      0.883      1.603      1.629      1.104    115.389    117.551
   2045.500    317.586   -999.250     21.628    592.824      5.187   -999.250      0.634   -999.250   -999.250      0.882      1.608      1.568      1.109    115.440    117.553
   2045.625    313.691   -999.250     21.630    596.673      5.493   -999.250      0.787   -999.250   -999.250      0.882      1.608      1.510      1.103    115.475    117.740
   2045.750    311.141   -999.250     21.560    601.348      5.198   -999.250      0.785   -999.250   -999.250      0.912      1.608      1.450      1.064    115.319    117.719
   2045.875    309.298   -999.250     21.496    606.024      5.330   -999.250      0.693   -999.250   -999.250      0.921      1.607      1.392      1.051    115.181    117.585
   2046.000    309.365   -999.250     21.434    610.691      5.611   -999.250      0.713   -999.250   -999.250      0.931      1.605      1.332      1.063    115.049    117.547
