~Version Information Block
 VERS.                2.00:     CWLS LOG ASCII STANDARD - VERSION 2.000000
 WRAP.                  NO:     One Line Per Depth Step
#
~Well Information Block
#MNEM.UNIT                     Data                         Information
#----------   ------------------------------------------   ----------------
 STRT.M                                        100.500:
 STOP.M                                       2142.000:
 STEP.M                                          0.125:
 NULL.                                        -999.250:
 COMP.                                   ²â¾®Êý¾Ý¿âµ¼³ö:     COMPANY 
 WELL.                                         ¹ÂÄÏ152-5:     Well 
 FLD .                                                :     Field 
 LOC .                                                :     LOCATION
 CNTY.                                                :     COUNTY
 STAT.                                                :     STATE
 CTRY.                                                :     COUNTRY
 SRVC.                                                :     SERVICE COMPANY
 DATE.                                                :     DATE
 API .                                                :     API NUMBER
#
~Curve Information Block
#MNEM.UNIT       API CODE      Curve Description
#----------    -------------   -------------------
 DEPT.M                    :   Depth in Meters
 AC  .Î¢Ãë/Ã×                      :   AC
 CAL .ÀåÃ×                      :   CAL
 CAL .ÀåÃ×                      :   CAL
 COND.mS/m                      :   COND
 GR  .Î¢Â×ÇÙ                      :   GR
 RLML.Å·Ä·Ã×                      :   RLML
 RNML.Å·Ä·Ã×                      :   RNML
 R04 .Å·Ä·Ã×                      :   R04
 R25 .Å·Ä·Ã×                      :   R25
 R25 .Å·Ä·Ã×                      :   R25
 R4  .Å·Ä·Ã×                      :   R4
 SP  .ºÁ·ü                      :   SP
 SP  .mv                      :   SP
#
~A  DEPTH          AC        CAL        CAL       COND         GR       RLML       RNML        R04        R25        R25         R4         SP         SP
# ...
   1797.000    401.702     24.600   -999.250    689.635      6.910      1.694      1.565      1.346      1.387      1.472      1.355     41.277     30.625
   1797.125    407.498     25.304   -999.250    698.320      7.151      1.621      1.453      1.312      1.331      1.378      1.291     40.786     29.851
   1797.250    410.436     25.420   -999.250    706.362      7.073      1.554      2.004      1.244      1.297      1.286      1.243     40.455     29.393
   1797.375    407.498     25.276   -999.250    712.152      7.137      3.958      2.817      1.179      1.269      1.337      1.246     40.287     29.022
   1797.500    402.346     24.961   -999.250    715.368      7.341      1.483      1.950      1.147      1.275      1.388      1.217     40.375     28.875
   1797.625    396.550     24.409   -999.250    717.298      7.573      1.567      1.434      1.146      1.292      1.437      1.250     40.448     28.730
   1797.750    397.068     24.010   -999.250    715.690      7.820      1.130      1.063      1.144      1.367      1.327      1.314     40.459     28.510
   1797.875    401.156     24.125   -999.250    714.403      8.062      0.731      0.941      1.153      1.433      1.208      1.373     40.610     28.424
   1798.000    401.702     24.564   -999.250    713.760      7.878      1.436      1.448      1.225      1.491      1.279      1.444     40.624     28.438
   1798.125    386.891     25.198   -999.250    711.187      7.643      1.354      1.381      1.301      1.520      1.349      1.482     40.606     28.537
   1798.250    364.995     25.391   -999.250    708.613      7.780      1.354      1.336      1.357      1.555      1.423      1.500     40.624     28.694
   1798.375    351.794     25.888   -999.250    701.537      7.931      1.347      1.277      1.442      1.584      1.513      1.501     40.768     28.869
   1798.500    337.948     26.592   -999.250    693.817      7.856      1.523      1.346      1.496      1.582      1.541      1.507     40.789     28.841
   1798.625    345.998     26.591   -999.250    688.670      7.685      1.419      1.560      1.591      1.580      1.538      1.527     40.931     29.062
   1798.750    358.234     26.798   -999.250    685.454      7.403      1.618      1.697      1.642      1.580      1.515      1.528     40.788     29.043
   1798.875    371.757     27.003   -999.250    680.951      7.641      1.946      1.510      1.655      1.575      1.513      1.528     40.930     29.214
   1799.000    378.197     26.013   -999.250    677.734      7.117      1.464      1.436      1.666      1.550      1.464      1.528     40.951     29.175
   1799.125    385.925     25.079   -999.250    673.874      7.209      1.646      1.526      1.665      1.494      1.436      1.556     40.929     29.343
   1799.250    386.247     24.960   -999.250    672.588      7.003      2.015      1.797      1.708      1.429      1.387      1.553     40.950     29.460
   1799.375    377.875     25.147   -999.250    672.588      6.900      1.304      1.376      1.719      1.352      1.360      1.533     40.929     29.568
   1799.500    374.719     25.446   -999.250    672.990      7.130      1.855      1.778      1.717      1.286      1.337      1.527     40.783     29.666
   1799.625    368.859     26.007   -999.250    673.231      7.371      1.577      1.631      1.698      1.270      1.284      1.528     40.600     29.716
   1799.750    372.240     25.518   -999.250    674.156      7.562      1.446      1.489      1.658      1.241      1.260      1.530     40.452     29.851
   1799.875    376.587     24.226   -999.250    675.161      7.405      1.370      1.431      1.635      1.215      1.234      1.502     40.436     30.027
   1800.000    383.679     23.997   -999.250    678.377      7.243      2.024      1.846      1.634      1.217      1.235      1.502     40.121     30.017
   1800.125    388.822     23.958   -999.250    682.237      7.028      1.651      1.512      1.539      1.217      1.234      1.502     39.942     30.011
   1800.250    395.906     24.085   -999.250    686.419      6.651      1.392      1.394      1.507      1.218      1.209      1.474     39.790     30.036
   1800.375    393.330     24.249   -999.250    691.565      6.867      1.518      1.258      1.488      1.190      1.183      1.442     39.613     30.063
   1800.500    393.330     24.262   -999.250    696.069      7.117      1.128      1.730      1.460      1.194      1.159      1.408     39.460     30.039
   1800.625    392.686     24.300   -999.250    699.285      7.099      1.913      1.512      1.433      1.165      1.158      1.368     39.283     30.028
   1800.750    387.534     24.546   -999.250    703.145      6.931      1.347      1.345      1.387      1.146      1.159      1.310     39.295     29.846
   1800.875    378.519     25.116   -999.250    708.292      6.761      1.451      1.460      1.377      1.144      1.157      1.281     39.119     29.733
   1801.000    379.163     25.348   -999.250    714.081      6.564      1.766      1.569      1.357      1.163      1.133      1.247     38.800     29.528
   1801.125    384.315     25.209   -999.250    717.941      6.416      1.536      1.452      1.359      1.183      1.132      1.204     38.626     29.380
   1801.250    393.330     24.926   -999.250    721.480      6.577      1.560      1.458      1.332      1.157      1.158      1.159     38.469     29.181
   1801.375    396.329     25.357   -999.250    724.053      6.729      1.541      1.498      1.303      1.130      1.183      1.131     38.462     28.949
   1801.500    397.194     25.777   -999.250    727.269      6.924      1.660      1.471      1.289      1.141      1.209      1.141     37.974     28.872
   1801.625    392.686     26.510   -999.250    730.164      6.765      1.848      1.593      1.303      1.134      1.242      1.133     37.803     28.711
   1801.750    388.178     26.754   -999.250    732.738      6.557      1.531      1.465      1.304      1.159      1.257      1.161     37.642     28.434
   1801.875    389.466     26.244   -999.250    734.668      6.615      1.548      1.502      1.306      1.193      1.271      1.200     37.310     28.291
   1802.000    393.330     25.681   -999.250    736.276      6.776      1.534      1.507      1.326      1.189      1.285      1.237     37.311     28.089
   1802.125    396.550     25.557   -999.250    736.919      7.249      1.605      1.391      1.352      1.180      1.310      1.216     37.146     27.991
   1802.250    388.774     25.823   -999.250    736.919      7.289      1.292      1.366      1.357      1.172      1.285      1.199     37.145     27.795
   1802.375    377.875     25.861   -999.250    735.633      7.209      1.528      1.501      1.356      1.139      1.234      1.141     37.066     27.707
   1802.500    366.927     25.722   -999.250    736.276      7.159      1.723      1.616      1.362      1.093      1.183      1.092     36.979     27.642
   1802.625    367.974     25.335   -999.250    736.276      7.140      2.108      1.764      1.384      1.090      1.158      1.090     37.312     27.451
   1802.750    373.367     24.977   -999.250    736.276      7.094      1.803      1.640      1.387      1.081      1.133      1.081     37.474     27.481
   1802.875    381.739     24.792   -999.250    735.633      7.053      1.553      1.566      1.380      1.083      1.081      1.083     37.477     27.311
   1803.000    389.466     24.721   -999.250    736.276      7.270      1.966      1.669      1.325      1.068      1.056      1.068     37.804     27.316
   1803.125    392.686     24.626   -999.250    736.276      7.634      1.275      1.315      1.297      1.071      1.056      1.071     37.971     27.279
   1803.250    393.974     24.518   -999.250    736.919      7.500      1.365      1.385      1.275      1.085      1.082      1.085     38.135     27.149
   1803.375    393.974     24.330   -999.250    735.633      7.313      1.328      1.341      1.229      1.114      1.106      1.114     38.464     27.019
