~Version Information Block
 VERS.                2.00:     CWLS LOG ASCII STANDARD - VERSION 2.000000
 WRAP.                  NO:     One Line Per Depth Step
#
~Well Information Block
#MNEM.UNIT                     Data                         Information
#----------   ------------------------------------------   ----------------
 STRT.M                                        100.750:
 STOP.M                                       1515.000:
 STEP.M                                          0.125:
 NULL.                                        -999.250:
 COMP.                                   ²â¾®Êý¾Ý¿âµ¼³ö:     COMPANY 
 WELL.                                           ¹ÂÄÏ152:     Well 
 FLD .                                                :     Field 
 LOC .                                                :     LOCATION
 CNTY.                                                :     COUNTY
 STAT.                                                :     STATE
 CTRY.                                                :     COUNTRY
 SRVC.                                                :     SERVICE COMPANY
 DATE.                                                :     DATE
 API .                                                :     API NUMBER
#
~Curve Information Block
#MNEM.UNIT       API CODE      Curve Description
#----------    -------------   -------------------
 DEPT.M                    :   Depth in Meters
 AC  .Î¢Ãë/Ã×                      :   AC
 CAL .ÀåÃ×                      :   CAL
 CAL .ÀåÃ×                      :   CAL
 COND.mS/m                      :   COND
 RLML.Å·Ä·Ã×                      :   RLML
 RNML.Å·Ä·Ã×                      :   RNML
 R04 .Å·Ä·Ã×                      :   R04
 R25 .Å·Ä·Ã×                      :   R25
 R4  .Å·Ä·Ã×                      :   R4
 SP  .ºÁ·ü                      :   SP
 SP  .ºÁ·ü                      :   SP
#
~A  DEPTH          AC        CAL        CAL       COND       RLML       RNML        R04        R25         R4         SP         SP
# ...
   1168.250    532.417   -999.250     33.212    335.987      1.021      1.090      2.166      3.089      3.210    116.289    128.523
   1168.375    534.335   -999.250     32.356    335.987      1.064      1.134      2.161      3.065      3.200    116.419    128.682
   1168.500    534.974   -999.250     31.291    335.987      1.111      1.179      2.142      3.064      3.175    116.430    128.682
   1168.625    533.056   -999.250     30.231    336.624      1.160      1.223      2.149      3.065      3.149    116.553    128.523
   1168.750    530.499   -999.250     30.224    336.624      1.186      1.269      2.142      3.064      3.129    116.445    128.522
   1168.875    527.941   -999.250     30.432    336.624      1.192      1.237      2.143      3.065      3.126    116.578    128.523
   1169.000    523.465   -999.250     30.848    334.713      1.081      1.158      2.147      3.064      3.107    116.587    128.522
   1169.125    518.990   -999.250     31.175    332.803      0.957      0.952      2.167      3.090      3.104    116.595    128.523
   1169.250    512.596   -999.250     31.782    328.981      1.027      1.058      2.179      3.115      3.077    116.716    128.680
   1169.375    506.202   -999.250     32.682    325.796      1.141      1.245      2.194      3.116      3.077    116.749    128.682
   1169.500    501.726   -999.250     33.676    323.248      1.217      1.328      2.197      3.141      3.106    116.731    128.680
   1169.625    492.136   -999.250     34.659    319.427      1.274      1.436      2.217      3.167      3.128    116.897    128.682
   1169.750    483.184   -999.250     35.385    314.968      1.270      1.315      2.248      3.167      3.149    116.805    128.680
   1169.875    473.593   -999.250     35.458    310.510      1.197      1.099      2.264      3.192      3.177    116.894    128.682
   1170.000    466.880   -999.250     35.522    306.051      1.080      0.964      2.296      3.218      3.207    116.983    128.680
   1170.125    454.412   -999.250     35.803    300.955      0.994      0.916      2.314      3.217      3.179    116.921    128.682
   1170.250    461.549   -999.250     35.994    297.134      0.981      0.918      2.328      3.244      3.179    117.059    128.680
   1170.375    476.387   -999.250     36.411    293.312      0.982      0.941      2.348      3.243      3.206    117.069    128.841
   1170.500    490.217   -999.250     36.816    294.586      0.987      0.957      2.347      3.270      3.208    117.068    128.838
   1170.625    506.202   -999.250     37.016    299.682      1.005      0.954      2.345      3.293      3.253    117.068    128.842
   1170.750    524.105   -999.250     36.808    305.414      1.003      0.975      2.326      3.296      3.280    117.067    128.838
   1170.875    541.368   -999.250     36.445    310.510      1.004      0.996      2.314      3.318      3.312    117.061    128.842
   1171.000    545.844   -999.250     35.860    318.153      0.972      1.017      2.276      3.322      3.330    116.942    128.837
   1171.125    545.844   -999.250     35.063    322.611      0.998      1.059      2.223      3.343      3.332    116.875    128.684
   1171.250    544.565   -999.250     34.528    327.070      1.059      1.116      2.183      3.323      3.303    116.754    128.837
   1171.375    541.368   -999.250     34.011    327.707      1.135      1.173      2.114      3.343      3.307    116.689    128.843
   1171.500    536.893   -999.250     33.470    325.159      1.175      1.231      2.062      3.323      3.278    116.626    128.837
   1171.625    531.138   -999.250     32.785    321.975      1.221      1.289      2.061      3.343      3.285    116.403    128.843
   1171.750    526.662   -999.250     32.230    320.064      1.234      1.277      2.090      3.323      3.263    116.421    128.837
   1171.875    521.547   -999.250     32.326    318.153      1.172      1.207      2.087      3.318      3.255    116.429    128.842
   1172.000    518.031   -999.250     32.734    316.242      1.068      1.138      2.103      3.297      3.226    116.443    128.838
   1172.125    515.153   -999.250     33.126    314.968      0.985      1.069      2.105      3.318      3.201    116.265    128.841
   1172.250    516.432   -999.250     33.640    313.694      0.891      1.014      2.134      3.297      3.176    116.269    128.839
   1172.375    523.465   -999.250     34.033    313.057      0.876      0.995      2.142      3.267      3.177    116.266    128.841
   1172.500    528.581   -999.250     34.461    313.694      0.900      1.024      2.155      3.271      3.159    116.266    128.840
   1172.625    533.696   -999.250     34.716    316.879      0.934      1.030      2.173      3.268      3.153    116.266    128.840
   1172.750    537.532   -999.250     34.730    320.064      0.967      1.039      2.164      3.245      3.148    116.266    128.841
   1172.875    539.450   -999.250     34.487    323.885      0.979      1.047      2.164      3.243      3.132    116.264    128.839
   1173.000    540.090   -999.250     34.184    327.070      0.980      1.056      2.134      3.219      3.126    116.262    128.842
   1173.125    540.729   -999.250     33.828    328.981      0.990      1.043      2.125      3.192      3.130    116.307    128.838
   1173.250    541.368   -999.250     33.543    328.981      0.957      1.018      2.139      3.193      3.149    116.325    128.843
   1173.375    541.368   -999.250     33.360    328.344      0.925      0.994      2.133      3.192      3.140    116.434    128.837
   1173.500    541.368   -999.250     33.318    327.070      0.890      0.966      2.143      3.193      3.136    116.386    128.844
   1173.625    540.090   -999.250     33.368    325.159      0.891      0.956      2.162      3.193      3.154    116.385    128.836
   1173.750    538.811   -999.250     32.838    323.885      0.904      0.955      2.169      3.219      3.177    116.425    128.845
   1173.875    537.532   -999.250     31.912    322.611      0.950      0.979      2.179      3.218      3.174    116.435    128.835
   1174.000    531.777   -999.250     31.016    321.975      0.992      1.011      2.223      3.219      3.188    116.548    128.687
   1174.125    528.581   -999.250     29.934    319.427      1.018      1.076      2.245      3.218      3.200    116.461    128.835
   1174.250    520.908   -999.250     29.024    316.879      1.066      1.139      2.289      3.220      3.203    116.424    128.846
   1174.375    509.399   -999.250     29.263    312.420      1.113      1.203      2.322      3.218      3.215    116.426    128.835
   1174.500    500.448   -999.250     29.912    309.873      1.145      1.266      2.366      3.220      3.241    116.433    128.845
   1174.625    485.102   -999.250     30.701    306.051      1.174      1.329      2.416      3.269      3.288    116.519    128.835
   1174.750    470.396   -999.250     31.568    302.229      1.195      1.350      2.503      3.297      3.353    116.526    128.845
   1174.875    452.494   -999.250     32.333    295.860      1.221      1.303      2.584      3.346      3.397    116.562    128.995
   1175.000    432.033   -999.250     33.191    287.261      1.232      1.268      2.678      3.374      3.462    116.591    129.002
   1175.125    413.491   -999.250     33.897    280.573      1.195      1.192      2.791      3.449      3.551    116.588    128.917
   1175.250    400.064   -999.250     34.520    270.382      1.126      1.139      2.881      3.528      3.633    116.587    128.842
   1175.375    391.113   -999.250     34.103    261.465      1.079      1.163      2.974      3.628      3.742    116.579    128.918
   1175.500    383.440   -999.250     33.641    250.000      1.033      1.184      3.112      3.758      3.837    116.457    129.000
   1175.625    380.882   -999.250     33.478    239.809      1.053      1.186      3.246      3.884      3.967    116.425    128.999
   1175.750    383.440   -999.250     33.659    231.529      1.100      1.169      3.376      3.988      4.089    116.433    128.999
