~Version Information Block
 VERS.                2.00:     CWLS LOG ASCII STANDARD - VERSION 2.000000
 WRAP.                  NO:     One Line Per Depth Step
#
~Well Information Block
#MNEM.UNIT                     Data                         Information
#----------   ------------------------------------------   ----------------
 STRT.M                                        183.125:
 STOP.M                                       2134.000:
 STEP.M                                          0.125:
 NULL.                                        -999.250:
 COMP.                                   ²â¾®Êý¾Ý¿âµ¼³ö:     COMPANY 
 WELL.                                        ¹ÂÄÏ152-05:     Well 
 FLD .                                                :     Field 
 LOC .                                                :     LOCATION
 CNTY.                                                :     COUNTY
 STAT.                                                :     STATE
 CTRY.                                                :     COUNTRY
 SRVC.                                                :     SERVICE COMPANY
 DATE.                                                :     DATE
 API .                                                :     API NUMBER
#
~Curve Information Block
#MNEM.UNIT       API CODE      Curve Description
#----------    -------------   -------------------
 DEPT.M                    :   Depth in Meters
 AC  .Î¢Ãë/Ã×                      :   AC
 CAL .ÀåÃ×                      :   CAL
 CAL .ÀåÃ×                      :   CAL
 COND.ºÁÄ·Å·/Ã×                      :   COND
 GR  .Î¢Â×ÇÙ/Ð¡Ê±                      :   GR
 GR  .Î¢Â×ÇÙ/Ð¡Ê±                      :   GR
 RLML.Å·Ä·Ã×                      :   RLML
 RLML.Å·Ä·Ã×                      :   RLML
 RNML.Å·Ä·Ã×                      :   RNML
 RNML.Å·Ä·Ã×                      :   RNML
 R04 .Å·Ä·Ã×                      :   R04
 R25 .Å·Ä·Ã×                      :   R25
 R4  .Å·Ä·Ã×                      :   R4
 SP  .ºÁ·ü                      :   SP
 SP  .ºÁ·ü                      :   SP
#
~A  DEPTH          AC        CAL        CAL       COND         GR         GR       RLML       RLML       RNML       RNML        R04        R25         R4         SP         SP
# ...
   1591.875    492.041   -999.250     29.340    574.260      8.879   -999.250      0.541   -999.250   -999.250      0.592      1.116      2.018      2.128    118.336    121.003
   1592.000    499.742   -999.250     28.276    580.423      8.480   -999.250      0.555   -999.250   -999.250      0.733      1.039      1.799      1.979    118.650    121.311
   1592.125    499.796   -999.250     27.538    583.891      8.085   -999.250      0.594   -999.250   -999.250      0.738      0.994      1.580      1.659    119.129    121.700
   1592.250    494.766   -999.250     27.076    586.160      8.652   -999.250      0.604   -999.250   -999.250      0.669      0.969      1.317      1.372    119.758    122.014
   1592.375    490.328   -999.250     27.118    588.059      8.337   -999.250      0.721   -999.250   -999.250      0.616      0.964      1.193      1.134    120.239    122.386
   1592.500    483.941   -999.250     27.521    584.171      8.703   -999.250      0.647   -999.250   -999.250      0.665      0.964      1.038      0.958    120.629    122.713
   1592.625    476.960   -999.250     27.688    572.549      8.431   -999.250      0.710   -999.250   -999.250      0.711      0.971      0.881      0.861    121.031    123.000
   1592.750    468.131   -999.250     27.138    559.399      8.710   -999.250      0.775   -999.250   -999.250      0.693      1.009      0.727      0.799    121.659    123.287
   1592.875    455.427   -999.250     26.252    546.244      8.931   -999.250      0.198   -999.250   -999.250      0.393      1.013      0.653      0.773    121.982    123.300
   1593.000    442.698   -999.250     25.412    533.055      8.317   -999.250      0.527   -999.250   -999.250      0.588      1.048      0.654      0.774    122.135    123.480
   1593.125    426.191   -999.250     24.401    520.880      8.956   -999.250      0.863   -999.250   -999.250      0.994      1.091      0.653      0.781    122.457    123.481
   1593.250    406.508   -999.250     23.722    499.120      8.399   -999.250      0.522   -999.250   -999.250      0.656      1.120      0.742      0.823    122.611    123.596
   1593.375    387.460   -999.250     23.445    479.920      7.908   -999.250      0.806   -999.250   -999.250      0.848      1.172      0.820      0.850    122.774    123.544
   1593.500    370.366   -999.250     23.875    465.200      8.371   -999.250      1.081   -999.250   -999.250      1.163      1.225      0.899      0.884    122.930    123.629
   1593.625    353.867   -999.250     24.694    452.400      8.001   -999.250      0.644   -999.250   -999.250      0.885      1.309      1.031      0.928    122.774    123.638
   1593.750    357.045   -999.250     25.430    443.440      7.538   -999.250      1.684   -999.250   -999.250      1.260      1.380      1.212      0.956    122.773    123.631
   1593.875    363.359   -999.250     25.627    436.400      7.726   -999.250      0.377   -999.250   -999.250      1.735      1.469      1.390      0.981    122.775    123.496
   1594.000    365.238   -999.250     25.427    431.280      8.052   -999.250      0.499   -999.250   -999.250      0.494      1.524      1.571      0.986    122.615    123.348
   1594.125    360.623   -999.250     25.032    426.160      8.412   -999.250      0.856   -999.250   -999.250      0.866      1.560      1.750      1.005    122.459    122.962
   1594.250    353.956   -999.250     24.492    426.160      8.852   -999.250      0.465   -999.250   -999.250      0.986      1.627      1.930      1.035    122.300    122.961
   1594.375    347.460   -999.250     23.978    435.760      8.902   -999.250      0.719   -999.250   -999.250      0.681      1.642      2.132      1.050    122.301    122.863
   1594.500    355.352   -999.250     23.457    444.720      8.168   -999.250      1.142   -999.250   -999.250      1.221      1.632      2.084      1.083    122.142    122.694
   1594.625    368.175   -999.250     22.909    452.400      8.424   -999.250      0.952   -999.250   -999.250      1.052      1.663      1.948      1.082    121.985    122.534
   1594.750    380.998   -999.250     22.793    464.560      8.793   -999.250      0.645   -999.250   -999.250      0.753      1.663      1.812      1.083    121.985    122.358
   1594.875    401.429   -999.250     23.319    476.080      8.729   -999.250      0.795   -999.250   -999.250      0.768      1.628      1.676      1.086    121.827    122.359
   1595.000    415.397   -999.250     23.880    485.680      9.122   -999.250      0.246   -999.250   -999.250      0.879      1.605      1.541      1.057    121.827    122.359
   1595.125    432.540   -999.250     24.274    492.080      8.684   -999.250      0.253   -999.250   -999.250      0.347      1.556      1.405      1.037    121.827    122.355
   1595.250    451.587   -999.250     24.359    505.520      8.712   -999.250      0.426   -999.250   -999.250      0.500      1.504      1.438      1.058    121.668    122.531
   1595.375    473.810   -999.250     24.295    517.040      8.293   -999.250      0.668   -999.250   -999.250      0.844      1.453      1.538      1.107    121.669    122.515
   1595.500    494.127   -999.250     24.747    532.035      8.874   -999.250      1.537   -999.250   -999.250      1.315      1.377      1.622      1.239    121.827    122.546
   1595.625    514.153   -999.250     25.700    545.856      8.647   -999.250      0.273   -999.250   -999.250      0.974      1.326      1.623      1.352    121.985    122.667
   1595.750    534.762   -999.250     26.703    559.678      8.526   -999.250      0.344   -999.250   -999.250      0.344      1.269      1.560      1.420    122.144    122.698
   1595.875    534.762   -999.250     27.775    573.499      9.031   -999.250      0.489   -999.250   -999.250      0.452      1.193      1.506      1.463    122.302    122.685
   1596.000    527.939   -999.250     28.497    588.720      9.605   -999.250      0.651   -999.250   -999.250      0.607      1.153      1.449      1.445    122.461    122.835
   1596.125    522.698   -999.250     27.054    595.175      9.428   -999.250      0.414   -999.250   -999.250      0.726      1.114      1.396      1.395    122.618    122.830
   1596.250    516.032   -999.250     25.262    602.356      9.301   -999.250      0.406   -999.250   -999.250      0.464      1.090      1.342      1.308    122.778    122.821
   1596.375    509.365   -999.250     23.665    605.360      9.073   -999.250      0.678   -999.250   -999.250      0.591      1.071      1.267      1.235    122.935    123.000
   1596.500    504.921   -999.250     24.019    601.552      9.422   -999.250      0.419   -999.250   -999.250      0.716      1.039      1.239      1.179    123.095    122.986
   1596.625    501.111   -999.250     24.758    597.128     10.125   -999.250      0.476   -999.250   -999.250      0.616      1.067      1.216      1.115    123.252    123.051
   1596.750    497.619   -999.250     25.107    586.995      9.842   -999.250      0.432   -999.250   -999.250      0.744      1.064      1.188      1.065    123.253    123.117
   1596.875    492.540   -999.250     23.844    575.738      9.548   -999.250      0.483   -999.250   -999.250      0.739      1.062      1.190      1.034    123.252    123.031
   1597.000    487.460   -999.250     22.161    564.480      9.411   -999.250      0.617   -999.250   -999.250      0.550      1.093      1.187      1.007    123.252    123.075
   1597.125    483.016   -999.250     21.942    556.563      9.078   -999.250      0.428   -999.250   -999.250      0.609      1.093      1.199      1.002    123.201    123.153
   1597.250    480.159   -999.250     22.456    550.920      9.214   -999.250      0.552   -999.250   -999.250      0.654      1.093      1.238      0.982    123.092    123.151
   1597.375    480.159   -999.250     22.976    545.277      9.547   -999.250      0.653   -999.250   -999.250      0.669      1.122      1.267      1.009    123.095    123.036
   1597.500    483.651   -999.250     23.609    540.080     10.110   -999.250      0.247   -999.250   -999.250      0.804      1.091      1.314      1.036    123.091    123.123
