~Version Information Block
 VERS.                2.00:     CWLS LOG ASCII STANDARD - VERSION 2.000000
 WRAP.                  NO:     One Line Per Depth Step
#
~Well Information Block
#MNEM.UNIT                     Data                         Information
#----------   ------------------------------------------   ----------------
 STRT.M                                        100.750:
 STOP.M                                       1515.000:
 STEP.M                                          0.125:
 NULL.                                        -999.250:
 COMP.                                   ²â¾®Êý¾Ý¿âµ¼³ö:     COMPANY 
 WELL.                                           ¹ÂÄÏ152:     Well 
 FLD .                                                :     Field 
 LOC .                                                :     LOCATION
 CNTY.                                                :     COUNTY
 STAT.                                                :     STATE
 CTRY.                                                :     COUNTRY
 SRVC.                                                :     SERVICE COMPANY
 DATE.                                                :     DATE
 API .                                                :     API NUMBER
#
~Curve Information Block
#MNEM.UNIT       API CODE      Curve Description
#----------    -------------   -------------------
 DEPT.M                    :   Depth in Meters
 AC  .Î¢Ãë/Ã×                      :   AC
 CAL .ÀåÃ×                      :   CAL
 CAL .ÀåÃ×                      :   CAL
 COND.mS/m                      :   COND
 RLML.Å·Ä·Ã×                      :   RLML
 RNML.Å·Ä·Ã×                      :   RNML
 R04 .Å·Ä·Ã×                      :   R04
 R25 .Å·Ä·Ã×                      :   R25
 R4  .Å·Ä·Ã×                      :   R4
 SP  .ºÁ·ü                      :   SP
 SP  .ºÁ·ü                      :   SP
#
~A  DEPTH          AC        CAL        CAL       COND       RLML       RNML        R04        R25         R4         SP         SP
# ...
   1099.625    578.109   -999.250     44.509    287.580      0.768      0.865      2.293      3.705      3.330    115.474    128.837
   1099.750    601.471   -999.250     45.205    281.847      0.884      0.982      2.332      3.735      3.376    115.649    128.997
   1099.875    581.010   -999.250     44.105    276.752      0.936      0.905      2.379      3.821      3.437    115.739    128.995
   1100.000    568.862   -999.250     42.947    270.701      0.831      0.815      2.421      3.912      3.533    115.957    129.157
   1100.125    554.156   -999.250     41.553    265.924      0.772      0.846      2.451      3.997      3.641    116.077    129.312
   1100.250    544.565   -999.250     39.696    263.376      0.818      0.893      2.524      4.079      3.734    116.104    129.158
   1100.375    545.844   -999.250     38.552    265.287      0.874      0.941      2.584      4.191      3.812    116.189    129.154
   1100.500    540.090   -999.250     37.534    265.287      0.952      1.045      2.607      4.258      3.893    116.212    129.000
   1100.625    528.581   -999.250     36.208    265.287      1.017      1.148      2.652      4.345      3.993    115.916    128.996
   1100.750    516.432   -999.250     35.023    264.013      1.075      1.252      2.706      4.425      4.050    115.761    128.999
   1100.875    509.399   -999.250     33.993    260.828      1.134      1.357      2.758      4.537      4.166    115.471    128.680
   1101.000    501.087   -999.250     33.368    257.006      1.206      1.438      2.820      4.603      4.281    115.143    128.364
   1101.125    488.619   -999.250     33.530    253.185      1.265      1.510      2.880      4.690      4.394    114.809    128.047
   1101.250    471.675   -999.250     33.740    250.000      1.316      1.573      2.936      4.756      4.505    114.410    127.729
   1101.375    455.691   -999.250     33.844    246.178      1.362      1.582      2.986      4.806      4.565    114.130    127.255
   1101.500    441.304   -999.250     33.914    242.994      1.383      1.553      3.018      4.820      4.644    113.812    126.777
   1101.625    428.836   -999.250     33.806    238.535      1.405      1.533      3.071      4.768      4.719    113.593    126.622
   1101.750    415.409   -999.250     33.706    237.898      1.381      1.572      3.109      4.704      4.775    113.303    126.459
   1101.875    404.859   -999.250     33.529    241.083      1.445      1.659      3.151      4.614      4.814    113.241    126.464
   1102.000    393.990   -999.250     33.402    245.860      1.491      1.744      3.183      4.538      4.818    113.235    126.777
   1102.125    384.079   -999.250     33.210    250.000      1.517      1.734      3.189      4.448      4.810    113.210    126.940
   1102.250    377.366   -999.250     33.192    253.185      1.439      1.585      3.208      4.372      4.778    113.375    127.094
   1102.375    372.251   -999.250     33.345    255.096      1.311      1.439      3.192      4.320      4.744    113.620    127.416
   1102.500    373.849   -999.250     33.394    256.369      1.243      1.377      3.169      4.283      4.691    113.711    127.887
   1102.625    379.923   -999.250     33.542    257.643      1.288      1.462      3.128      4.256      4.640    114.026    128.051
   1102.750    385.997   -999.250     33.638    257.643      1.350      1.553      3.103      4.245      4.563    114.376    128.364
   1102.875    391.752   -999.250     33.762    257.006      1.411      1.647      3.069      4.244      4.502    114.611    128.685
   1103.000    399.744   -999.250     33.779    255.732      1.457      1.691      3.063      4.245      4.425    114.966    128.840
   1103.125    405.499   -999.250     33.637    253.822      1.475      1.688      3.035      4.243      4.353    115.290    129.160
   1103.250    408.376   -999.250     33.350    252.548      1.465      1.677      3.040      4.258      4.286    115.501    129.316
   1103.375    408.376   -999.250     33.271    251.274      1.438      1.645      3.061      4.307      4.207    115.936    129.476
   1103.500    407.417   -999.250     33.336    250.000      1.401      1.624      3.031      4.335      4.146    116.308    129.792
   1103.625    406.138   -999.250     33.461    249.363      1.374      1.574      3.039      4.358      4.067    116.456    129.951
   1103.750    404.859   -999.250     33.636    248.089      1.342      1.518      3.048      4.361      4.014    116.718    130.109
   1103.875    403.900   -999.250     33.758    247.452      1.307      1.442      3.059      4.396      3.978    116.877    130.269
   1104.000    403.261   -999.250     33.921    247.134      1.275      1.356      3.095      4.437      3.944    117.005    130.268
   1104.125    401.982   -999.250     34.077    247.452      1.224      1.291      3.107      4.499      3.914    117.168    130.427
   1104.250    401.982   -999.250     34.128    246.815      1.160      1.213      3.083      4.527      3.946    117.272    130.586
   1104.375    401.982   -999.250     34.189    247.452      1.066      1.096      3.099      4.563      3.961    117.248    130.745
   1104.500    401.982   -999.250     34.020    247.452      0.966      0.990      3.103      4.616      3.964    117.494    130.904
   1104.625    402.621   -999.250     33.628    248.089      0.881      0.993      3.110      4.652      3.999    117.539    130.903
   1104.750    403.261   -999.250     33.000    248.726      0.974      1.016      3.114      4.667      4.078    117.568    131.064
   1104.875    403.261   -999.250     32.648    249.363      1.038      1.054      3.145      4.691      4.146    117.559    131.220
   1105.000    404.540   -999.250     32.783    249.363      1.082      1.108      3.134      4.680      4.210    117.550    131.384
   1105.125    405.818   -999.250     32.870    249.363      1.111      1.162      3.142      4.678      4.239    117.693    131.377
   1105.250    407.737   -999.250     32.627    248.726      1.118      1.219      3.143      4.655      4.303    117.558    131.386
   1105.375    409.655   -999.250     32.169    247.452      1.128      1.296      3.116      4.627      4.327    117.548    131.534
   1105.500    410.294   -999.250     31.702    246.178      1.122      1.362      3.111      4.604      4.356    117.548    131.547
   1105.625    409.655   -999.250     31.631    242.994      1.135      1.403      3.136      4.576      4.381    117.541    131.532
   1105.750    409.015   -999.250     32.109    242.994      1.132      1.426      3.143      4.578      4.379    117.418    131.549
   1105.875    409.015   -999.250     32.554    241.083      1.138      1.449      3.164      4.550      4.351    117.387    131.532
   1106.000    407.737   -999.250     32.944    240.127      1.184      1.467      3.190      4.553      4.352    117.403    131.390
   1106.125    407.737   -999.250     33.405    239.172      1.189      1.490      3.196      4.575      4.299    117.227    131.532
   1106.250    407.097   -999.250     33.862    238.535      1.212      1.507      3.193      4.579      4.295    117.223    131.390
   1106.375    407.097   -999.250     34.180    238.535      1.233      1.508      3.192      4.652      4.299    117.358    131.534
   1106.500    406.458   -999.250     34.386    238.535      1.267      1.493      3.192      4.656      4.343    117.361    131.388
   1106.625    406.458   -999.250     34.591    239.809      1.289      1.493      3.197      4.677      4.324    117.398    131.378
   1106.750    405.818   -999.250     34.717    240.446      1.311      1.507      3.217      4.708      4.354    117.379    131.385
   1106.875    406.458   -999.250     34.819    240.446      1.302      1.507      3.218      4.729      4.352    117.374    131.381
   1107.000    406.458   -999.250     34.844    241.083      1.313      1.505      3.246      4.733      4.382    117.373    131.383
   1107.125    407.097   -999.250     34.794    241.083      1.323      1.506      3.244      4.728      4.413    117.556    131.384
