~Version Information Block
 VERS.                2.00:     CWLS LOG ASCII STANDARD - VERSION 2.000000
 WRAP.                  NO:     One Line Per Depth Step
#
~Well Information Block
#MNEM.UNIT                     Data                         Information
#----------   ------------------------------------------   ----------------
 STRT.M                                        183.125:
 STOP.M                                       2134.000:
 STEP.M                                          0.125:
 NULL.                                        -999.250:
 COMP.                                   ²â¾®Êý¾Ý¿âµ¼³ö:     COMPANY 
 WELL.                                        ¹ÂÄÏ152-05:     Well 
 FLD .                                                :     Field 
 LOC .                                                :     LOCATION
 CNTY.                                                :     COUNTY
 STAT.                                                :     STATE
 CTRY.                                                :     COUNTRY
 SRVC.                                                :     SERVICE COMPANY
 DATE.                                                :     DATE
 API .                                                :     API NUMBER
#
~Curve Information Block
#MNEM.UNIT       API CODE      Curve Description
#----------    -------------   -------------------
 DEPT.M                    :   Depth in Meters
 AC  .Î¢Ãë/Ã×                      :   AC
 CAL .ÀåÃ×                      :   CAL
 CAL .ÀåÃ×                      :   CAL
 COND.ºÁÄ·Å·/Ã×                      :   COND
 GR  .Î¢Â×ÇÙ/Ð¡Ê±                      :   GR
 GR  .Î¢Â×ÇÙ/Ð¡Ê±                      :   GR
 RLML.Å·Ä·Ã×                      :   RLML
 RLML.Å·Ä·Ã×                      :   RLML
 RNML.Å·Ä·Ã×                      :   RNML
 RNML.Å·Ä·Ã×                      :   RNML
 R04 .Å·Ä·Ã×                      :   R04
 R25 .Å·Ä·Ã×                      :   R25
 R4  .Å·Ä·Ã×                      :   R4
 SP  .ºÁ·ü                      :   SP
 SP  .ºÁ·ü                      :   SP
#
~A  DEPTH          AC        CAL        CAL       COND         GR         GR       RLML       RLML       RNML       RNML        R04        R25         R4         SP         SP
# ...
   1074.375    542.381   -999.250     24.740    355.747      9.596   -999.250      0.869   -999.250   -999.250      0.881      1.350      2.489      2.429    117.543    117.677
   1074.500    537.302   -999.250     24.805    354.450      8.362   -999.250      0.895   -999.250   -999.250      0.933      1.345      2.289      2.336    117.537    117.555
   1074.625    532.222   -999.250     24.917    354.480      8.709   -999.250      0.951   -999.250   -999.250      0.994      1.331      2.263      2.303    117.703    117.546
   1074.750    528.056   -999.250     25.194    354.480      8.920   -999.250      0.843   -999.250   -999.250      0.900      1.349      2.264      2.305    117.695    117.551
   1074.875    527.143   -999.250     25.551    353.840      9.330   -999.250      0.411   -999.250   -999.250      0.541      1.352      2.263      2.311    117.545    117.575
   1075.000    529.683   -999.250     26.050    353.200      9.659   -999.250      0.785   -999.250   -999.250      0.462      1.323      2.298      2.349    117.694    117.484
   1075.125    534.127   -999.250     26.466    352.553      8.558   -999.250      0.639   -999.250   -999.250      0.827      1.353      2.342      2.410    117.545    117.399
   1075.250    539.354   -999.250     26.722    351.897      9.261   -999.250      0.430   -999.250   -999.250      0.895      1.351      2.387      2.453    117.535    117.390
   1075.375    539.911   -999.250     27.020    349.962      8.932   -999.250      0.518   -999.250   -999.250      0.614      1.350      2.431      2.454    117.545    117.208
   1075.500    536.367   -999.250     27.265    346.745      8.613   -999.250      0.807   -999.250   -999.250      0.434      1.347      2.477      2.435    117.535    117.226
   1075.625    536.462   -999.250     27.405    341.680      8.819   -999.250      0.666   -999.250   -999.250      0.732      1.382      2.518      2.408    117.544    117.053
   1075.750    538.571   -999.250     27.578    336.560      8.488   -999.250      0.385   -999.250   -999.250      0.875      1.420      2.544      2.381    117.536    117.069
   1075.875    536.667   -999.250     27.692    330.800      7.929   -999.250      0.834   -999.250   -999.250      0.628      1.474      2.517      2.363    117.544    117.037
   1076.000    532.857   -999.250     27.585    326.320      8.195   -999.250      0.529   -999.250   -999.250      0.799      1.504      2.426      2.356    117.537    116.915
   1076.125    527.778   -999.250     27.452    321.200      8.638   -999.250      0.956   -999.250   -999.250      1.027      1.536      2.305      2.383    117.542    116.907
   1076.250    520.159   -999.250     27.269    315.440      8.962   -999.250      0.705   -999.250   -999.250      0.762      1.560      2.186      2.385    117.696    116.907
   1076.375    511.270   -999.250     26.880    309.040      8.425   -999.250      1.001   -999.250   -999.250      0.971      1.609      2.185      2.456    117.700    116.907
   1076.500    503.469   -999.250     26.399    303.920      8.842   -999.250      0.973   -999.250   -999.250      1.176      1.634      2.262      2.564    117.697    116.907
   1076.625    497.058   -999.250     26.073    300.080      7.955   -999.250      0.626   -999.250   -999.250      0.984      1.664      2.340      2.668    117.700    116.907
   1076.750    490.318   -999.250     26.289    295.600      9.037   -999.250      0.765   -999.250   -999.250      0.904      1.709      2.418      2.763    117.538    116.907
   1076.875    492.857   -999.250     26.821    291.760      8.476   -999.250      1.199   -999.250   -999.250      1.086      1.734      2.492      2.839    117.542    116.907
   1077.000    490.000   -999.250     27.165    289.520      8.813   -999.250      1.042   -999.250   -999.250      1.273      1.759      2.543      2.900    117.538    116.907
   1077.125    482.460   -999.250     27.022    287.280      9.167   -999.250      0.857   -999.250   -999.250      0.969      1.785      2.594      2.947    117.542    116.906
   1077.250    472.540   -999.250     26.635    284.720      8.237   -999.250      0.611   -999.250   -999.250      0.865      1.841      2.619      2.959    117.537    116.909
   1077.375    479.511   -999.250     26.859    283.440      9.011   -999.250      0.910   -999.250   -999.250      0.871      1.867      2.645      2.945    117.542    116.923
   1077.500    492.857   -999.250     27.533    281.520      7.965   -999.250      0.684   -999.250   -999.250      1.181      1.863      2.658      2.900    117.537    116.746
   1077.625    482.411   -999.250     28.210    280.240      8.735   -999.250      1.101   -999.250   -999.250      0.865      1.891      2.671      2.841    117.542    116.750
   1077.750    471.905   -999.250     28.903    278.960      8.330   -999.250      0.640   -999.250   -999.250      1.041      1.919      2.670      2.809    117.696    116.747
   1077.875    464.929   -999.250     29.168    278.960      9.162   -999.250      0.930   -999.250   -999.250      0.842      1.915      2.646      2.766    117.542    116.747
   1078.000    459.048   -999.250     28.691    278.320      8.723   -999.250      1.147   -999.250   -999.250      1.285      1.936      2.644      2.740    117.538    116.747
   1078.125    456.905   -999.250     28.273    277.680      7.977   -999.250      0.773   -999.250   -999.250      0.795      1.918      2.588      2.710    117.542    116.746
   1078.250    460.000   -999.250     28.261    277.680      8.141   -999.250      0.842   -999.250   -999.250      0.833      1.912      2.537      2.713    117.697    116.747
   1078.375    463.016   -999.250     28.478    277.680      7.757   -999.250      0.681   -999.250   -999.250      0.680      1.917      2.489      2.716    117.699    116.754
   1078.500    461.605   -999.250     29.096    278.320      7.361   -999.250      0.442   -999.250   -999.250      0.994      1.937      2.438      2.687    117.540    116.869
   1078.625    460.538   -999.250     29.552    277.680      7.699   -999.250      0.590   -999.250   -999.250      0.509      1.942      2.391      2.689    117.698    116.780
   1078.750    465.587   -999.250     29.387    277.360      7.755   -999.250      1.018   -999.250   -999.250      1.122      1.943      2.389      2.662    117.699    116.742
   1078.875    472.506   -999.250     28.775    277.040      7.977   -999.250      0.783   -999.250   -999.250      0.831      1.917      2.391      2.637    117.698    116.775
   1079.000    474.089   -999.250     28.636    277.040      7.839   -999.250      0.693   -999.250   -999.250      0.649      1.891      2.419      2.612    117.699    116.897
   1079.125    474.454   -999.250     29.441    277.040      8.327   -999.250      0.842   -999.250   -999.250      0.626      1.887      2.484      2.588    117.697    116.939
   1079.250    470.709   -999.250     30.094    277.360      8.612   -999.250      0.705   -999.250   -999.250      0.975      1.869      2.547      2.564    117.700    117.060
   1079.375    463.443   -999.250     30.418    278.640      8.005   -999.250      1.189   -999.250   -999.250      1.229      1.833      2.620      2.538    117.697    117.068
   1079.500    456.155   -999.250     30.450    281.200      8.573   -999.250      0.639   -999.250   -999.250      0.657      1.795      2.696      2.510    117.699    117.070
   1079.625    454.762   -999.250     30.287    283.760      8.717   -999.250      0.815   -999.250   -999.250      0.812      1.789      2.722      2.482    117.697    117.064
   1079.750    465.609   -999.250     30.021    286.000      7.591   -999.250      0.771   -999.250   -999.250      0.743      1.762      2.696      2.470    117.699    117.244
   1079.875    480.794   -999.250     29.943    287.280      7.755   -999.250      1.018   -999.250   -999.250      1.107      1.734      2.650      2.438    117.698    117.055
   1080.000    482.231   -999.250     30.066    287.920      8.089   -999.250      0.967   -999.250   -999.250      0.624      1.736      2.593      2.432    117.699    117.080
