~Version Information Block
 VERS.                2.00:     CWLS LOG ASCII STANDARD - VERSION 2.000000
 WRAP.                  NO:     One Line Per Depth Step
#
~Well Information Block
#MNEM.UNIT                     Data                         Information
#----------   ------------------------------------------   ----------------
 STRT.M                                        100.500:
 STOP.M                                       2142.000:
 STEP.M                                          0.125:
 NULL.                                        -999.250:
 COMP.                                   ²â¾®Êý¾Ý¿âµ¼³ö:     COMPANY 
 WELL.                                         ¹ÂÄÏ152-5:     Well 
 FLD .                                                :     Field 
 LOC .                                                :     LOCATION
 CNTY.                                                :     COUNTY
 STAT.                                                :     STATE
 CTRY.                                                :     COUNTRY
 SRVC.                                                :     SERVICE COMPANY
 DATE.                                                :     DATE
 API .                                                :     API NUMBER
#
~Curve Information Block
#MNEM.UNIT       API CODE      Curve Description
#----------    -------------   -------------------
 DEPT.M                    :   Depth in Meters
 AC  .Î¢Ãë/Ã×                      :   AC
 CAL .ÀåÃ×                      :   CAL
 CAL .ÀåÃ×                      :   CAL
 COND.mS/m                      :   COND
 GR  .Î¢Â×ÇÙ                      :   GR
 RLML.Å·Ä·Ã×                      :   RLML
 RNML.Å·Ä·Ã×                      :   RNML
 R04 .Å·Ä·Ã×                      :   R04
 R25 .Å·Ä·Ã×                      :   R25
 R25 .Å·Ä·Ã×                      :   R25
 R4  .Å·Ä·Ã×                      :   R4
 SP  .ºÁ·ü                      :   SP
 SP  .mv                      :   SP
#
~A  DEPTH          AC        CAL        CAL       COND         GR       RLML       RNML        R04        R25        R25         R4         SP         SP
# ...
   1472.000    460.304     33.449   -999.250    488.599      9.314      0.802      0.811      1.609      1.835      1.870      1.828     43.751     32.199
   1472.125    468.434     33.812   -999.250    484.739      9.543      1.005      0.928      1.554      1.843      1.921      1.888     43.915     32.107
   1472.250    473.312     34.701   -999.250    480.236      9.570      0.329      0.619      1.609      1.915      1.972      1.948     43.917     32.109
   1472.375    477.176     35.671   -999.250    476.376      9.565      0.570      0.675      1.672      2.049      2.055      2.008     44.078     32.229
   1472.500    457.084     36.589   -999.250    473.803      9.653      0.423      0.664      1.711      2.141      2.138      2.068     44.249     32.257
   1472.625    424.241     35.551   -999.250    471.873     10.014      0.698      0.774      1.716      2.358      2.220      2.129     44.242     32.249
   1472.750    412.971     34.053   -999.250    469.299      9.934      0.638      0.978      1.727      2.423      2.303      2.219     44.250     32.406
   1472.875    411.254     32.805   -999.250    468.013      9.687      1.141      0.779      1.731      2.459      2.384      2.332     44.405     32.708
   1473.000    412.649     31.698   -999.250    467.370      9.595      0.434      0.728      1.671      2.311      2.334      2.402     44.417     32.686
   1473.125    417.157     30.419   -999.250    468.656      9.656      0.441      0.813      1.640      2.167      2.124      2.401     44.569     32.701
   1473.250    422.309     29.389   -999.250    470.586      9.648      0.331      0.656      1.635      2.103      1.916      2.302     44.748     32.785
   1473.375    426.357     29.314   -999.250    472.516      9.455      0.719      0.868      1.643      2.036      1.742      2.137     44.897     32.899
   1473.500    428.105     33.411   -999.250    475.733      9.302      0.402      0.761      1.647      1.896      1.693      1.914     44.914     32.825
   1473.625    422.953     36.850   -999.250    478.306      8.901      0.616      0.773      1.660      1.761      1.717      1.693     44.897     32.932
   1473.750    420.377     37.689   -999.250    481.523      8.428      0.520      0.570      1.635      1.736      1.719      1.701     44.915     32.944
   1473.875    420.699     39.415   -999.250    483.452      8.523      0.370      0.629      1.597      1.764      1.768      1.789     45.062     33.133
   1474.000    431.969     39.069   -999.250    486.347      8.507      0.477      0.710      1.565      1.781      1.791      1.812     45.080     33.205
   1474.125    443.697     38.401   -999.250    488.599      8.492      0.674      0.691      1.510      1.787      1.819      1.812     45.227     33.149
   1474.250    456.440     37.759   -999.250    491.172      8.604      0.491      0.752      1.477      1.786      1.817      1.807     45.079     33.318
   1474.375    468.031     37.551   -999.250    494.389      8.846      0.808      0.943      1.455      1.785      1.806      1.761     45.064     33.359
   1474.500    476.403     37.520   -999.250    497.605      8.625      0.742      0.891      1.435      1.815      1.796      1.687     45.078     33.536
   1474.625    487.503     37.674   -999.250    500.179      8.134      0.996      1.063      1.433      1.849      1.794      1.641     45.065     33.521
   1474.750    497.252     38.207   -999.250    501.465      7.789      0.527      0.787      1.433      1.864      1.796      1.617     45.076     33.533
   1474.875    504.738     39.718   -999.250    502.752      7.542      0.971      0.919      1.434      1.864      1.794      1.592     45.232     33.404
   1475.000    479.715     41.812   -999.250    502.109      7.334      0.449      0.701      1.434      1.865      1.833      1.580     45.239     33.350
   1475.125    454.460     39.987   -999.250    502.752      7.083      0.646      0.768      1.434      1.886      1.870      1.579     45.070     33.404
   1475.250    439.696     38.318   -999.250    502.752      6.864      0.867      0.843      1.434      1.914      1.922      1.576     45.072     33.660
   1475.375    430.037     36.625   -999.250    501.465      6.623      0.613      0.830      1.433      1.910      1.971      1.602     45.237     33.521
   1475.500    419.733     36.669   -999.250    500.179      6.819      0.887      0.894      1.433      2.110      2.023      1.678     45.235     33.699
   1475.625    411.100     38.398   -999.250    498.892      7.040      0.608      0.816      1.435      2.212      2.149      1.762     45.239     33.683
   1475.750    399.126     40.578   -999.250    496.319      7.183      0.561      0.889      1.456      2.284      2.226      1.866     45.233     33.684
   1475.875    399.770     43.346   -999.250    493.102      6.871      0.468      0.724      1.524      2.378      2.327      1.962     45.240     33.639
   1476.000    412.006     44.191   -999.250    490.529      7.312      0.618      0.732      1.597      2.436      2.415      2.048     45.397     33.574
   1476.125    416.513     44.628   -999.250    487.956      7.567      0.564      0.789      1.573      2.465      2.471      2.146     45.241     33.521
   1476.250    419.733     42.096   -999.250    486.026      7.634      0.536      0.895      1.585      2.557      2.527      2.240     45.397     33.508
   1476.375    425.529     40.050   -999.250    485.382      7.542      0.723      0.766      1.619      2.565      2.582      2.329     45.406     33.564
   1476.500    423.597     38.954   -999.250    485.382      7.674      0.585      0.726      1.639      2.582      2.632      2.344     45.396     33.519
   1476.625    407.498     38.155   -999.250    486.669      6.934      0.361      0.791      1.640      2.614      2.522      2.413     45.407     33.566
   1476.750    420.248     39.509   -999.250    488.599      7.042      0.761      0.842      1.640      2.640      2.422      2.449     45.231     33.700
   1476.875    429.393     40.746   -999.250    492.459      7.325      0.545      0.694      1.640      2.638      2.407      2.485     45.242     33.508
   1477.000    444.848     42.171   -999.250    498.249      7.471      0.870      0.674      1.635      2.629      2.429      2.484     45.232     33.682
   1477.125    465.526     42.609   -999.250    503.395      7.890      0.378      0.817      1.590      2.381      2.403      2.485     45.242     33.675
   1477.250    473.827     40.218   -999.250    509.185      8.666      0.770      0.808      1.532      2.251      2.256      2.454     45.231     33.678
   1477.375    428.749     35.788   -999.250    513.045      8.604      0.592      0.702      1.524      2.119      2.111      2.410     45.078     33.681
   1477.500    411.362     31.106   -999.250    515.618      8.843      0.414      0.408      1.509      2.015      1.969      2.380     45.066     33.827
   1477.625    388.822     30.800   -999.250    516.262      9.291      0.881      0.862      1.511      2.041      1.941      2.387     44.913     33.793
   1477.750    381.739     32.700   -999.250    515.618      9.182      0.393      0.640      1.511      2.174      2.038      2.432     44.901     33.826
   1477.875    397.119     34.671   -999.250    513.688      9.165      0.415      0.750      1.511      2.271      2.129      2.512     44.914     33.729
   1478.000    408.142     35.752   -999.250    512.080      8.823      0.699      0.901      1.511      2.326      2.227      2.536     44.901     34.001
   1478.125    431.588     38.220   -999.250    511.115      8.262      0.844      0.970      1.511      2.325      2.206      2.532     44.914     33.836
   1478.250    452.878     39.889   -999.250    512.402      7.838      0.464      0.958      1.511      2.146      2.051      2.413     44.901     33.874
   1478.375    472.781     40.251   -999.250    514.975      7.663      0.719      0.791      1.514      1.972      1.891      2.259     44.914     33.793
