~Version Information Block
 VERS.                2.00:     CWLS LOG ASCII STANDARD - VERSION 2.000000
 WRAP.                  NO:     One Line Per Depth Step
#
~Well Information Block
#MNEM.UNIT                     Data                         Information
#----------   ------------------------------------------   ----------------
 STRT.M                                        100.750:
 STOP.M                                       1515.000:
 STEP.M                                          0.125:
 NULL.                                        -999.250:
 COMP.                                   ²â¾®Êý¾Ý¿âµ¼³ö:     COMPANY 
 WELL.                                           ¹ÂÄÏ152:     Well 
 FLD .                                                :     Field 
 LOC .                                                :     LOCATION
 CNTY.                                                :     COUNTY
 STAT.                                                :     STATE
 CTRY.                                                :     COUNTRY
 SRVC.                                                :     SERVICE COMPANY
 DATE.                                                :     DATE
 API .                                                :     API NUMBER
#
~Curve Information Block
#MNEM.UNIT       API CODE      Curve Description
#----------    -------------   -------------------
 DEPT.M                    :   Depth in Meters
 AC  .Î¢Ãë/Ã×                      :   AC
 CAL .ÀåÃ×                      :   CAL
 CAL .ÀåÃ×                      :   CAL
 COND.mS/m                      :   COND
 RLML.Å·Ä·Ã×                      :   RLML
 RNML.Å·Ä·Ã×                      :   RNML
 R04 .Å·Ä·Ã×                      :   R04
 R25 .Å·Ä·Ã×                      :   R25
 R4  .Å·Ä·Ã×                      :   R4
 SP  .ºÁ·ü                      :   SP
 SP  .ºÁ·ü                      :   SP
#
~A  DEPTH          AC        CAL        CAL       COND       RLML       RNML        R04        R25         R4         SP         SP
# ...
   1336.000    504.284   -999.250     34.658    357.962      0.947      0.996      2.181      3.319      3.222    117.040    129.156
   1336.125    507.481   -999.250     33.988    364.650      0.907      1.002      2.142      3.244      3.173    117.244    129.321
   1336.250    508.760   -999.250     33.224    372.293      0.877      1.009      2.118      3.192      3.103    117.585    129.632
   1336.375    509.399   -999.250     32.504    378.025      0.877      1.015      2.083      3.116      3.043    117.735    129.638
   1336.500    510.038   -999.250     32.230    380.573      0.890      1.022      2.047      3.090      3.006    117.858    129.790
   1336.625    510.678   -999.250     32.185    382.484      0.906      1.028      2.002      3.064      2.992    117.869    129.795
   1336.750    511.957   -999.250     32.180    384.395      0.929      1.036      1.952      3.065      2.972    117.695    129.949
   1336.875    512.596   -999.250     32.190    385.669      0.949      1.044      1.921      3.064      2.974    117.723    130.111
   1337.000    513.235   -999.250     32.190    387.898      0.956      1.053      1.853      3.014      2.972    117.541    130.109
   1337.125    513.875   -999.250     32.178    389.490      0.955      1.062      1.790      3.038      2.968    117.529    130.109
   1337.250    514.514   -999.250     32.137    392.038      0.955      1.068      1.751      3.014      2.983    117.565    130.110
   1337.375    514.514   -999.250     32.030    393.949      0.955      1.040      1.731      3.012      2.997    117.519    130.108
   1337.500    515.153   -999.250     31.858    397.134      0.969      1.019      1.700      2.989      3.005    117.538    130.111
   1337.625    515.153   -999.250     31.616    398.408      0.967      1.021      1.676      2.986      2.996    117.423    130.267
   1337.750    515.793   -999.250     31.582    398.408      0.981      1.006      1.655      2.963      3.004    117.401    130.271
   1337.875    515.793   -999.250     31.587    397.134      0.992      1.007      1.654      2.935      3.003    117.225    130.267
   1338.000    513.875   -999.250     31.610    395.860      1.006      1.006      1.654      2.911      3.006    117.231    130.113
   1338.125    515.153   -999.250     31.534    395.223      1.004      1.021      1.654      2.884      2.982    117.230    130.109
   1338.250    511.957   -999.250     31.476    393.949      1.009      1.029      1.683      2.860      2.943    117.226    130.113
   1338.375    508.120   -999.250     31.351    392.038      1.018      1.040      1.701      2.808      2.901    117.181    130.110
   1338.500    500.448   -999.250     31.287    390.127      1.032      1.048      1.726      2.783      2.877    117.059    130.112
   1338.625    492.136   -999.250     31.228    388.854      1.046      1.057      1.736      2.782      2.845    117.055    130.110
   1338.750    480.627   -999.250     31.283    386.943      1.044      1.066      1.752      2.757      2.798    116.938    130.271
   1338.875    467.839   -999.250     31.289    385.669      1.058      1.075      1.779      2.757      2.752    116.904    130.270
   1339.000    453.772   -999.250     31.198    383.121      1.069      1.083      1.812      2.757      2.748    116.906    130.271
   1339.125    439.066   -999.250     31.224    380.573      1.074      1.092      1.836      2.706      2.745    116.908    130.270
   1339.250    423.082   -999.250     31.326    377.389      1.084      1.102      1.857      2.731      2.772    116.902    130.271
   1339.375    409.655   -999.250     31.543    372.293      1.083      1.113      1.906      2.757      2.804    116.892    130.269
   1339.500    393.670   -999.250     32.070    367.834      1.075      1.123      1.938      2.808      2.839    116.891    130.271
   1339.625    382.161   -999.250     32.860    361.465      1.060      1.134      1.969      2.884      2.892    116.902    130.269
   1339.750    369.373   -999.250     34.081    355.096      1.034      1.145      2.013      2.911      2.949    116.915    130.272
   1339.875    363.619   -999.250     35.840    347.452      1.007      1.155      2.059      2.986      3.025    117.035    130.427
   1340.000    362.980   -999.250     37.407    341.083      0.976      1.150      2.097      3.039      3.107    117.065    130.431
   1340.125    374.169   -999.250     38.684    335.987      0.997      1.056      2.135      3.075      3.176    117.098    130.427
   1340.250    383.760   -999.250     38.487    331.529      1.036      1.037      2.137      3.116      3.210    117.029    130.431
   1340.375    397.826   -999.250     37.754    330.255      1.071      1.116      2.146      3.152      3.261    117.230    130.426
   1340.500    409.974   -999.250     37.111    332.803      1.096      1.184      2.143      3.180      3.308    117.195    130.431
   1340.625    423.402   -999.250     36.914    339.172      1.057      1.149      2.115      3.190      3.307    117.074    130.426
   1340.750    437.468   -999.250     37.042    344.904      0.999      1.092      2.116      3.180      3.277    117.067    130.432
   1340.875    455.371   -999.250     37.236    350.637      0.974      1.073      2.108      3.190      3.227    117.067    130.426
   1341.000    473.274   -999.250     36.882    357.006      0.982      1.070      2.102      3.167      3.155    117.067    130.432
   1341.125    492.775   -999.250     36.175    360.828      0.980      1.080      2.055      3.139      3.091    117.068    130.427
   1341.250    505.882   -999.250     35.408    365.287      0.994      1.086      2.013      3.065      3.006    117.071    130.431
   1341.375    520.908   -999.250     34.555    370.382      1.007      1.090      1.967      2.999      2.906    117.067    130.585
   1341.500    525.384   -999.250     33.968    376.115      1.005      1.083      1.933      2.924      2.839    117.229    130.590
   1341.625    524.425   -999.250     33.505    382.484      1.019      1.056      1.915      2.845      2.774    117.088    130.585
   1341.750    516.432   -999.250     33.131    386.943      1.005      1.022      1.911      2.758      2.723    117.097    130.590
   1341.875    506.522   -999.250     32.860    392.675      1.008      0.983      1.912      2.692      2.670    117.219    130.585
   1342.000    495.332   -999.250     32.589    398.408      1.001      0.955      1.913      2.642      2.584    117.283    130.591
   1342.125    481.905   -999.250     32.220    405.414      0.982      0.967      1.883      2.589      2.514    117.272    130.585
   1342.250    463.363   -999.250     31.862    413.694      0.953      0.992      1.885      2.566      2.462    117.379    130.592
   1342.375    448.018   -999.250     31.466    419.427      0.916      1.006      1.885      2.551      2.427    117.555    130.583
   1342.500    435.230   -999.250     31.129    420.064      0.917      1.006      1.914      2.566      2.467    117.738    130.593
   1342.625    417.967   -999.250     30.877    413.694      0.933      1.006      1.931      2.628      2.514    117.549    130.582
   1342.750    409.015   -999.250     30.892    407.325      0.955      1.005      1.941      2.668      2.539    117.550    130.595
   1342.875    401.982   -999.250     31.572    399.045      0.977      1.019      1.962      2.718      2.561    117.549    130.580
   1343.000    401.343   -999.250     32.535    389.809      1.002      1.039      1.982      2.758      2.593    117.551    130.597
   1343.125    409.655   -999.250     33.906    380.573      1.022      1.062      1.987      2.794      2.615    117.547    130.578
   1343.250    421.164   -999.250     35.044    370.382      1.042      1.069      1.992      2.834      2.640    117.725    130.599
   1343.375    435.870   -999.250     35.746    361.465      1.059      1.078      2.011      2.858      2.689    117.711    130.735
   1343.500    453.772   -999.250     35.214    354.459      1.060      1.084      2.018      2.860      2.714    117.708    130.600
