~Version Information Block
 VERS.                2.00:     CWLS LOG ASCII STANDARD - VERSION 2.000000
 WRAP.                  NO:     One Line Per Depth Step
#
~Well Information Block
#MNEM.UNIT                     Data                         Information
#----------   ------------------------------------------   ----------------
 STRT.M                                        100.500:
 STOP.M                                       2142.000:
 STEP.M                                          0.125:
 NULL.                                        -999.250:
 COMP.                                   ²â¾®Êý¾Ý¿âµ¼³ö:     COMPANY 
 WELL.                                         ¹ÂÄÏ152-5:     Well 
 FLD .                                                :     Field 
 LOC .                                                :     LOCATION
 CNTY.                                                :     COUNTY
 STAT.                                                :     STATE
 CTRY.                                                :     COUNTRY
 SRVC.                                                :     SERVICE COMPANY
 DATE.                                                :     DATE
 API .                                                :     API NUMBER
#
~Curve Information Block
#MNEM.UNIT       API CODE      Curve Description
#----------    -------------   -------------------
 DEPT.M                    :   Depth in Meters
 AC  .Î¢Ãë/Ã×                      :   AC
 CAL .ÀåÃ×                      :   CAL
 CAL .ÀåÃ×                      :   CAL
 COND.mS/m                      :   COND
 GR  .Î¢Â×ÇÙ                      :   GR
 RLML.Å·Ä·Ã×                      :   RLML
 RNML.Å·Ä·Ã×                      :   RNML
 R04 .Å·Ä·Ã×                      :   R04
 R25 .Å·Ä·Ã×                      :   R25
 R25 .Å·Ä·Ã×                      :   R25
 R4  .Å·Ä·Ã×                      :   R4
 SP  .ºÁ·ü                      :   SP
 SP  .mv                      :   SP
#
~A  DEPTH          AC        CAL        CAL       COND         GR       RLML       RNML        R04        R25        R25         R4         SP         SP
# ...
   1036.500    416.697     25.356   -999.250    374.732      5.221      1.904      1.593      2.341      3.082      3.092      2.724     51.263     37.287
   1036.625    420.734     24.895   -999.250    376.019      5.226      1.664      1.513      2.304      3.024      3.068      2.711     51.012     37.343
   1036.750    422.953     24.625   -999.250    377.949      5.289      1.912      1.460      2.259      2.975      3.015      2.686     50.732     37.290
   1036.875    424.241     24.858   -999.250    383.095      5.393      1.843      1.595      2.214      2.911      2.992      2.671     50.479     37.220
   1037.000    424.241     25.231   -999.250    388.242      5.541      2.065      1.739      2.174      2.941      3.065      2.691     50.184     36.776
   1037.125    424.241     25.217   -999.250    390.815      5.800      1.945      1.729      2.137      3.006      3.118      2.708     49.867     36.379
   1037.250    422.401     25.054   -999.250    393.388      5.869      1.811      1.439      2.133      3.053      3.191      2.788     49.691     36.022
   1037.375    420.377     24.686   -999.250    395.318      5.672      1.715      1.493      2.105      3.099      3.246      2.906     49.537     35.762
   1037.500    417.157     24.448   -999.250    397.248      5.465      1.866      1.447      2.106      3.155      3.318      3.010     49.362     35.550
   1037.625    410.718     24.327   -999.250    401.108      5.581      1.666      1.474      2.105      3.158      3.347      3.103     49.043     35.306
   1037.750    419.170     24.329   -999.250    404.968      5.802      1.441      1.456      2.105      3.127      3.318      3.083     48.704     35.133
   1037.875    428.749     24.517   -999.250    409.471      5.976      1.875      1.416      2.103      3.063      3.271      3.054     48.383     34.971
   1038.000    431.969     25.019   -999.250    414.296      6.074      1.437      1.188      2.151      3.150      3.293      3.144     48.210     34.812
   1038.125    434.545     25.531   -999.250    419.764      6.075      0.920      0.933      2.162      3.206      3.392      3.209     48.053     34.660
   1038.250    432.613     25.914   -999.250    424.911      5.978      0.476      0.849      2.182      3.275      3.488      3.254     48.046     34.631
   1038.375    427.461     26.567   -999.250    429.414      5.848      0.943      1.095      2.180      3.378      3.592      3.392     48.051     34.629
   1038.500    421.021     26.989   -999.250    434.560      5.542      0.792      0.974      2.140      3.645      3.689      3.673     48.377     34.607
   1038.625    409.430     26.167   -999.250    441.637      5.327      1.453      1.436      2.020      3.855      3.792      3.823     48.873     34.696
   1038.750    427.461     25.520   -999.250    450.643      5.384      2.220      1.749      1.942      3.833      3.903      3.839     49.243     34.779
   1038.875    478.979     24.859   -999.250    456.433      5.478      1.576      1.478      1.894      3.497      3.482      3.657     49.661     34.803
   1039.000    562.052     24.313   -999.250    463.510      5.691      1.717      1.656      1.781      3.212      2.988      3.220     50.081     34.931
   1039.125    616.789     24.126   -999.250    471.873      6.320      1.169      1.154      1.687      2.967      2.812      2.962     50.354     34.869
   1039.250    606.150     24.747   -999.250    478.949      6.947      1.015      1.071      1.594      2.848      2.684      2.840     50.356     35.100
   1039.375    586.523     26.382   -999.250    482.166      7.363      0.878      0.985      1.544      2.726      2.634      2.728     50.353     35.306
   1039.500    585.879     28.560   -999.250    484.739      7.653      0.525      0.815      1.493      2.600      2.608      2.599     50.356     35.424
   1039.625    587.167     30.457   -999.250    488.599      7.644      0.805      0.818      1.454      2.484      2.609      2.491     50.353     35.694
   1039.750    594.894     31.363   -999.250    489.886      7.592      0.454      0.731      1.438      2.527      2.634      2.524     50.190     35.843
   1039.875    592.962     30.637   -999.250    489.242      7.672      0.671      0.988      1.408      2.600      2.634      2.583     50.022     35.945
   1040.000    564.627     29.637   -999.250    487.312      7.825      0.858      0.903      1.409      2.610      2.634      2.700     49.798     35.782
   1040.125    564.080     28.166   -999.250    486.026      7.942      0.608      0.777      1.409      2.556      2.608      2.593     49.499     35.748
   1040.250    565.915     27.065   -999.250    483.452      7.866      0.489      0.664      1.398      2.504      2.557      2.655     49.203     35.458
   1040.375    556.900     25.602   -999.250    482.166      7.709      0.497      0.657      1.358      2.452      2.487      2.544     48.905     35.364
   1040.500    535.488     27.386   -999.250    480.236      7.381      0.802      0.843      1.356      2.433      2.431      2.554     48.608     35.215
   1040.625    524.057     27.396   -999.250    478.306      7.022      0.995      0.989      1.356      2.488      2.455      2.664     48.311     35.095
   1040.750    524.701     26.408   -999.250    475.371      6.920      0.970      1.067      1.356      2.410      2.475      2.695     48.044     34.920
   1040.875    535.649     25.630   -999.250    473.803      7.183      1.018      1.141      1.356      2.318      2.481      2.656     47.714     34.764
   1041.000    543.054     24.556   -999.250    473.159      7.352      1.139      1.244      1.356      2.242      2.406      2.577     47.543     34.394
   1041.125    552.392     25.777   -999.250    473.159      7.497      1.217      1.075      1.356      2.284      2.331      2.562     47.384     34.029
   1041.250    556.900     28.369   -999.250    472.516      7.638      0.801      0.727      1.356      2.371      2.398      2.514     47.222     33.877
   1041.375    556.256     29.621   -999.250    471.229      7.687      0.449      0.472      1.356      2.415      2.549      2.613     47.053     33.807
   1041.500    554.324     29.852   -999.250    470.586      7.366      0.744      0.589      1.356      2.478      2.683      2.700     46.892     33.595
   1041.625    550.460     29.073   -999.250    469.943      6.913      1.216      1.244      1.356      2.550      2.685      2.856     46.722     33.484
   1041.750    548.528     28.432   -999.250    469.943      6.982      0.978      1.062      1.357      2.568      2.632      2.924     46.563     33.112
   1041.875    551.748     27.804   -999.250    469.299      6.899      0.866      0.986      1.357      2.408      2.532      2.814     46.392     32.864
   1042.000    564.627     27.646   -999.250    468.978      7.251      0.837      0.905      1.379      2.273      2.442      2.691     46.068     32.703
   1042.125    579.942     29.578   -999.250    468.656      7.540      0.638      0.837      1.357      2.275      2.380      2.621     46.061     32.667
   1042.250    596.826     31.197   -999.250    468.656      7.704      0.487      0.734      1.356      2.253      2.327      2.587     45.902     32.301
   1042.375    605.842     32.344   -999.250    468.656      7.805      0.471      0.615      1.327      2.252      2.291      2.589     45.732     32.388
   1042.500    592.761     32.990   -999.250    469.299      7.825      0.740      0.916      1.334      2.247      2.276      2.609     45.736     32.169
   1042.625    589.742     31.984   -999.250    469.299      7.828      0.897      0.719      1.305      2.213      2.253      2.614     45.732     32.219
   1042.750    583.705     30.796   -999.250    469.299      7.762      0.441      0.621      1.304      2.199      2.251      2.599     45.569     31.968
   1042.875    574.287     29.327   -999.250    467.370      7.310      0.790      0.944      1.302      2.182      2.253      2.597     45.568     31.899
