~Version Information Block
 VERS.                2.00:     CWLS LOG ASCII STANDARD - VERSION 2.000000
 WRAP.                  NO:     One Line Per Depth Step
#
~Well Information Block
#MNEM.UNIT                     Data                         Information
#----------   ------------------------------------------   ----------------
 STRT.M                                        100.500:
 STOP.M                                       2142.000:
 STEP.M                                          0.125:
 NULL.                                        -999.250:
 COMP.                                   ²â¾®Êý¾Ý¿âµ¼³ö:     COMPANY 
 WELL.                                         ¹ÂÄÏ152-5:     Well 
 FLD .                                                :     Field 
 LOC .                                                :     LOCATION
 CNTY.                                                :     COUNTY
 STAT.                                                :     STATE
 CTRY.                                                :     COUNTRY
 SRVC.                                                :     SERVICE COMPANY
 DATE.                                                :     DATE
 API .                                                :     API NUMBER
#
~Curve Information Block
#MNEM.UNIT       API CODE      Curve Description
#----------    -------------   -------------------
 DEPT.M                    :   Depth in Meters
 AC  .Î¢Ãë/Ã×                      :   AC
 CAL .ÀåÃ×                      :   CAL
 CAL .ÀåÃ×                      :   CAL
 COND.mS/m                      :   COND
 GR  .Î¢Â×ÇÙ                      :   GR
 RLML.Å·Ä·Ã×                      :   RLML
 RNML.Å·Ä·Ã×                      :   RNML
 R04 .Å·Ä·Ã×                      :   R04
 R25 .Å·Ä·Ã×                      :   R25
 R25 .Å·Ä·Ã×                      :   R25
 R4  .Å·Ä·Ã×                      :   R4
 SP  .ºÁ·ü                      :   SP
 SP  .mv                      :   SP
#
~A  DEPTH          AC        CAL        CAL       COND         GR       RLML       RNML        R04        R25        R25         R4         SP         SP
# ...
   2011.500    442.272     29.179   -999.250    518.835      9.716      0.497      0.735      1.542      1.616      1.411      1.538     51.671     45.467
   2011.625    460.948     27.553   -999.250    509.828      9.881      0.411      0.589      1.562      1.484      1.365      1.418     51.193     44.987
   2011.750    465.455     26.716   -999.250    504.682      9.738      0.681      0.595      1.563      1.504      1.336      1.298     51.008     44.526
   2011.875    456.118     26.170   -999.250    500.822      9.907      1.022      0.915      1.562      1.502      1.340      1.182     50.369     44.030
   2012.000    452.576     25.993   -999.250    499.535     10.084      1.137      1.157      1.585      1.491      1.310      1.120     50.018     43.718
   2012.125    459.660     25.676   -999.250    498.249      9.806      1.175      1.137      1.563      1.431      1.255      1.110     49.545     43.057
   2012.250    408.142     25.000   -999.250    498.249      9.652      1.098      1.072      1.562      1.378      1.208      1.114     49.194     42.633
   2012.375    393.652     24.707   -999.250    496.962      9.448      1.063      0.986      1.611      1.325      1.161      1.117     49.050     42.234
   2012.500    395.906     24.545   -999.250    493.746      8.815      1.009      1.001      1.683      1.294      1.245      1.171     48.535     41.675
   2012.625    398.804     24.512   -999.250    489.242      7.340      1.446      1.497      1.806      1.377      1.365      1.225     48.059     41.228
   2012.750    401.058     24.600   -999.250    482.809      7.080      1.755      1.407      1.929      1.441      1.486      1.277     47.712     40.522
   2012.875    401.058     24.991   -999.250    478.306      6.881      1.521      1.407      2.046      1.480      1.772      1.333     47.398     39.940
   2013.000    381.417     25.678   -999.250    472.516      6.574      1.432      1.385      2.407      1.785      2.070      1.473     47.218     39.366
   2013.125    322.815     26.594   -999.250    468.978      6.670      1.336      1.303      2.774      2.143      2.280      1.642     46.736     38.562
   2013.250    293.514     26.939   -999.250    465.440      6.597      1.426      1.347      3.282      2.501      2.603      1.825     46.521     38.625
   2013.375    252.300     27.172   -999.250    460.936      6.343      1.690      1.448      3.630      2.854      2.849      2.032     46.313     38.644
   2013.500    224.126     26.940   -999.250    455.147      6.161      1.496      1.524      3.909      3.141      3.059      2.278     46.088     38.785
   2013.625    209.798     26.513   -999.250    448.713      6.868      1.892      2.122      3.943      3.407      3.282      2.462     45.877     38.950
   2013.750    213.017     26.311   -999.250    441.959      6.795      1.101      1.236      3.570      3.416      3.494      2.564     45.851     39.115
   2013.875    213.661     25.973   -999.250    436.490      6.703      5.363      4.059      3.205      3.144      3.077      2.464     46.152     39.207
   2014.000    214.627     25.341   -999.250    433.917      6.741      4.796      3.712      2.895      2.941      2.631      2.376     46.449     39.416
   2014.125    227.346     24.310   -999.250    433.917      7.186      2.723      2.971      2.702      2.682      2.430      2.160     46.747     39.576
   2014.250    251.495     23.838   -999.250    435.847      7.674      3.315      2.594      2.426      2.490      2.175      1.997     47.047     39.700
   2014.375    275.644     23.328   -999.250    438.420      7.398      4.102      5.543      2.163      2.173      2.023      1.731     47.341     39.911
   2014.500    299.793     23.127   -999.250    443.245      7.696      5.556      2.607      2.021      1.990      1.820      1.531     47.720     39.890
   2014.625    347.930     23.172   -999.250    448.874      7.920      1.966      1.663      2.003      1.706      1.667      1.348     48.042     40.059
   2014.750    395.262     23.301   -999.250    455.147      7.913      1.578      1.600      1.973      1.705      1.567      1.316     48.380     40.078
   2014.875    399.126     23.726   -999.250    460.936      7.823      1.493      1.506      1.976      1.727      1.540      1.317     48.700     40.226
   2015.000    391.157     24.495   -999.250    465.761      7.529      1.371      1.373      1.976      1.771      1.542      1.385     48.711     40.563
   2015.125    380.773     25.438   -999.250    468.013      7.689      1.261      1.292      1.987      1.818      1.616      1.443     49.028     40.847
   2015.250    365.961     26.166   -999.250    469.299      8.059      1.501      1.479      2.049      1.854      1.720      1.468     49.371     41.033
   2015.375    357.268     26.939   -999.250    468.013      7.958      1.392      1.445      2.227      1.891      1.870      1.508     49.522     41.352
   2015.500    352.438     27.416   -999.250    464.796      8.430      1.932      1.658      2.335      2.010      1.974      1.535     49.701     41.626
   2015.625    347.930     27.739   -999.250    459.650      8.307      1.778      1.656      2.425      2.119      2.074      1.615     49.852     41.910
   2015.750    340.310     27.371   -999.250    454.503      8.085      1.571      1.510      2.468      2.227      2.227      1.661     49.701     42.283
   2015.875    336.017     26.551   -999.250    447.427      8.061      1.414      1.420      2.495      2.335      2.353      1.659     49.688     42.424
   2016.000    343.258     26.114   -999.250    442.924      8.123      2.116      1.642      2.537      2.443      2.506      1.701     49.701     42.761
   2016.125    356.663     24.994   -999.250    439.064      8.029      1.835      1.706      2.535      2.551      2.633      1.666     49.689     42.805
   2016.250    369.503     24.316   -999.250    437.134      7.874      1.503      1.548      2.556      2.659      2.727      1.708     49.372     42.741
   2016.375    379.163     23.912   -999.250    436.490      7.680      1.142      1.439      2.572      2.758      2.836      1.807     49.196     42.780
   2016.500    364.995     23.826   -999.250    436.490      7.389      1.445      1.388      2.596      2.846      2.944      1.877     49.042     42.942
   2016.625    333.722     23.770   -999.250    437.134      7.582      1.618      1.547      2.614      2.932      2.893      1.951     48.868     43.054
   2016.750    297.620     24.054   -999.250    437.777      7.647      1.494      1.476      2.628      2.968      2.732      1.974     48.877     43.112
   2016.875    254.976     24.374   -999.250    437.777      7.512      2.613      1.943      2.647      2.816      2.582      2.012     48.870     43.181
   2017.000    227.829     24.250   -999.250    438.420      7.836      2.054      1.708      2.478      2.716      2.404      1.999     48.877     43.237
   2017.125    277.415     24.134   -999.250    437.777      8.067      1.726      1.891      2.343      2.608      2.226      1.937     48.872     43.189
   2017.250    334.085     24.132   -999.250    439.064      7.955      2.706      2.186      2.306      2.502      2.048      1.900     49.042     43.193
   2017.375    370.147     24.268   -999.250    439.707      7.835      1.659      1.419      2.253      2.252      1.987      1.888     49.204     43.237
   2017.500    391.398     24.989   -999.250    440.994      8.003      1.225      1.033      2.186      2.145      1.916      1.893     49.207     43.228
   2017.625    395.262     25.276   -999.250    442.924      8.053      1.010      1.359      2.115      2.040      1.846      1.949     49.535     43.231
   2017.750    397.194     24.980   -999.250    446.140      8.267      2.067      1.709      2.107      2.055      1.978      1.993     49.536     43.232
   2017.875    397.194     24.669   -999.250    448.070      8.470      1.478      1.401      2.079      2.092      2.101      2.074     49.702     43.236
