~Version Information Block
 VERS.                2.00:     CWLS LOG ASCII STANDARD - VERSION 2.000000
 WRAP.                  NO:     One Line Per Depth Step
#
~Well Information Block
#MNEM.UNIT                     Data                         Information
#----------   ------------------------------------------   ----------------
 STRT.M                                        183.125:
 STOP.M                                       2134.000:
 STEP.M                                          0.125:
 NULL.                                        -999.250:
 COMP.                                   ²â¾®Êý¾Ý¿âµ¼³ö:     COMPANY 
 WELL.                                        ¹ÂÄÏ152-05:     Well 
 FLD .                                                :     Field 
 LOC .                                                :     LOCATION
 CNTY.                                                :     COUNTY
 STAT.                                                :     STATE
 CTRY.                                                :     COUNTRY
 SRVC.                                                :     SERVICE COMPANY
 DATE.                                                :     DATE
 API .                                                :     API NUMBER
#
~Curve Information Block
#MNEM.UNIT       API CODE      Curve Description
#----------    -------------   -------------------
 DEPT.M                    :   Depth in Meters
 AC  .Î¢Ãë/Ã×                      :   AC
 CAL .ÀåÃ×                      :   CAL
 CAL .ÀåÃ×                      :   CAL
 COND.ºÁÄ·Å·/Ã×                      :   COND
 GR  .Î¢Â×ÇÙ/Ð¡Ê±                      :   GR
 GR  .Î¢Â×ÇÙ/Ð¡Ê±                      :   GR
 RLML.Å·Ä·Ã×                      :   RLML
 RLML.Å·Ä·Ã×                      :   RLML
 RNML.Å·Ä·Ã×                      :   RNML
 RNML.Å·Ä·Ã×                      :   RNML
 R04 .Å·Ä·Ã×                      :   R04
 R25 .Å·Ä·Ã×                      :   R25
 R4  .Å·Ä·Ã×                      :   R4
 SP  .ºÁ·ü                      :   SP
 SP  .ºÁ·ü                      :   SP
#
~A  DEPTH          AC        CAL        CAL       COND         GR         GR       RLML       RLML       RNML       RNML        R04        R25         R4         SP         SP
# ...
   1890.875    455.397   -999.250     20.633    479.280     10.572   -999.250      0.360   -999.250   -999.250      0.539      1.250      1.628      1.522    127.055    128.117
   1891.000    468.115   -999.250     19.630    484.400      9.381   -999.250      0.217   -999.250   -999.250      0.464      1.194      1.546      1.483    127.071    128.000
   1891.125    483.082   -999.250     18.462    486.960      9.785   -999.250      0.349   -999.250   -999.250      0.516      1.196      1.467      1.433    127.056    127.965
   1891.250    496.602   -999.250     17.604    486.320      9.529   -999.250      0.556   -999.250   -999.250      0.622      1.196      1.385      1.390    127.070    127.933
   1891.375    499.214   -999.250     16.585    483.120     10.136   -999.250      0.374   -999.250   -999.250      0.766      1.196      1.291      1.366    127.057    127.816
   1891.500    479.558   -999.250     15.632    480.560      9.768   -999.250      0.559   -999.250   -999.250      0.615      1.201      1.266      1.341    127.070    127.771
   1891.625    462.345   -999.250     14.760    475.440     10.492   -999.250      0.475   -999.250   -999.250      0.451      1.222      1.240      1.311    127.057    127.638
   1891.750    449.592   -999.250     14.911    469.680     10.156   -999.250      0.331   -999.250   -999.250      0.569      1.243      1.240      1.292    126.910    127.547
   1891.875    433.665   -999.250     15.093    462.640     10.356   -999.250      0.427   -999.250   -999.250      0.646      1.246      1.307      1.286    127.058    127.457
   1892.000    416.782   -999.250     15.071    456.560      9.767   -999.250      0.610   -999.250   -999.250      0.545      1.260      1.403      1.286    127.068    127.481
   1892.125    411.587   -999.250     14.504    449.840      9.758   -999.250      0.703   -999.250   -999.250      0.654      1.271      1.496      1.284    127.059    127.486
   1892.250    423.016   -999.250     14.242    443.228      9.437   -999.250      0.461   -999.250   -999.250      0.761      1.278      1.592      1.312    127.067    127.485
   1892.375    410.000   -999.250     15.081    437.533      9.070   -999.250      0.722   -999.250   -999.250      0.817      1.298      1.685      1.316    127.060    127.482
   1892.500    400.159   -999.250     15.918    433.786      8.700   -999.250      0.530   -999.250   -999.250      0.653      1.296      1.781      1.362    127.066    127.468
   1892.625    410.590   -999.250     16.792    432.544      8.465   -999.250      0.517   -999.250   -999.250      0.550      1.326      1.877      1.389    127.061    127.644
   1892.750    429.365   -999.250     17.641    435.760      9.442   -999.250      0.454   -999.250   -999.250      0.581      1.344      1.816      1.415    127.066    127.641
   1892.875    447.321   -999.250     18.625    442.160     10.162   -999.250      0.321   -999.250   -999.250      0.683      1.352      1.749      1.417    127.062    127.651
   1893.000    463.571   -999.250     20.185    451.120      9.583   -999.250      0.261   -999.250   -999.250      0.521      1.325      1.685      1.418    127.065    127.774
   1893.125    479.821   -999.250     21.394    458.160      9.888   -999.250      0.199   -999.250   -999.250      0.435      1.293      1.618      1.389    127.063    127.809
   1893.250    485.238   -999.250     21.832    464.560      9.703   -999.250      0.243   -999.250   -999.250      0.451      1.251      1.554      1.359    127.064    127.804
   1893.375    476.452   -999.250     21.051    471.600      9.907   -999.250      0.394   -999.250   -999.250      0.421      1.201      1.487      1.296    127.063    127.788
   1893.500    468.095   -999.250     19.533    476.720      9.189   -999.250      0.300   -999.250   -999.250      0.499      1.168      1.423      1.264    127.064    127.965
   1893.625    459.841   -999.250     18.212    481.840      8.477   -999.250      0.422   -999.250   -999.250      0.649      1.198      1.356      1.236    127.063    127.969
   1893.750    446.508   -999.250     17.366    481.200      8.923   -999.250      0.671   -999.250   -999.250      0.746      1.226      1.291      1.232    127.064    128.093
   1893.875    428.874   -999.250     16.805    476.080      8.535   -999.250      0.467   -999.250   -999.250      0.481      1.244      1.265      1.232    127.064    128.128
   1894.000    413.631   -999.250     16.615    472.240      8.854   -999.250      0.656   -999.250   -999.250      0.538      1.273      1.265      1.234    127.064    128.126
   1894.125    401.368   -999.250     16.633    462.640      9.376   -999.250      0.659   -999.250   -999.250      0.677      1.297      1.265      1.279    127.064    128.125
   1894.250    386.022   -999.250     16.921    451.120      8.495   -999.250      0.486   -999.250   -999.250      0.529      1.325      1.265      1.318    127.063    128.125
   1894.375    371.709   -999.250     17.592    439.600      8.933   -999.250      0.566   -999.250   -999.250      0.558      1.353      1.290      1.355    127.064    128.126
   1894.500    362.123   -999.250     18.802    435.760      8.822   -999.250      0.407   -999.250   -999.250      0.526      1.379      1.314      1.409    127.063    128.128
   1894.625    401.598   -999.250     20.570    441.520      9.565   -999.250      0.274   -999.250   -999.250      0.435      1.376      1.343      1.461    127.223    128.093
   1894.750    429.802   -999.250     22.495    452.400      8.565   -999.250      0.339   -999.250   -999.250      0.388      1.381      1.448      1.493    127.222    127.975
   1894.875    452.655   -999.250     23.434    465.200      9.030   -999.250      0.396   -999.250   -999.250      0.391      1.401      1.573      1.519    127.064    127.982
   1895.000    474.996   -999.250     24.395    478.320      9.551   -999.250      0.262   -999.250   -999.250      0.489      1.397      1.695      1.516    127.222    127.952
   1895.125    493.610   -999.250     24.493    490.112      9.099   -999.250      0.216   -999.250   -999.250      0.522      1.377      1.821      1.521    127.222    127.795
   1895.250    517.619   -999.250     24.305    501.160      8.474   -999.250      0.321   -999.250   -999.250      0.453      1.354      1.852      1.534    127.222    127.802
   1895.375    511.434   -999.250     23.565    515.299      8.332   -999.250      0.285   -999.250   -999.250      0.427      1.324      1.734      1.498    127.380    127.795
   1895.500    494.583   -999.250     22.786    523.134      8.960   -999.250      0.451   -999.250   -999.250      0.559      1.297      1.635      1.447    127.381    127.707
   1895.625    477.619   -999.250     21.913    532.897      9.437   -999.250      0.672   -999.250   -999.250      0.829      1.273      1.540      1.383    127.380    127.791
   1895.750    463.016   -999.250     20.359    537.410      9.706   -999.250      0.481   -999.250   -999.250      0.722      1.247      1.440      1.312    127.382    127.804
   1895.875    448.413   -999.250     18.948    535.611      9.151   -999.250      0.412   -999.250   -999.250      0.465      1.247      1.345      1.267    127.379    127.629
   1896.000    435.079   -999.250     17.705    529.279      9.303   -999.250      0.467   -999.250   -999.250      0.543      1.227      1.246      1.228    127.382    127.642
   1896.125    419.841   -999.250     17.546    517.680      8.893   -999.250      0.277   -999.250   -999.250      0.611      1.224      1.164      1.211    127.379    127.646
   1896.250    402.698   -999.250     18.270    503.200      9.071   -999.250      0.325   -999.250   -999.250      0.451      1.196      1.163      1.210    127.383    127.643
   1896.375    383.917   -999.250     19.140    491.440      9.452   -999.250      0.420   -999.250   -999.250      0.450      1.197      1.182      1.207    127.378    127.634
   1896.500    366.048   -999.250     20.050    480.560      9.695   -999.250      0.489   -999.250   -999.250      0.506      1.196      1.250      1.234    127.383    127.547
