~Version Information Block
 VERS.                2.00:     CWLS LOG ASCII STANDARD - VERSION 2.000000
 WRAP.                  NO:     One Line Per Depth Step
#
~Well Information Block
#MNEM.UNIT                     Data                         Information
#----------   ------------------------------------------   ----------------
 STRT.M                                        100.500:
 STOP.M                                       2142.000:
 STEP.M                                          0.125:
 NULL.                                        -999.250:
 COMP.                                   ²â¾®Êý¾Ý¿âµ¼³ö:     COMPANY 
 WELL.                                         ¹ÂÄÏ152-5:     Well 
 FLD .                                                :     Field 
 LOC .                                                :     LOCATION
 CNTY.                                                :     COUNTY
 STAT.                                                :     STATE
 CTRY.                                                :     COUNTRY
 SRVC.                                                :     SERVICE COMPANY
 DATE.                                                :     DATE
 API .                                                :     API NUMBER
#
~Curve Information Block
#MNEM.UNIT       API CODE      Curve Description
#----------    -------------   -------------------
 DEPT.M                    :   Depth in Meters
 AC  .Î¢Ãë/Ã×                      :   AC
 CAL .ÀåÃ×                      :   CAL
 CAL .ÀåÃ×                      :   CAL
 COND.mS/m                      :   COND
 GR  .Î¢Â×ÇÙ                      :   GR
 RLML.Å·Ä·Ã×                      :   RLML
 RNML.Å·Ä·Ã×                      :   RNML
 R04 .Å·Ä·Ã×                      :   R04
 R25 .Å·Ä·Ã×                      :   R25
 R25 .Å·Ä·Ã×                      :   R25
 R4  .Å·Ä·Ã×                      :   R4
 SP  .ºÁ·ü                      :   SP
 SP  .mv                      :   SP
#
~A  DEPTH          AC        CAL        CAL       COND         GR       RLML       RNML        R04        R25        R25         R4         SP         SP
# ...
    822.000    577.507     25.747   -999.250    328.413      8.608      1.175      1.313      2.493      3.200      3.270      3.356     43.078     31.526
    822.125    578.151     26.006   -999.250    328.413      7.779      0.780      1.090      2.463      3.259      3.368      3.312     43.101     31.420
    822.250    575.253     25.865   -999.250    328.413      8.245      0.513      0.884      2.446      3.310      3.459      3.283     43.244     31.382
    822.375    572.999     25.661   -999.250    329.056      8.377      0.727      1.022      2.413      3.344      3.557      3.295     43.265     31.243
    822.500    568.670     25.207   -999.250    328.413      8.302      0.893      1.010      2.410      3.388      3.649      3.360     43.246     31.633
    822.625    563.983     24.320   -999.250    328.413      8.585      0.855      1.088      2.382      3.414      3.542      3.391     43.263     31.269
    822.750    558.510     23.866   -999.250    327.770      8.191      0.955      1.089      2.291      3.415      3.428      3.436     43.247     31.376
    822.875    553.680     23.402   -999.250    327.770      8.020      0.711      0.982      2.252      3.390      3.297      3.466     43.262     31.306
    823.000    551.748     23.296   -999.250    327.770      7.678      0.991      1.057      2.189      3.305      3.167      3.466     43.413     31.211
    823.125    551.748     23.297   -999.250    327.770      7.773      1.109      1.134      2.146      3.261      3.017      3.466     43.425     31.421
    823.250    556.256     23.288   -999.250    327.770      7.810      0.948      1.076      2.129      3.183      2.913      3.432     43.414     31.213
    823.375    560.120     23.536   -999.250    327.127      7.718      1.075      1.116      2.107      3.082      2.839      3.334     43.424     31.101
    823.500    567.284     23.896   -999.250    326.483      7.828      1.182      1.211      2.077      2.811      2.787      3.247     43.579     31.321
    823.625    571.389     24.490   -999.250    325.840      7.907      1.052      1.216      2.079      2.652      2.737      3.082     43.589     31.393
    823.750    564.627     24.944   -999.250    323.910      7.957      1.021      0.969      2.079      2.513      2.736      2.901     43.415     31.281
    823.875    558.510     25.016   -999.250    321.980      7.859      0.764      0.826      2.073      2.573      2.788      2.779     43.424     31.282
    824.000    550.460     25.120   -999.250    319.085      7.934      1.014      0.987      2.168      2.643      2.838      2.709     43.415     31.291
    824.125    539.834     25.574   -999.250    316.190      7.334      0.890      0.998      2.235      2.712      2.965      2.781     43.424     31.117
    824.250    537.001     26.837   -999.250    312.330      7.420      0.557      0.636      2.336      2.781      3.041      2.850     43.415     31.122
    824.375    534.683     27.704   -999.250    309.114      7.552      0.449      0.611      2.397      2.850      3.143      2.919     43.258     30.958
    824.500    532.751     28.329   -999.250    305.254      7.204      0.487      0.787      2.437      2.918      3.270      2.987     43.416     30.989
    824.625    532.751     28.459   -999.250    302.680      7.374      0.915      1.064      2.463      2.997      3.372      3.056     43.423     31.062
    824.750    534.683     28.927   -999.250    301.394      7.572      1.119      0.988      2.481      3.110      3.473      3.125     43.416     31.166
    824.875    536.937     29.615   -999.250    300.107      7.281      0.593      0.930      2.502      3.231      3.550      3.194     43.423     31.040
    825.000    535.863     30.502   -999.250    300.107      7.165      0.542      0.934      2.519      3.399      3.638      3.263     43.334     31.138
    825.125    534.683     30.650   -999.250    300.107      7.247      0.545      0.851      2.524      3.485      3.702      3.332     43.257     31.129
    825.250    542.861     29.981   -999.250    300.751      7.475      0.482      0.738      2.571      3.443      3.782      3.401     43.253     31.132
    825.375    551.877     29.273   -999.250    301.394      7.323      0.546      0.748      2.610      3.465      3.858      3.470     43.257     31.147
    825.500    560.442     28.745   -999.250    302.037      7.461      0.937      0.959      2.671      3.582      3.933      3.539     43.254     30.969
    825.625    563.983     28.566   -999.250    301.394      7.504      1.259      1.280      2.680      3.697      3.914      3.622     43.256     30.964
    825.750    560.120     28.895   -999.250    302.037      7.575      0.519      0.678      2.688      3.812      3.852      3.765     43.254     30.875
    825.875    548.206     29.390   -999.250    302.037      7.097      0.456      0.724      2.726      3.927      3.791      3.907     43.256     30.961
    826.000    534.790     28.392   -999.250    302.037      7.404      0.831      0.849      2.776      3.980      3.729      3.953     43.254     30.970
    826.125    519.047     27.374   -999.250    302.680      7.643      1.189      1.019      2.832      3.880      3.676      3.731     43.257     30.972
    826.250    503.305     26.678   -999.250    303.002      8.005      0.973      1.319      2.924      3.769      3.626      3.515     43.254     30.971
    826.375    484.775     25.826   -999.250    302.680      8.071      0.957      1.109      3.017      3.672      3.625      3.434     43.257     30.976
    826.500    476.403     25.681   -999.250    303.645      8.061      0.702      0.926      3.091      3.632      3.626      3.413     43.254     30.987
    826.625    471.412     25.979   -999.250    304.289      8.170      0.580      0.813      3.154      3.609      3.676      3.501     43.340     30.988
    826.750    468.721     26.507   -999.250    305.254      8.114      1.402      1.320      3.217      3.587      3.770      3.636     43.419     30.981
    826.875    468.112     27.153   -999.250    306.540      8.013      1.712      1.589      3.299      3.569      3.854      3.770     43.423     31.065
    827.000    468.675     27.992   -999.250    308.149      7.990      1.773      1.656      3.309      3.590      3.940      3.856     43.501     31.110
    827.125    466.743     28.696   -999.250    309.757      7.710      1.707      1.654      3.319      3.696      4.024      3.779     43.589     31.145
    827.250    459.177     28.618   -999.250    311.365      7.580      1.607      1.624      3.320      3.802      4.110      3.772     43.665     31.123
    827.375    449.759     28.536   -999.250    313.617      7.359      1.546      1.544      3.321      3.907      4.193      3.883     43.754     30.997
    827.500    444.204     28.173   -999.250    316.512      7.065      1.562      1.549      3.240      4.013      4.263      4.020     43.912     31.113
    827.625    435.833     27.293   -999.250    321.337      6.720      1.631      1.608      3.113      4.057      4.261      4.160     43.919     31.076
    827.750    435.189     26.851   -999.250    326.162      6.354      1.687      1.722      3.006      3.996      4.237      4.161     44.077     30.977
    827.875    438.408     26.170   -999.250    331.308      6.250      1.768      1.828      2.927      3.823      4.158      4.063     44.248     31.059
    828.000    445.309     25.968   -999.250    336.776      6.049      1.858      1.872      2.860      3.653      3.907      3.908     44.407     31.036
    828.125    451.932     26.157   -999.250    341.923      6.169      1.630      1.608      2.798      3.482      3.785      3.717     44.578     31.128
    828.250    461.592     26.391   -999.250    346.426      6.058      1.965      1.930      2.736      3.364      3.662      3.537     44.737     31.129
    828.375    471.251     26.567   -999.250    349.643      6.132      1.405      1.771      2.671      3.310      3.522      3.379     44.908     31.161
