~Version Information Block
 VERS.                2.00:     CWLS LOG ASCII STANDARD - VERSION 2.000000
 WRAP.                  NO:     One Line Per Depth Step
#
~Well Information Block
#MNEM.UNIT                     Data                         Information
#----------   ------------------------------------------   ----------------
 STRT.M                                        183.125:
 STOP.M                                       2134.000:
 STEP.M                                          0.125:
 NULL.                                        -999.250:
 COMP.                                   ²â¾®Êý¾Ý¿âµ¼³ö:     COMPANY 
 WELL.                                        ¹ÂÄÏ152-05:     Well 
 FLD .                                                :     Field 
 LOC .                                                :     LOCATION
 CNTY.                                                :     COUNTY
 STAT.                                                :     STATE
 CTRY.                                                :     COUNTRY
 SRVC.                                                :     SERVICE COMPANY
 DATE.                                                :     DATE
 API .                                                :     API NUMBER
#
~Curve Information Block
#MNEM.UNIT       API CODE      Curve Description
#----------    -------------   -------------------
 DEPT.M                    :   Depth in Meters
 AC  .Î¢Ãë/Ã×                      :   AC
 CAL .ÀåÃ×                      :   CAL
 CAL .ÀåÃ×                      :   CAL
 COND.ºÁÄ·Å·/Ã×                      :   COND
 GR  .Î¢Â×ÇÙ/Ð¡Ê±                      :   GR
 GR  .Î¢Â×ÇÙ/Ð¡Ê±                      :   GR
 RLML.Å·Ä·Ã×                      :   RLML
 RLML.Å·Ä·Ã×                      :   RLML
 RNML.Å·Ä·Ã×                      :   RNML
 RNML.Å·Ä·Ã×                      :   RNML
 R04 .Å·Ä·Ã×                      :   R04
 R25 .Å·Ä·Ã×                      :   R25
 R4  .Å·Ä·Ã×                      :   R4
 SP  .ºÁ·ü                      :   SP
 SP  .ºÁ·ü                      :   SP
#
~A  DEPTH          AC        CAL        CAL       COND         GR         GR       RLML       RLML       RNML       RNML        R04        R25         R4         SP         SP
# ...
   1965.625    316.984   -999.250     25.183     71.146      6.119   -999.250      0.984   -999.250   -999.250      1.161      5.545      8.208      4.977    120.240    120.434
   1965.750    320.794   -999.250     25.426     71.283      5.973   -999.250      0.474   -999.250   -999.250      0.957      5.694      8.787      5.046    120.239    120.449
   1965.875    324.603   -999.250     25.624     71.420      5.228   -999.250      0.687   -999.250   -999.250      0.705      5.819      9.360      5.153    120.238    120.272
   1966.000    327.711   -999.250     25.662     71.558      5.359   -999.250      0.489   -999.250   -999.250      1.054      5.887      9.938      5.285    120.240    120.267
   1966.125    331.561   -999.250     25.698     73.760      5.650   -999.250      0.949   -999.250   -999.250      1.280      5.929     10.513      5.534    120.237    120.146
   1966.250    335.391   -999.250     25.618     76.880      5.460   -999.250      0.832   -999.250   -999.250      0.970      5.924     11.090      5.874    120.242    120.126
   1966.375    336.667   -999.250     25.388     81.290      5.925   -999.250      0.371   -999.250   -999.250      0.617      5.880     11.590      6.306    120.236    119.948
   1966.500    334.762   -999.250     25.111     86.443      6.348   -999.250      1.352   -999.250   -999.250      0.802      5.820     12.015      6.907    120.243    119.940
   1966.625    333.492   -999.250     24.797     91.602      6.101   -999.250      1.009   -999.250   -999.250      1.445      5.725     12.437      7.483    120.236    120.111
   1966.750    334.762   -999.250     24.480     96.783      5.802   -999.250      0.420   -999.250   -999.250      1.098      5.622     12.861      8.062    120.243    120.093
   1966.875    338.445   -999.250     24.229    102.115      5.502   -999.250      1.041   -999.250   -999.250      0.597      5.507     13.288      8.655    120.394    120.276
   1967.000    343.472   -999.250     24.159    107.485      5.449   -999.250      0.678   -999.250   -999.250      1.105      5.341     13.711      8.798    120.401    120.280
   1967.125    344.685   -999.250     24.092    112.854      5.750   -999.250      0.461   -999.250   -999.250      0.610      5.205     14.135      8.801    120.553    120.574
   1967.250    341.248   -999.250     23.999    118.223      6.019   -999.250      0.392   -999.250   -999.250      0.681      5.109     14.428      8.751    120.558    120.758
   1967.375    338.044   -999.250     23.803    123.593      6.615   -999.250      0.424   -999.250   -999.250      0.738      4.983     14.354      8.702    120.712    120.947
   1967.500    333.575   -999.250     23.599    128.962      6.982   -999.250      0.598   -999.250   -999.250      0.659      4.823     14.090      8.653    120.795    121.268
   1967.625    330.332   -999.250     23.353    134.331      6.529   -999.250      0.474   -999.250   -999.250      0.631      4.722     13.827      8.603    120.872    121.558
   1967.750    328.372   -999.250     23.340    139.701      6.772   -999.250      0.399   -999.250   -999.250      0.731      4.551     13.563      8.600    121.030    121.843
   1967.875    327.739   -999.250     23.451    148.633      7.073   -999.250      0.539   -999.250   -999.250      0.838      4.380     13.482      8.654    121.032    122.080
   1968.000    330.318   -999.250     23.601    166.320      7.546   -999.250      0.317   -999.250   -999.250      0.769      4.135     13.459      8.849    121.187    122.252
   1968.125    334.762   -999.250     23.411    181.040      7.775   -999.250      0.710   -999.250   -999.250      0.764      3.864     13.439      9.078    121.351    122.557
   1968.250    341.204   -999.250     22.928    198.320      7.068   -999.250      0.533   -999.250   -999.250      0.724      3.564     13.283      9.449    121.502    122.794
   1968.375    347.136   -999.250     22.506    215.600      7.553   -999.250      0.336   -999.250   -999.250      1.092      3.186     13.042      9.816    121.668    122.999
   1968.500    350.635   -999.250     21.965    234.120      7.851   -999.250      0.469   -999.250   -999.250      0.857      2.929     12.801     10.182    121.660    123.142
   1968.625    320.794   -999.250     21.522    244.895      7.397   -999.250      0.344   -999.250   -999.250      0.537      2.650     12.449     10.240    121.510    123.295
   1968.750    299.612   -999.250     21.723    251.454      7.136   -999.250      1.002   -999.250   -999.250      0.860      2.359     12.000      9.266    121.660    123.507
   1968.875    284.891   -999.250     22.194    255.301      6.913   -999.250      0.790   -999.250   -999.250      1.321      2.161     10.908      8.433    121.668    123.627
   1969.000    277.692   -999.250     22.735    254.662      6.761   -999.250      0.467   -999.250   -999.250      1.128      2.095      9.815      7.582    121.661    123.630
   1969.125    287.769   -999.250     23.288    252.090      6.344   -999.250      0.690   -999.250   -999.250      0.960      2.171      8.726      6.764    121.508    123.513
   1969.250    299.099   -999.250     23.738    244.400      6.026   -999.250      0.599   -999.250   -999.250      1.097      2.253      7.633      6.196    121.346    123.489
   1969.375    307.460   -999.250     23.990    229.680      6.655   -999.250      0.239   -999.250   -999.250      0.738      2.353      6.544      5.650    121.189    123.238
   1969.500    310.000   -999.250     24.074    216.880      6.427   -999.250      0.466   -999.250   -999.250      0.555      2.438      5.691      5.334    121.031    123.047
   1969.625    308.730   -999.250     23.635    198.960      5.547   -999.250      1.341   -999.250   -999.250      0.986      2.489      5.268      5.126    120.870    122.722
   1969.750    308.095   -999.250     23.769    188.811      5.795   -999.250      1.069   -999.250   -999.250      1.330      2.560      4.844      5.160    120.717    122.477
   1969.875    319.506   -999.250     24.538    178.480      6.202   -999.250      0.581   -999.250   -999.250      0.919      2.718      4.541      5.319    120.551    122.254
   1970.000    333.567   -999.250     25.243    167.920      5.957   -999.250      0.450   -999.250   -999.250      0.522      2.897      4.541      5.573    120.402    121.972
   1970.125    354.340   -999.250     25.999    159.280      5.568   -999.250      0.402   -999.250   -999.250      0.500      3.078      4.701      5.875    120.233    121.679
   1970.250    367.866   -999.250     26.550    148.040      5.930   -999.250      0.316   -999.250   -999.250      0.602      3.336      4.919      6.243    119.928    121.430
   1970.375    367.778   -999.250     26.722    137.555      5.756   -999.250      0.207   -999.250   -999.250      0.577      3.588      5.135      6.598    119.915    121.265
   1970.500    358.730   -999.250     26.762    127.069      5.598   -999.250      0.654   -999.250   -999.250      0.512      3.790      5.354      6.856    119.769    121.194
   1970.625    351.270   -999.250     26.515    116.584      6.140   -999.250      0.203   -999.250   -999.250      0.454      3.845      5.568      7.144    119.756    121.080
   1970.750    342.381   -999.250     25.934    106.122      6.493   -999.250      0.643   -999.250   -999.250      0.540      3.851      5.785      7.411    119.611    120.899
   1970.875    333.596   -999.250     25.551     98.498      5.972   -999.250      0.316   -999.250   -999.250      0.653      3.865      6.001      7.646    119.599    120.927
   1971.000    324.631   -999.250     24.979    100.586      6.329   -999.250      0.484   -999.250   -999.250      0.532      3.847      6.219      7.807    119.610    120.750
   1971.125    313.736   -999.250     24.456    103.174      6.277   -999.250      0.647   -999.250   -999.250      0.661      3.812      6.428      7.758    119.600    120.758
   1971.250    304.829   -999.250     24.082    106.617      6.732   -999.250      0.255   -999.250   -999.250      0.795      3.773      6.277      7.503    119.450    120.579
