~Version Information Block
 VERS.                2.00:     CWLS LOG ASCII STANDARD - VERSION 2.000000
 WRAP.                  NO:     One Line Per Depth Step
#
~Well Information Block
#MNEM.UNIT                     Data                         Information
#----------   ------------------------------------------   ----------------
 STRT.M                                        100.750:
 STOP.M                                       1515.000:
 STEP.M                                          0.125:
 NULL.                                        -999.250:
 COMP.                                   ²â¾®Êý¾Ý¿âµ¼³ö:     COMPANY 
 WELL.                                           ¹ÂÄÏ152:     Well 
 FLD .                                                :     Field 
 LOC .                                                :     LOCATION
 CNTY.                                                :     COUNTY
 STAT.                                                :     STATE
 CTRY.                                                :     COUNTRY
 SRVC.                                                :     SERVICE COMPANY
 DATE.                                                :     DATE
 API .                                                :     API NUMBER
#
~Curve Information Block
#MNEM.UNIT       API CODE      Curve Description
#----------    -------------   -------------------
 DEPT.M                    :   Depth in Meters
 AC  .Î¢Ãë/Ã×                      :   AC
 CAL .ÀåÃ×                      :   CAL
 CAL .ÀåÃ×                      :   CAL
 COND.mS/m                      :   COND
 RLML.Å·Ä·Ã×                      :   RLML
 RNML.Å·Ä·Ã×                      :   RNML
 R04 .Å·Ä·Ã×                      :   R04
 R25 .Å·Ä·Ã×                      :   R25
 R4  .Å·Ä·Ã×                      :   R4
 SP  .ºÁ·ü                      :   SP
 SP  .ºÁ·ü                      :   SP
#
~A  DEPTH          AC        CAL        CAL       COND       RLML       RNML        R04        R25         R4         SP         SP
# ...
   1473.250    503.645   -999.250     30.864    389.490      1.006      0.880      2.014      2.782      2.651    117.388    129.631
   1473.375    472.954   -999.250     30.269    392.038      1.007      0.866      1.985      2.731      2.616    117.388    129.632
   1473.500    426.918   -999.250     29.784    393.312      1.008      0.890      1.988      2.705      2.566    117.387    129.631
   1473.625    410.294   -999.250     29.435    392.675      0.994      0.865      2.008      2.654      2.508    117.390    129.630
   1473.750    405.179   -999.250     29.451    388.854      0.975      0.889      2.013      2.603      2.489    117.405    129.632
   1473.875    391.752   -999.250     29.607    384.395      0.969      0.923      2.011      2.552      2.494    117.227    129.470
   1474.000    380.243   -999.250     29.908    381.210      1.008      0.951      2.038      2.526      2.515    117.225    129.474
   1474.125    368.095   -999.250     30.082    374.841      1.031      0.990      2.064      2.552      2.534    117.102    129.469
   1474.250    359.783   -999.250     30.323    368.471      1.062      1.021      2.095      2.578      2.543    117.030    129.316
   1474.375    355.946   -999.250     30.623    363.376      1.115      1.036      2.141      2.603      2.595    116.916    129.309
   1474.500    355.307   -999.250     30.929    358.917      1.143      1.044      2.176      2.680      2.642    116.734    128.999
   1474.625    355.307   -999.250     31.192    355.096      1.161      1.044      2.212      2.757      2.687    116.707    128.675
   1474.750    355.307   -999.250     31.426    351.911      1.157      1.030      2.248      2.808      2.739    116.468    128.365
   1474.875    355.307   -999.250     31.616    349.363      1.139      1.024      2.266      2.885      2.789    116.384    128.041
   1475.000    355.946   -999.250     31.812    347.452      1.077      0.992      2.292      2.936      2.862    116.121    127.573
   1475.125    355.307   -999.250     31.942    346.178      1.005      0.954      2.316      2.974      2.902    115.924    127.249
   1475.250    354.668   -999.250     32.060    345.541      0.963      0.995      2.319      3.012      2.947    115.759    126.860
   1475.375    354.028   -999.250     32.178    346.178      1.100      1.082      2.346      3.064      2.995    115.474    126.297
   1475.500    354.668   -999.250     32.239    347.611      1.188      1.171      2.347      3.115      3.006    115.379    125.751
   1475.625    359.143   -999.250     32.309    350.637      1.239      1.146      2.367      3.154      3.011    114.852    125.106
   1475.750    366.726   -999.250     32.314    353.463      1.152      1.009      2.371      3.179      3.025    114.321    124.562
   1475.875    378.325   -999.250     32.234    356.807      1.025      0.914      2.350      3.166      3.027    113.807    124.152
   1476.000    372.783   -999.250     32.194    362.739      1.002      1.026      2.325      3.165      3.045    113.094    124.008
   1476.125    361.839   -999.250     32.093    367.834      1.211      1.236      2.320      3.167      3.031    112.305    123.911
   1476.250    351.471   -999.250     31.998    374.204      1.278      1.168      2.316      3.165      3.025    111.533    123.930
   1476.375    343.798   -999.250     31.972    380.573      1.058      1.020      2.262      3.128      3.025    111.227    124.067
   1476.500    348.274   -999.250     31.871    387.580      0.977      0.871      2.223      3.076      3.024    112.095    124.328
   1476.625    356.586   -999.250     31.741    395.860      0.925      0.882      2.174      3.039      3.008    113.236    124.777
   1476.750    364.258   -999.250     31.599    400.955      0.904      0.852      2.161      2.999      3.009    114.270    125.121
   1476.875    364.898   -999.250     31.527    401.592      0.891      0.852      2.185      2.975      2.995    114.669    126.044
   1477.000    361.701   -999.250     31.451    398.089      0.891      0.855      2.240      2.961      2.978    115.018    126.309
   1477.125    359.143   -999.250     31.414    395.223      0.905      0.869      2.272      2.937      2.953    115.313    126.835
   1477.250    356.586   -999.250     31.422    392.038      0.928      0.887      2.298      2.961      2.920    115.289    127.339
   1477.375    355.307   -999.250     31.597    387.580      0.984      0.941      2.295      2.949      2.895    115.449    127.627
   1477.500    355.307   -999.250     31.815    384.395      1.033      0.989      2.295      2.935      2.868    115.614    127.734
   1477.625    359.783   -999.250     31.931    380.573      1.113      1.051      2.295      2.936      2.850    115.493    127.705
   1477.750    366.816   -999.250     31.910    376.115      1.124      1.051      2.294      2.923      2.826    115.247    127.573
   1477.875    373.849   -999.250     31.813    371.656      1.051      0.982      2.274      2.898      2.823    114.853    127.149
   1478.000    380.243   -999.250     31.711    368.471      0.975      0.940      2.268      2.910      2.795    114.324    126.698
   1478.125    385.997   -999.250     31.616    369.108      0.939      0.896      2.241      2.910      2.768    113.995    126.354
   1478.250    392.391   -999.250     31.648    373.567      0.930      0.892      2.213      2.910      2.742    113.515    125.744
   1478.375    396.867   -999.250     31.694    378.025      0.930      0.891      2.197      2.897      2.744    112.855    125.162
   1478.500    396.867   -999.250     31.665    385.669      0.929      0.894      2.164      2.885      2.745    112.116    124.473
   1478.625    393.031   -999.250     31.453    393.312      0.943      0.910      2.138      2.884      2.717    111.352    123.813
   1478.750    388.555   -999.250     31.148    400.955      0.945      0.921      2.106      2.846      2.714    110.467    122.891
   1478.875    384.719   -999.250     30.987    408.599      0.955      0.932      2.091      2.833      2.696    109.656    122.071
   1479.000    379.604   -999.250     31.018    414.968      0.956      0.943      2.049      2.808      2.687    108.615    121.308
   1479.125    376.407   -999.250     31.100    418.790      0.953      0.954      2.019      2.769      2.636    107.904    120.802
   1479.250    373.849   -999.250     31.215    421.338      0.952      0.955      2.011      2.718      2.600    108.299    120.201
   1479.375    374.488   -999.250     31.346    422.611      0.933      0.955      1.992      2.705      2.547    108.919    119.692
   1479.500    375.128   -999.250     31.422    423.885      0.939      0.955      1.987      2.667      2.513    109.387    119.253
   1479.625    377.046   -999.250     31.477    428.344      0.941      0.955      1.982      2.641      2.542    108.078    118.740
   1479.750    378.964   -999.250     31.482    433.439      0.955      0.955      1.961      2.616      2.534    106.347    118.146
   1479.875    380.882   -999.250     31.525    440.446      0.955      0.955      1.942      2.577      2.545    104.638    117.310
   1480.000    383.440   -999.250     31.594    447.452      0.955      0.955      1.938      2.551      2.508    103.349    116.006
   1480.125    384.719   -999.250     31.511    462.102      0.956      0.949      1.939      2.501      2.471    102.151    114.691
   1480.250    385.358   -999.250     31.378    474.204      0.966      0.938      1.932      2.474      2.436    101.030    112.989
   1480.375    384.079   -999.250     31.253    486.306      0.963      0.929      1.911      2.450      2.387    100.154    111.833
   1480.500    380.243   -999.250     31.091    493.949      0.981      0.941      1.910      2.423      2.339     99.838    111.881
   1480.625    372.570   -999.250     30.982    498.408      0.980      0.958      1.911      2.424      2.239     99.776    113.555
   1480.750    362.980   -999.250     30.909    495.223      0.970      0.975      1.931      2.423      2.176    100.352    115.032
