~Version Information Block
 VERS.                2.00:     CWLS LOG ASCII STANDARD - VERSION 2.000000
 WRAP.                  NO:     One Line Per Depth Step
#
~Well Information Block
#MNEM.UNIT                     Data                         Information
#----------   ------------------------------------------   ----------------
 STRT.M                                        195.000:
 STOP.M                                       2555.000:
 STEP.M                                          0.125:
 NULL.                                        -999.250:
 COMP.                                   ²â¾®Êý¾Ý¿âµ¼³ö:     COMPANY 
 WELL.                                        ¹ÂÄÏ152-08:     Well 
 FLD .                                                :     Field 
 LOC .                                                :     LOCATION
 CNTY.                                                :     COUNTY
 STAT.                                                :     STATE
 CTRY.                                                :     COUNTRY
 SRVC.                                                :     SERVICE COMPANY
 DATE.                                                :     DATE
 API .                                                :     API NUMBER
#
~Curve Information Block
#MNEM.UNIT       API CODE      Curve Description
#----------    -------------   -------------------
 DEPT.M                    :   Depth in Meters
 AC  .Î¢Ãë/Ã×                      :   AC
 CAL .ÀåÃ×                      :   CAL
 CAL .ÀåÃ×                      :   CAL
 COND.mS/m                      :   COND
 GR  .Î¢Â×ÇÙ                      :   GR
 RLML.Å·Ä·Ã×                      :   RLML
 RNML.Å·Ä·Ã×                      :   RNML
 R04 .Å·Ä·Ã×                      :   R04
 R25 .Å·Ä·Ã×                      :   R25
 R4  .Å·Ä·Ã×                      :   R4
 RFOC.Å·Ä·Ã×                      :   RFOC
 RILD.Å·Ä·Ã×                      :   RILD
 RILM.Å·Ä·Ã×                      :   RILM
 SP  .mv                      :   SP
 SP  .ºÁ·ü                      :   SP
#
~A  DEPTH          AC        CAL        CAL       COND         GR       RLML       RNML        R04        R25         R4       RFOC       RILD       RILM         SP         SP
# ...
   2431.750    343.104     31.432   -999.250    755.769      7.484      0.526      0.641      1.183      1.826      3.478      1.165      1.207      1.284     89.355     93.352
   2431.875    322.513     31.117   -999.250    769.872      7.909      0.500      0.705      1.183      1.828      3.362      1.159      1.195      1.284     89.432     93.347
   2432.000    320.631     31.256   -999.250    780.769      7.987      0.474      0.756      1.204      1.851      3.217      1.159      1.183      1.284     89.667     93.352
   2432.125    334.072     30.809   -999.250    773.718      8.305      1.228      1.468      1.211      1.853      3.101      1.159      1.232      1.270     89.533     93.347
   2432.250    350.624     29.735   -999.250    727.500      8.996      0.744      1.177      1.211      1.851      3.130      1.159      1.258      1.271     89.488     93.352
   2432.375    370.943     29.412   -999.250    729.375      8.924      0.526      0.679      1.179      1.802      3.130      1.136      1.297      1.271     89.383     93.507
   2432.500    383.040     31.344   -999.250    733.125      9.316      0.551      0.615      1.126      1.801      3.130      1.079      1.277      1.337     89.347     93.511
   2432.625    377.166     31.877   -999.250    736.250      8.849      0.462      0.795      1.105      1.776      3.130      1.068      1.271      1.414     89.472     93.508
   2432.750    349.266     31.826   -999.250    727.500      9.343      0.923      0.974      1.164      1.750      3.072      1.148      1.277      1.582     89.486     93.510
   2432.875    350.000     30.881   -999.250    661.688      8.671      0.513      0.500      1.358      1.674      2.986      1.401      1.400      1.699     89.484     93.509
   2433.000    359.545     29.923   -999.250    621.053      8.639      0.667      0.705      1.553      1.622      2.870      1.526      1.511      1.796     89.654     93.509
   2433.125    374.229     30.469   -999.250    595.625      9.059      1.051      1.152      1.802      1.623      2.783      1.712      1.574      1.949     89.463     93.510
   2433.250    377.166     31.193   -999.250    575.625      8.865      0.538      0.564      1.897      1.571      2.667      1.852      1.606      2.010     89.516     93.509
   2433.375    375.698     29.550   -999.250    563.125      8.578      0.846      0.769      2.009      1.572      2.667      1.929      1.690      2.010     89.496     93.511
   2433.500    372.026     27.447   -999.250    555.625      8.326      0.474      0.641      2.139      1.545      2.754      1.949      1.690      2.010     89.309     93.668
   2433.625    364.357     25.651   -999.250    551.250      8.083      0.628      0.397      1.886      1.521      2.899      1.815      1.725      2.010     89.364     93.671
   2433.750    355.140     24.912   -999.250    534.177      7.840      1.089      0.910      1.655      1.494      3.072      1.622      1.778      2.010     89.045     93.668
   2433.875    346.659     24.807   -999.250    522.785      7.506      1.557      1.430      1.550      1.470      3.246      1.526      1.815      2.010     89.134     93.671
   2434.000    327.974     25.344   -999.250    517.722      6.632      2.385      2.218      1.540      1.443      3.217      1.511      1.815      2.010     89.147     93.668
   2434.125    318.869     25.872   -999.250    518.354      6.821      3.468      3.494      1.537      1.394      3.275      1.480      1.815      2.009     89.146     93.671
   2434.250    312.693     25.572   -999.250    517.722      6.928      2.692      2.667      1.485      1.469      3.275      1.436      1.815      2.012     89.065     93.669
   2434.375    308.150     25.005   -999.250    517.722      7.168      1.975      1.899      1.433      1.547      3.217      1.393      1.815      1.989     88.984     93.671
   2434.500    314.513     25.024   -999.250    515.190      7.688      1.304      1.329      1.429      1.596      3.101      1.378      1.815      1.989     88.947     93.669
   2434.625    330.829     25.557   -999.250    508.861      7.854      2.269      2.141      1.538      1.624      3.014      1.454      1.815      1.969     88.701     93.670
   2434.750    341.189     25.653   -999.250    498.734      7.769      2.051      1.924      1.726      1.647      2.870      1.616      1.833      2.180     88.691     93.669
   2434.875    343.392     25.034   -999.250    481.646      7.646      1.532      1.468      1.896      1.700      2.783      1.778      2.010      2.308     88.632     93.670
   2435.000    341.557     24.090   -999.250    452.532      7.932      1.025      0.923      1.897      1.699      2.725      1.852      2.093      2.464     88.636     93.669
   2435.125    337.885     23.761   -999.250    435.065      7.898      0.603      1.886      1.899      1.598      2.696      1.796      2.203      2.611     88.714     93.670
   2435.250    337.151     23.900   -999.250    425.974      7.974      1.696      1.228      1.988      1.571      2.696      1.796      2.294      2.739     88.835     93.669
   2435.375    339.721     23.957   -999.250    419.481      8.797      0.513      0.538      2.245      1.546      2.754      2.064      2.294      2.841     88.854     93.671
   2435.500    336.009     23.648   -999.250    413.636      8.658      3.114      3.127      2.341      1.546      2.754      2.318      2.318      2.841     88.799     93.669
   2435.625    330.176     23.372   -999.250    408.442      8.261      1.886      1.620      2.145      1.597      2.841      2.072      2.318      2.841     88.846     93.672
   2435.750    322.100     23.325   -999.250    403.896      8.419      1.013      2.192      2.003      1.648      2.812      1.910      2.343      2.841     88.848     93.668
   2435.875    320.631     23.328   -999.250    400.000      8.823      2.038      2.795      1.893      1.776      2.986      1.815      2.342      2.841     88.854     93.673
   2436.000    317.517     23.389   -999.250    398.734      9.233      3.101      3.582      1.752      1.904      3.101      1.673      2.341      2.813     88.860     93.667
   2436.125    309.710     23.425   -999.250    403.247      9.205      3.430      3.215      1.688      2.031      3.159      1.639      2.340      2.700     89.037     93.675
   2436.250    302.226     23.823   -999.250    412.338      9.142      2.718      2.679      1.698      2.082      3.101      1.606      2.297      2.673     89.015     93.665
   2436.375    294.934     24.049   -999.250    426.623      9.583      2.128      2.179      1.821      2.108      3.043      1.702      2.203      2.673     89.003     93.676
   2436.500    291.263     23.614   -999.250    431.818      9.188      3.000      3.000      1.931      2.133      2.986      1.815      2.158      2.700     89.179     93.663
   2436.625    291.997     23.413   -999.250    435.065      9.089      2.385      2.487      1.945      2.134      2.957      1.910      2.158      2.728     89.165     93.678
   2436.750    303.010     23.325   -999.250    440.260      8.603      2.615      2.090      2.042      2.158      2.928      1.989      2.158      2.784     89.165     93.822
   2436.875    312.555     23.323   -999.250    448.701      8.850      1.658      2.436      2.164      2.185      2.986      2.030      2.115      2.813     89.188     93.839
   2437.000    316.226     23.387   -999.250    460.127      8.531      2.910      2.923      2.125      2.209      2.986      2.051      2.073      2.566     89.138     93.821
   2437.125    317.327     23.112   -999.250    478.481      8.073      1.367      1.342      1.923      2.236      3.043      1.862      1.999      2.237     88.913     93.679
   2437.250    317.695     22.942   -999.250    496.203      7.863      1.861      1.962      1.778      2.285      3.101      1.665      1.939      2.030     89.000     93.822
   2437.375    316.960     23.141   -999.250    513.291      8.005      2.487      2.590      1.588      2.339      3.130      1.519      1.881      1.979     89.007     93.679
