~Version Information Block
 VERS.                2.00:     CWLS LOG ASCII STANDARD - VERSION 2.000000
 WRAP.                  NO:     One Line Per Depth Step
#
~Well Information Block
#MNEM.UNIT                     Data                         Information
#----------   ------------------------------------------   ----------------
 STRT.M                                        110.000:
 STOP.M                                       2506.000:
 STEP.M                                          0.125:
 NULL.                                        -999.250:
 COMP.                                   测井数据库导出:     COMPANY 
 WELL.                                         孤南152-9:     Well 
 FLD .                                                :     Field 
 LOC .                                                :     LOCATION
 CNTY.                                                :     COUNTY
 STAT.                                                :     STATE
 CTRY.                                                :     COUNTRY
 SRVC.                                                :     SERVICE COMPANY
 DATE.                                                :     DATE
 API .                                                :     API NUMBER
#
~Curve Information Block
#MNEM.UNIT       API CODE      Curve Description
#----------    -------------   -------------------
 DEPT.M                    :   Depth in Meters
 AC  .微秒/米                      :   AC
 CAL .厘米                      :   CAL
 COND.毫西门子/米                      :   COND
 GR  .API                      :   GR
 R25 .欧姆米                      :   R25
 R4  .欧姆米                      :   R4
 RFOC.欧姆米                      :   RFOC
 RILD.欧姆米                      :   RILD
 RILM.欧姆米                      :   RILM
 RLML.欧姆米                      :   RLML
 RNML.欧姆米                      :   RNML
 SP  .毫伏                      :   SP
#
~A  DEPTH          AC        CAL       COND         GR        R25         R4       RFOC       RILD       RILM       RLML       RNML         SP
# ...
   1279.000    499.000     23.400    520.347     73.600      2.560      3.080      1.711      1.922      1.813      0.620      0.800     -9.250
   1279.125    498.000     23.200    520.347     74.400      2.560      3.000      1.736      1.922      1.813      0.600      0.780     -9.250
   1279.250    498.000     23.400    520.347     75.200      2.560      2.920      1.787      1.922      1.813      0.600      0.760     -9.250
   1279.375    496.000     23.800    512.854     76.400      2.480      2.920      1.787      1.950      1.840      0.640      0.740     -9.250
   1279.500    493.000     24.700    505.469     78.800      2.480      2.920      1.787      1.978      1.840      0.620      0.740     -9.500
   1279.625    489.000     25.100    498.190     78.800      2.480      2.920      1.787      2.007      1.894      0.620      0.740     -9.500
   1279.750    483.000     25.500    483.946     78.000      2.520      2.920      1.787      2.066      1.922      0.580      0.700     -9.500
   1279.875    475.000     25.500    470.109     76.400      2.520      2.920      1.787      2.127      2.007      0.580      0.680     -9.500
   1280.000    466.000     25.800    463.339     75.200      2.520      3.000      1.787      2.158      2.097      0.580      0.700     -9.750
   1280.125    457.000     25.900    456.667     73.600      2.560      3.160      1.840      2.190      2.222      0.580      0.740    -10.000
   1280.250    443.000     26.300    456.667     73.200      2.640      3.160      2.007      2.190      2.287      0.660      0.820    -10.250
   1280.375    431.000     27.000    456.667     74.400      2.760      3.200      2.158      2.190      2.321      0.720      0.880    -10.250
   1280.500    426.000     27.600    456.667     79.200      2.840      3.280      2.158      2.190      2.254      0.780      0.860     -9.750
   1280.625    431.000     28.300    443.610     87.600      3.000      3.400      2.066      2.254      2.222      0.600      0.700     -9.500
   1280.750    439.000     29.900    437.222     94.400      3.000      3.480      1.950      2.287      2.222      0.520      0.640     -9.500
   1280.875    445.000     30.700    437.222     97.200      3.080      3.560      1.840      2.287      2.222      0.520      0.660     -9.500
   1281.000    445.000     28.900    437.222     97.200      3.160      3.560      1.840      2.287      2.287      0.620      0.800     -9.250
   1281.125    444.000     27.900    443.610     96.400      3.160      3.560      2.066      2.254      2.321      0.760      0.920     -9.250
   1281.250    446.000     28.000    450.092     95.600      3.160      3.480      2.097      2.222      2.287      0.680      0.780     -9.000
   1281.375    451.000     29.400    456.667     94.400      3.040      3.400      1.950      2.190      2.254      0.540      0.720     -9.000
   1281.500    456.000     31.700    450.092     92.000      2.920      3.280      1.894      2.222      2.287      0.600      0.760     -9.000
   1281.625    460.000     29.300    443.610     90.000      2.880      3.200      1.894      2.254      2.321      0.560      0.720     -9.250
   1281.750    458.000     27.400    443.610     88.000      2.840      3.080      1.922      2.254      2.321      0.600      0.760     -9.500
   1281.875    455.000     26.400    443.610     84.000      2.840      3.080      1.950      2.254      2.287      0.600      0.760     -9.750
   1282.000    451.000     25.700    450.092     78.400      2.840      3.080      1.922      2.222      2.321      0.600      0.780     -9.750
   1282.125    446.000     25.200    450.092     76.000      2.880      3.080      1.950      2.222      2.321      0.600      0.760     -9.750
   1282.250    444.000     25.100    450.092     77.600      2.880      3.080      1.978      2.222      2.287      0.600      0.760     -9.750
   1282.375    445.000     25.400    456.667     78.400      2.880      3.160      1.978      2.190      2.287      0.580      0.760     -9.500
   1282.500    448.000     25.300    456.667     76.000      3.000      3.200      1.950      2.190      2.254      0.580      0.760     -9.250
   1282.625    454.000     25.400    456.667     72.800      3.040      3.200      1.922      2.190      2.222      0.600      0.760     -9.250
   1282.750    459.000     25.400    456.667     71.600      3.160      3.280      1.894      2.190      2.190      0.600      0.760     -9.250
   1282.875    466.000     24.800    456.667     72.400      3.160      3.280      1.867      2.190      2.158      0.620      0.800     -9.250
   1283.000    470.000     24.700    463.339     73.200      3.200      3.280      1.840      2.158      2.158      0.680      0.820     -9.500
   1283.125    475.000     24.600    470.109     74.400      3.280      3.360      1.840      2.127      2.097      0.660      0.800     -9.500
   1283.250    478.000     25.100    483.946     77.200      3.320      3.360      1.840      2.066      2.037      0.660      0.800     -9.500
   1283.375    483.000     25.600    498.190     81.200      3.360      3.360      1.840      2.007      1.978      0.660      0.760     -9.500
   1283.500    489.000     25.500    520.347     84.400      3.440      3.360      1.762      1.922      1.867      0.620      0.720     -9.500
   1283.625    498.000     25.200    535.663     85.200      3.440      3.360      1.687      1.867      1.762      0.540      0.680     -9.750
   1283.750    507.000     24.000    559.486     83.600      3.440      3.360      1.638      1.787      1.662      0.560      0.700     -9.750
   1283.875    512.000     23.300    592.906     82.800      3.320      3.280      1.638      1.687      1.546      0.660      0.720     -9.750
   1284.000    518.000     23.100    628.323     82.400      3.200      3.200      1.638      1.592      1.417      0.720      0.780     -9.750
   1284.125    523.000     23.100    656.266     81.200      3.080      3.160      1.592      1.524      1.299      0.700      0.740     -9.750
   1284.250    529.000     23.000    675.583     78.800      2.920      3.080      1.480      1.480      1.208      0.660      0.760     -9.750
   1284.375    537.000     23.000    695.468     76.800      2.760      2.920      1.337      1.438      1.157      0.860      0.760     -9.500
   1284.500    544.000     23.500    715.939     76.000      2.560      2.720      1.299      1.397      1.124      0.740      0.660     -9.500
   1284.625    546.000     23.400    715.939     76.400      2.320      2.600      1.337      1.397      1.124      0.660      0.620     -9.500
   1284.750    544.000     23.400    726.399     78.400      2.200      2.520      1.438      1.377      1.124      0.580      0.640     -9.500
   1284.875    541.000     22.800    715.939     82.400      2.080      2.440      1.480      1.397      1.140      0.540      0.620     -9.500
   1285.000    537.000     22.500    705.629     84.800      2.040      2.440      1.480      1.417      1.157      0.520      0.600     -9.750
   1285.125    535.000     22.500    685.454     84.800      2.000      2.440      1.480      1.459      1.191      0.500      0.600     -9.750
   1285.250    532.000     22.300    665.855     82.800      2.000      2.440      1.502      1.502      1.244      0.500      0.620     -9.750
   1285.375    531.000     22.100    637.502     80.000      2.000      2.520      1.524      1.569      1.280      0.560      0.680     -9.750
   1285.500    531.000     22.400    628.323     80.000      2.080      2.600      1.592      1.592      1.318      0.620      0.700     -9.750
   1285.625    531.000     22.400    628.323     80.800      2.120      2.600      1.638      1.592      1.357      0.680      0.700     -9.750
   1285.750    531.000     22.800    628.323     82.800      2.160      2.640      1.662      1.592      1.377      0.680      0.700    -10.000
   1285.875    531.000     23.000    628.323     86.400      2.160      2.640      1.687      1.592      1.377      0.820      0.680    -10.250
