~Version Information Block
 VERS.                2.00:     CWLS LOG ASCII STANDARD - VERSION 2.000000
 WRAP.                  NO:     One Line Per Depth Step
#
~Well Information Block
#MNEM.UNIT                     Data                         Information
#----------   ------------------------------------------   ----------------
 STRT.M                                        189.625:
 STOP.M                                       2185.000:
 STEP.M                                          0.125:
 NULL.                                        -999.250:
 COMP.                                   ²â¾®Êý¾Ý¿âµ¼³ö:     COMPANY 
 WELL.                                         ¹ÂÄÏ152-4:     Well 
 FLD .                                                :     Field 
 LOC .                                                :     LOCATION
 CNTY.                                                :     COUNTY
 STAT.                                                :     STATE
 CTRY.                                                :     COUNTRY
 SRVC.                                                :     SERVICE COMPANY
 DATE.                                                :     DATE
 API .                                                :     API NUMBER
#
~Curve Information Block
#MNEM.UNIT       API CODE      Curve Description
#----------    -------------   -------------------
 DEPT.M                    :   Depth in Meters
 AC  .Î¢Ãë/Ã×                      :   AC
 CAL .ÀåÃ×                      :   CAL
 CAL .ÀåÃ×                      :   CAL
 COND.mS/m                      :   COND
 GR  .Î¢ÂØÇÙ/Ð¡Ê±                      :   GR
 RLML.Å·Ä·Ã×                      :   RLML
 RNML.Å·Ä·Ã×                      :   RNML
 R04 .Å·Ä·Ã×                      :   R04
 R25 .Å·Ä·Ã×                      :   R25
 R25 .Å·Ä·Ã×                      :   R25
 R4  .Å·Ä·Ã×                      :   R4
 SP  .ºÁ·ü                      :   SP
 SP  .ºÁ·ü                      :   SP
#
~A  DEPTH          AC        CAL        CAL       COND         GR       RLML       RNML        R04        R25        R25         R4         SP         SP
# ...
   1392.125    547.338     22.962   -999.250    600.140      8.387      1.405      1.315      1.774      1.567      1.543      1.467    169.367    138.670
   1392.250    532.772     21.757   -999.250    604.356      8.077      1.360      1.306      1.779      1.519      1.546      1.491    169.502    138.817
   1392.375    518.206     20.868   -999.250    601.569      7.650      1.389      1.256      1.792      1.567      1.625      1.510    169.637    138.830
   1392.500    503.640     21.025   -999.250    597.414      7.831      1.380      1.271      1.804      1.608      1.692      1.502    169.772    138.976
   1392.625    490.665     21.998   -999.250    593.260      7.638      1.432      1.280      1.817      1.693      1.759      1.508    169.906    138.989
   1392.750    482.348     22.952   -999.250    589.106      7.446      1.535      1.255      1.829      1.748      1.824      1.541    169.981    138.976
   1392.875    476.625     24.026   -999.250    584.952      7.313      1.313      1.197      1.842      1.845      1.871      1.580    169.967    139.148
   1393.000    470.902     24.596   -999.250    582.047      7.499      1.251      1.142      1.859      1.927      1.973      1.607    170.149    139.295
   1393.125    472.245     25.063   -999.250    580.772      7.443      1.189      1.148      1.884      1.999      2.121      1.624    170.156    139.308
   1393.250    474.089     25.199   -999.250    581.409      7.336      1.427      1.228      1.908      2.080      2.264      1.684    170.158    139.295
   1393.375    472.416     25.330   -999.250    583.959      7.509      1.362      1.322      1.932      2.202      2.407      1.764    170.149    139.308
   1393.500    466.439     25.469   -999.250    587.146      7.466      1.655      1.376      1.956      2.308      2.551      1.810    170.143    139.454
   1393.625    456.239     25.605   -999.250    596.707      8.021      1.068      1.029      1.975      2.482      2.693      1.813    170.143    139.467
   1393.750    449.863     26.112   -999.250    603.081      7.938      1.602      1.204      1.956      2.581      2.817      1.863    170.144    139.455
   1393.875    444.903     27.592   -999.250    610.729      7.779      1.509      1.334      1.901      2.670      2.754      1.908    170.138    139.467
   1394.000    438.911     29.209   -999.250    616.466      7.755      1.299      1.179      1.822      2.767      2.620      1.915    170.004    139.614
   1394.125    435.838     30.822   -999.250    623.477      8.262      1.101      1.062      1.744      2.863      2.489      1.893    170.059    139.625
   1394.250    459.756     32.299   -999.250    629.851      8.237      1.002      0.956      1.671      2.788      2.357      1.865    170.134    139.615
   1394.375    493.722     28.973   -999.250    636.863      8.743      0.966      0.889      1.637      2.657      2.222      1.838    170.141    139.625
   1394.500    527.687     23.973   -999.250    643.874      8.402      1.146      1.048      1.605      2.510      2.150      1.820    170.143    139.775
   1394.625    534.455     21.334   -999.250    648.336      8.185      1.329      1.208      1.592      2.381      2.085      1.786    170.146    139.783
   1394.750    527.641     20.644   -999.250    651.523      8.048      1.387      1.229      1.628      2.255      2.054      1.787    170.158    139.776
   1394.875    518.078     20.485   -999.250    652.693      8.394      1.353      1.168      1.666      2.127      2.023      1.838    169.980    139.782
   1395.000    505.328     20.439   -999.250    653.410      8.793      1.332      1.172      1.704      2.076      1.989      1.916    170.018    139.777
   1395.125    496.403     20.496   -999.250    654.072      8.438      1.417      1.164      1.742      2.025      1.962      2.019    170.136    139.781
   1395.250    486.840     20.555   -999.250    653.435      8.745      1.398      1.138      1.775      1.999      1.951      2.092    170.144    139.699
   1395.375    482.377     20.611   -999.250    651.523      8.822      1.449      1.111      1.796      1.975      1.956      2.207    170.144    139.620
   1395.500    481.284     20.783   -999.250    646.865      8.578      1.405      1.149      1.820      1.999      2.008      2.284    170.131    139.621
   1395.625    479.827     21.299   -999.250    642.323      8.267      1.323      1.119      1.844      2.077      2.089      2.269    170.000    139.619
   1395.750    474.806     22.713   -999.250    638.775      7.995      1.049      1.062      1.869      2.152      2.212      2.222    169.965    139.621
   1395.875    464.526     24.179   -999.250    637.022      7.814      1.463      1.176      1.874      2.205      2.312      2.201    169.978    139.619
   1396.000    454.964     25.643   -999.250    636.225      8.124      1.306      1.231      1.863      2.254      2.413      2.309    169.985    139.622
   1396.125    447.313     27.159   -999.250    637.724      7.852      1.169      1.123      1.797      2.314      2.491      2.434    169.984    139.618
   1396.250    438.239     29.000   -999.250    642.051      7.464      1.187      1.062      1.722      2.362      2.411      2.560    169.985    139.543
   1396.375    429.463     30.776   -999.250    646.379      7.239      1.106      1.105      1.645      2.414      2.301      2.621    169.984    139.459
   1396.500    452.653     32.079   -999.250    650.706      7.657      1.246      1.080      1.585      2.457      2.192      2.452    169.977    139.384
   1396.625    499.630     31.216   -999.250    655.033      7.416      1.105      1.080      1.562      2.299      2.082      2.277    169.856    139.459
   1396.750    525.729     26.992   -999.250    658.491      7.661      0.940      0.923      1.540      2.071      1.963      2.103    169.822    139.304
   1396.875    515.369     22.836   -999.250    661.352      8.917      1.053      0.844      1.518      1.847      1.836      1.929    169.823    139.300
   1397.000    502.778     20.888   -999.250    664.271      8.802      1.397      1.188      1.518      1.669      1.742      1.761    169.825    139.304
   1397.125    490.665     21.745   -999.250    663.115      9.051      1.320      1.129      1.518      1.569      1.643      1.659    169.825    139.220
   1397.250    479.062     22.893   -999.250    657.031      8.831      1.368      1.117      1.516      1.542      1.574      1.588    169.822    139.304
   1397.375    468.989     24.346   -999.250    650.946      8.711      1.280      1.124      1.571      1.556      1.540      1.565    169.823    139.300
   1397.500    465.164     26.203   -999.250    644.862      8.647      1.072      1.069      1.638      1.567      1.542      1.558    169.878    139.303
   1397.625    493.767     28.029   -999.250    638.777      8.510      0.949      0.974      1.706      1.619      1.612      1.565    169.956    139.221
   1397.750    508.515     25.998   -999.250    632.693      8.895      0.885      0.937      1.774      1.669      1.685      1.616    169.913    139.223
   1397.875    503.256     23.335   -999.250    626.923      9.027      1.353      1.117      1.841      1.696      1.751      1.699    169.839    139.222
   1398.000    490.665     21.432   -999.250    623.601      8.628      1.935      1.453      1.894      1.796      1.826      1.794    169.822    139.063
   1398.125    474.727     22.797   -999.250    620.279      8.451      1.792      1.393      1.933      1.874      1.857      1.888    169.874    139.142
   1398.250    456.239     24.290   -999.250    616.957      8.728      1.376      1.254      1.971      1.949      1.887      1.941    169.887    139.063
   1398.375    435.200     25.820   -999.250    614.554      8.596      1.282      1.152      1.977      2.026      1.939      1.943    169.965    139.063
   1398.500    414.800     26.921   -999.250    616.466      8.404      1.213      1.075      1.979      2.101      2.063      1.963    169.997    139.142
