~Version Information Block
 VERS.                2.00:     CWLS LOG ASCII STANDARD - VERSION 2.000000
 WRAP.                  NO:     One Line Per Depth Step
#
~Well Information Block
#MNEM.UNIT                     Data                         Information
#----------   ------------------------------------------   ----------------
 STRT.M                                        195.000:
 STOP.M                                       2555.000:
 STEP.M                                          0.125:
 NULL.                                        -999.250:
 COMP.                                   ²â¾®Êý¾Ý¿âµ¼³ö:     COMPANY 
 WELL.                                        ¹ÂÄÏ152-08:     Well 
 FLD .                                                :     Field 
 LOC .                                                :     LOCATION
 CNTY.                                                :     COUNTY
 STAT.                                                :     STATE
 CTRY.                                                :     COUNTRY
 SRVC.                                                :     SERVICE COMPANY
 DATE.                                                :     DATE
 API .                                                :     API NUMBER
#
~Curve Information Block
#MNEM.UNIT       API CODE      Curve Description
#----------    -------------   -------------------
 DEPT.M                    :   Depth in Meters
 AC  .Î¢Ãë/Ã×                      :   AC
 CAL .ÀåÃ×                      :   CAL
 CAL .ÀåÃ×                      :   CAL
 COND.mS/m                      :   COND
 GR  .Î¢Â×ÇÙ                      :   GR
 RLML.Å·Ä·Ã×                      :   RLML
 RNML.Å·Ä·Ã×                      :   RNML
 R04 .Å·Ä·Ã×                      :   R04
 R25 .Å·Ä·Ã×                      :   R25
 R4  .Å·Ä·Ã×                      :   R4
 RFOC.Å·Ä·Ã×                      :   RFOC
 RILD.Å·Ä·Ã×                      :   RILD
 RILM.Å·Ä·Ã×                      :   RILM
 SP  .mv                      :   SP
 SP  .ºÁ·ü                      :   SP
#
~A  DEPTH          AC        CAL        CAL       COND         GR       RLML       RNML        R04        R25         R4       RFOC       RILD       RILM         SP         SP
# ...
   1966.000    321.228     23.852   -999.250    661.039      5.735      1.203      0.897      1.267      1.876      2.841      1.271      1.436      1.778     66.504     69.626
   1966.125    332.413     23.500   -999.250    700.625      6.319      0.872      1.114      1.392      1.878      2.899      1.407      1.378      1.778     66.569     69.790
   1966.250    345.595     23.461   -999.250    734.375      6.759      1.114      1.494      1.663      1.876      2.899      1.673      1.239      1.743     66.701     69.945
   1966.375    361.747     23.516   -999.250    760.256      7.255      0.949      2.064      1.312      1.801      2.957      1.521      1.201      1.550     66.710     70.113
   1966.500    388.424     23.324   -999.250    778.205      7.839      1.911      0.910      1.096      1.749      2.928      1.130      1.177      1.385     66.696     70.264
   1966.625    408.737     23.250   -999.250    789.103      7.874      1.038      1.291      0.928      1.699      2.986      0.960      1.153      1.195     66.872     70.276
   1966.750    431.498     23.682   -999.250    799.359      7.874      1.962      2.000      0.825      1.622      2.957      0.858      1.136      1.159     66.869     70.423
   1966.875    450.656     24.789   -999.250    817.949      7.970      1.557      0.641      0.771      1.546      2.899      0.837      1.124      1.147     66.868     70.438
   1967.000    480.342     25.801   -999.250    839.103      7.783      0.590      0.795      0.827      1.469      2.841      0.820      1.113      1.147     66.791     70.263
   1967.125    501.248     26.837   -999.250    832.051      7.646      0.949      1.089      0.839      1.436      2.725      0.889      1.130      1.124     66.716     70.279
   1967.250    503.891     27.901   -999.250    735.625      7.595      1.430      1.430      0.948      1.341      2.551      0.975      1.192      1.113     66.727     70.422
   1967.375    496.843     28.626   -999.250    728.125      8.255      0.500      0.487      0.993      1.241      2.464      1.021      1.290      1.085     66.552     70.280
   1967.500    485.830     27.424   -999.250    675.325      8.175      0.603      0.641      0.976      1.226      2.290      1.026      1.450      1.068     66.558     70.421
   1967.625    469.677     25.796   -999.250    636.842      8.386      0.897      0.821      0.979      1.190      2.145      0.985      1.480      1.096     66.553     70.439
   1967.750    452.790     24.269   -999.250    639.474      8.805      0.808      0.974      1.004      1.162      2.058      1.026      1.480      1.220     66.506     70.580
   1967.875    438.840     23.806   -999.250    643.421      8.235      0.641      0.782      1.133      1.190      2.029      1.079      1.480      1.526     66.593     70.758
   1968.000    400.567     23.796   -999.250    647.368      7.951      0.910      0.641      1.249      1.239      2.145      1.232      1.511      1.590     66.852     71.060
   1968.125    366.130     24.039   -999.250    598.750      7.731      1.165      1.203      1.304      1.267      2.087      1.310      1.606      1.673     66.858     71.237
   1968.250    339.629     24.744   -999.250    579.375      8.064      0.962      1.025      1.310      1.340      2.261      1.323      1.673      1.742     66.844     71.220
   1968.375    321.503     25.741   -999.250    563.750      8.587      0.859      0.821      1.298      1.420      2.377      1.310      1.707      1.833     67.186     71.395
   1968.500    320.631     26.090   -999.250    548.734      9.028      1.658      1.734      1.247      1.544      2.464      1.284      1.725      1.890     67.570     71.381
   1968.625    327.962     25.897   -999.250    558.125      9.328      0.782      0.949      1.196      1.649      2.522      1.220      1.725      1.890     67.513     71.072
   1968.750    339.721     25.565   -999.250    581.250      8.753      0.949      1.013      1.214      1.748      2.609      1.207      1.673      1.910     67.512     71.221
   1968.875    338.253     25.498   -999.250    603.947      8.459      0.679      1.278      1.229      1.853      2.667      1.232      1.574      1.852     67.482     71.068
   1969.000    337.518     24.693   -999.250    626.974      8.603      1.342      1.114      1.227      1.953      2.812      1.207      1.511      1.760     67.333     70.582
   1969.125    341.189     24.061   -999.250    651.299      8.301      0.885      0.872      1.121      1.980      2.870      1.124      1.465      1.673     66.914     69.944
   1969.250    359.545     23.943   -999.250    670.130      7.875      1.316      1.937      1.065      2.055      2.899      1.058      1.421      1.606     66.659     69.622
   1969.375    365.419     24.324   -999.250    683.766      8.176      1.759      1.570      1.148      2.056      2.899      1.124      1.393      1.606     66.401     69.140
   1969.500    366.153     24.773   -999.250    694.156      7.947      0.769      0.769      1.235      2.004      2.899      1.195      1.351      1.590     66.005     68.503
   1969.625    362.482     24.823   -999.250    703.750      7.922      0.949      1.101      1.254      1.953      2.899      1.258      1.351      1.574     65.582     67.856
   1969.750    359.545     24.542   -999.250    711.875      8.298      1.405      1.506      1.256      1.877      2.870      1.284      1.337      1.590     65.093     66.903
   1969.875    361.997     24.316   -999.250    723.750      8.886      1.025      1.025      1.174      1.825      2.841      1.207      1.310      1.574     64.461     66.253
   1970.000    366.153     24.123   -999.250    733.750      8.373      0.654      0.654      1.093      1.750      2.928      1.058      1.310      1.511     63.677     65.464
   1970.125    370.558     23.838   -999.250    748.125      7.835      1.089      0.923      1.038      1.723      2.899      1.036      1.279      1.511     62.962     65.131
   1970.250    363.216     23.591   -999.250    756.410      8.317      0.987      1.468      1.111      1.674      2.899      1.090      1.264      1.542     62.123     64.504
   1970.375    348.532     23.694   -999.250    758.974      8.621      1.557      0.667      1.220      1.646      2.957      1.195      1.248      1.590     61.116     63.691
   1970.500    340.088     24.141   -999.250    764.744      8.386      0.692      1.114      1.380      1.623      2.928      1.351      1.233      1.622     60.007     63.063
   1970.625    331.645     24.624   -999.250    775.641      8.872      1.620      1.633      1.458      1.595      2.928      1.450      1.220      1.656     59.131     61.930
   1970.750    321.366     24.727   -999.250    788.462      8.026      0.551      0.654      1.461      1.598      2.928      1.480      1.207      1.622     58.209     60.823
   1970.875    321.366     24.757   -999.250    803.205      6.946      1.506      1.899      1.427      1.595      2.899      1.421      1.183      1.656     56.872     59.690
   1971.000    334.749     24.876   -999.250    823.077      5.973      1.810      1.127      1.311      1.599      2.899      1.364      1.136      1.582     55.814     58.581
   1971.125    346.696     24.354   -999.250    842.308      6.699      0.513      0.487      1.325      1.620      2.841      1.351      1.147      1.526     54.080     57.609
   1971.250    350.367     23.862   -999.250    860.000      6.435      1.139      1.937      1.311      1.624      2.841      1.323      1.113      1.436     52.594     56.179
   1971.375    352.203     24.176   -999.250    880.000      6.021      1.797      1.544      1.274      1.620      2.870      1.297      1.079      1.378     51.369     55.369
   1971.500    347.935     25.037   -999.250    900.000      5.609      1.253      1.051      1.214      1.574      2.841      1.195      1.047      1.323     50.162     54.098
   1971.625    343.392     25.574   -999.250    920.130      5.200      0.410      0.410      1.131      1.543      2.725      1.113      1.034      1.271     49.044     52.912
