~Version Information Block
 VERS.                2.00:     CWLS LOG ASCII STANDARD - VERSION 2.000000
 WRAP.                  NO:     One Line Per Depth Step
#
~Well Information Block
#MNEM.UNIT                     Data                         Information
#----------   ------------------------------------------   ----------------
 STRT.M                                        189.625:
 STOP.M                                       2185.000:
 STEP.M                                          0.125:
 NULL.                                        -999.250:
 COMP.                                   ²â¾®Êý¾Ý¿âµ¼³ö:     COMPANY 
 WELL.                                         ¹ÂÄÏ152-4:     Well 
 FLD .                                                :     Field 
 LOC .                                                :     LOCATION
 CNTY.                                                :     COUNTY
 STAT.                                                :     STATE
 CTRY.                                                :     COUNTRY
 SRVC.                                                :     SERVICE COMPANY
 DATE.                                                :     DATE
 API .                                                :     API NUMBER
#
~Curve Information Block
#MNEM.UNIT       API CODE      Curve Description
#----------    -------------   -------------------
 DEPT.M                    :   Depth in Meters
 AC  .Î¢Ãë/Ã×                      :   AC
 CAL .ÀåÃ×                      :   CAL
 CAL .ÀåÃ×                      :   CAL
 COND.mS/m                      :   COND
 GR  .Î¢ÂØÇÙ/Ð¡Ê±                      :   GR
 RLML.Å·Ä·Ã×                      :   RLML
 RNML.Å·Ä·Ã×                      :   RNML
 R04 .Å·Ä·Ã×                      :   R04
 R25 .Å·Ä·Ã×                      :   R25
 R25 .Å·Ä·Ã×                      :   R25
 R4  .Å·Ä·Ã×                      :   R4
 SP  .ºÁ·ü                      :   SP
 SP  .ºÁ·ü                      :   SP
#
~A  DEPTH          AC        CAL        CAL       COND         GR       RLML       RNML        R04        R25        R25         R4         SP         SP
# ...
    833.125    457.593     27.514   -999.250    357.047      6.560      1.845      1.644      3.557      4.597      4.385      4.139    159.315    129.893
    833.250    446.038     27.816   -999.250    359.596      6.358      1.252      1.890      3.536      4.599      4.510      4.178    159.315    129.897
    833.375    430.100     27.922   -999.250    362.146      6.474      1.506      1.820      3.401      4.472      4.529      4.038    159.315    129.893
    833.500    441.576     26.898   -999.250    364.695      6.187      1.712      1.851      3.266      4.304      4.479      3.894    159.323    129.897
    833.625    437.299     26.374   -999.250    367.882      5.990      1.616      1.794      3.125      4.134      4.323      3.750    159.344    129.893
    833.750    433.288     26.779   -999.250    369.795      6.217      1.917      1.865      3.034      3.964      4.123      3.605    159.364    129.896
    833.875    449.863     28.011   -999.250    370.432      6.313      1.654      1.566      3.009      3.796      3.922      3.461    159.384    129.894
    834.000    459.426     29.263   -999.250    369.157      6.872      1.223      1.333      2.972      3.625      3.718      3.317    159.404    129.736
    834.125    457.514     29.519   -999.250    367.245      6.553      1.384      1.406      2.928      3.531      3.583      3.184    159.424    129.735
    834.250    468.352     28.929   -999.250    364.695      7.120      1.561      1.556      2.939      3.621      3.479      3.136    159.444    129.735
    834.375    480.712     29.589   -999.250    362.783      7.697      1.863      1.663      2.970      3.722      3.459      3.159    159.463    129.736
    834.500    481.102     29.169   -999.250    360.871      7.247      1.532      1.417      3.031      3.809      3.476      3.280    159.474    129.734
    834.625    466.200     28.234   -999.250    358.959      6.857      1.434      1.247      3.104      3.887      3.514      3.462    159.474    129.578
    834.750    455.362     27.501   -999.250    355.276      7.390      1.064      1.181      3.200      3.987      3.610      3.647    159.474    129.574
    834.875    445.919     29.514   -999.250    352.479      6.970      1.205      1.268      3.312      4.116      3.720      3.761    159.477    129.579
    835.000    433.160     31.111   -999.250    349.681      7.167      1.233      1.238      3.411      4.216      3.831      3.875    159.491    129.573
    835.125    412.887     30.540   -999.250    346.848      7.059      1.059      1.154      3.532      4.293      3.943      3.990    159.315    129.579
    835.250    435.345     29.960   -999.250    346.848      6.574      1.239      1.620      3.615      4.419      4.054      4.122    159.318    129.573
    835.375    463.961     28.769   -999.250    347.486      5.952      1.950      2.032      3.716      4.522      4.165      4.232    159.316    129.420
    835.500    476.639     26.644   -999.250    349.398      5.990      2.354      2.380      3.820      4.648      4.276      4.357    159.315    129.414
    835.625    463.291     25.147   -999.250    353.222      5.953      2.088      2.226      3.895      4.750      4.387      4.491    159.315    129.419
    835.750    449.231     24.434   -999.250    358.497      6.127      2.216      2.358      3.988      4.825      4.498      4.600    159.315    129.415
    835.875    433.925     23.851   -999.250    363.945      6.014      2.479      2.262      4.072      4.918      4.609      4.705    159.315    129.419
    836.000    425.638     23.562   -999.250    369.393      5.979      2.310      2.329      4.072      4.999      4.720      4.809    159.315    129.415
    836.125    412.250     24.137   -999.250    375.531      6.051      2.192      2.215      4.045      5.081      4.830      4.893    159.315    129.418
    836.250    399.085     24.989   -999.250    383.180      5.620      2.514      2.389      3.906      5.055      4.913      4.905    159.315    129.416
    836.375    393.761     25.334   -999.250    392.741      6.038      2.255      2.346      3.743      4.944      4.913      4.857    159.315    129.418
    836.500    406.002     25.847   -999.250    400.390      6.209      2.584      2.149      3.579      4.699      4.864      4.730    159.315    129.416
    836.625    432.650     26.419   -999.250    410.588      6.131      2.177      1.861      3.390      4.421      4.706      4.502    159.315    129.418
    836.750    456.876     27.400   -999.250    416.324      6.525      1.544      1.648      3.141      4.190      4.466      4.274    159.315    129.416
    836.875    470.264     28.390   -999.250    418.874      6.888      2.027      1.825      2.961      3.887      4.233      4.045    159.315    129.418
    837.000    489.071     29.056   -999.250    421.424      6.818      1.825      1.562      2.778      3.681      3.968      3.803    159.315    129.416
    837.125    504.793     28.028   -999.250    420.149      7.405      1.112      1.149      2.599      3.479      3.742      3.578    159.315    129.418
    837.250    515.927     26.142   -999.250    418.874      7.922      1.596      1.247      2.562      3.325      3.505      3.405    159.315    129.416
    837.375    512.819     25.810   -999.250    415.050      8.393      1.428      1.340      2.634      3.156      3.301      3.257    159.323    129.418
    837.500    506.603     27.063   -999.250    409.950      7.612      1.236      1.208      2.710      2.994      3.102      3.179    159.444    129.495
    837.625    497.678     28.102   -999.250    405.489      7.151      1.252      1.384      2.787      2.996      2.950      3.161    159.476    129.577
    837.750    488.752     28.951   -999.250    402.966      7.292      1.112      1.216      2.871      3.155      2.998      3.226    159.460    129.575
    837.875    480.245     29.289   -999.250    400.376      6.999      1.403      1.330      2.895      3.345      3.149      3.332    159.637    129.577
    838.000    471.539     28.811   -999.250    398.477      7.060      1.105      1.199      2.896      3.503      3.339      3.443    159.631    129.575
    838.125    483.652     28.022   -999.250    398.796      6.634      1.455      1.394      2.898      3.704      3.529      3.578    159.811    129.577
    838.250    497.359     27.768   -999.250    401.098      6.723      1.089      1.190      2.870      3.895      3.720      3.752    159.795    129.735
    838.375    501.821     28.658   -999.250    403.931      6.559      1.445      1.403      2.870      4.088      3.910      3.883    159.973    129.736
    838.500    504.053     28.243   -999.250    406.763      7.036      1.081      1.197      2.869      4.279      4.101      3.976    160.009    129.735
    838.625    505.009     27.126   -999.250    409.313      6.978      1.352      1.370      2.820      4.369      4.295      3.899    160.084    129.735
    838.750    508.834     26.088   -999.250    412.819      7.409      2.041      1.970      2.736      4.173      4.316      3.765    160.122    129.736
    838.875    521.903     25.391   -999.250    416.962      7.305      1.418      1.618      2.654      3.834      3.909      3.620    160.208    129.734
    839.000    539.435     26.338   -999.250    419.511      7.800      2.008      1.266      2.570      3.655      3.612      3.445    160.287    129.737
    839.125    560.155     27.847   -999.250    420.786      8.291      1.119      1.726      2.492      3.427      3.412      3.226    160.275    129.892
    839.250    586.931     27.244   -999.250    420.149      8.788      2.203      1.461      2.430      3.171      3.245      3.025    160.446    129.897
    839.375    586.293     24.752   -999.250    418.555      9.199      1.523      1.197      2.383      3.020      3.132      2.826    160.439    129.892
    839.500    571.375     22.252   -999.250    416.006      8.976      1.108      1.367      2.382      2.942      3.042      2.724    160.557    129.897
