~Version Information Block
 VERS.                2.00:     CWLS LOG ASCII STANDARD - VERSION 2.000000
 WRAP.                  NO:     One Line Per Depth Step
#
~Well Information Block
#MNEM.UNIT                     Data                         Information
#----------   ------------------------------------------   ----------------
 STRT.M                                        189.625:
 STOP.M                                       2185.000:
 STEP.M                                          0.125:
 NULL.                                        -999.250:
 COMP.                                   ²â¾®Êý¾Ý¿âµ¼³ö:     COMPANY 
 WELL.                                         ¹ÂÄÏ152-4:     Well 
 FLD .                                                :     Field 
 LOC .                                                :     LOCATION
 CNTY.                                                :     COUNTY
 STAT.                                                :     STATE
 CTRY.                                                :     COUNTRY
 SRVC.                                                :     SERVICE COMPANY
 DATE.                                                :     DATE
 API .                                                :     API NUMBER
#
~Curve Information Block
#MNEM.UNIT       API CODE      Curve Description
#----------    -------------   -------------------
 DEPT.M                    :   Depth in Meters
 AC  .Î¢Ãë/Ã×                      :   AC
 CAL .ÀåÃ×                      :   CAL
 CAL .ÀåÃ×                      :   CAL
 COND.mS/m                      :   COND
 GR  .Î¢ÂØÇÙ/Ð¡Ê±                      :   GR
 RLML.Å·Ä·Ã×                      :   RLML
 RNML.Å·Ä·Ã×                      :   RNML
 R04 .Å·Ä·Ã×                      :   R04
 R25 .Å·Ä·Ã×                      :   R25
 R25 .Å·Ä·Ã×                      :   R25
 R4  .Å·Ä·Ã×                      :   R4
 SP  .ºÁ·ü                      :   SP
 SP  .ºÁ·ü                      :   SP
#
~A  DEPTH          AC        CAL        CAL       COND         GR       RLML       RNML        R04        R25        R25         R4         SP         SP
# ...
   1840.625    327.685     22.462   -999.250    603.081      8.660      1.378      1.765      4.027      1.672      1.696      1.234    140.841    110.427
   1840.750    322.439     22.539   -999.250    588.421      8.369      1.516      1.752      4.266      1.694      1.739      1.279    140.769    110.390
   1840.875    317.259     22.494   -999.250    577.585      8.704      1.333      1.844      4.532      1.747      1.837      1.346    140.697    110.345
   1841.000    311.521     22.271   -999.250    564.200      9.123      1.604      1.975      4.735      1.873      1.949      1.393    140.507    110.307
   1841.125    303.233     22.050   -999.250    552.727      9.014      1.462      2.077      4.894      1.950      2.071      1.458    140.524    110.285
   1841.250    298.133     21.832   -999.250    540.616      9.613      1.283      1.963      5.013      2.026      2.192      1.536    140.680    110.447
   1841.375    295.583     21.639   -999.250    530.418      9.328      1.516      1.843      5.143      2.128      2.314      1.611    140.625    110.603
   1841.500    291.120     21.664   -999.250    520.857      9.048      1.217      1.884      5.286      2.205      2.435      1.673    140.698    110.607
   1841.625    279.429     21.828   -999.250    513.208      8.737      1.378      1.739      5.533      2.305      2.559      1.748    140.543    110.603
   1841.750    270.719     22.239   -999.250    506.727      8.304      1.275      2.001      5.844      2.358      2.638      1.821    140.752    110.766
   1841.875    272.632     22.633   -999.250    502.529      8.651      1.573      1.888      6.152      2.458      2.706      1.894    140.975    110.921
   1842.000    267.851     23.016   -999.250    497.911      9.159      1.291      1.842      6.441      2.536      2.776      1.946    141.166    111.084
   1842.125    263.069     23.129   -999.250    496.636      9.536      1.980      2.257      6.520      2.661      2.813      2.017    141.476    111.397
   1842.250    269.150     22.419   -999.250    501.138      9.176      1.660      2.356      6.513      2.790      2.818      2.070    141.672    111.492
   1842.375    263.478     21.736   -999.250    511.894      8.830      1.833      2.265      6.412      2.841      2.797      2.130    142.005    111.778
   1842.500    270.560     21.680   -999.250    523.725      9.373      2.195      2.662      6.122      2.891      2.775      2.187    142.239    112.073
   1842.625    279.007     22.536   -999.250    536.473      8.772      2.624      2.798      5.828      2.915      2.713      2.192    142.455    112.360
   1842.750    289.208     23.339   -999.250    548.265      9.095      2.085      2.585      5.561      2.832      2.661      2.132    142.447    112.653
   1842.875    298.133     22.543   -999.250    560.057      9.183      2.608      2.834      5.283      2.743      2.564      2.084    142.565    112.943
   1843.000    305.783     22.162   -999.250    569.618      9.340      2.070      2.612      5.315      2.636      2.463      2.037    142.614    113.234
   1843.125    302.506     23.154   -999.250    579.178      8.885      2.625      2.345      5.390      2.526      2.437      2.017    142.439    113.526
   1843.250    296.858     23.655   -999.250    586.827      8.506      2.302      2.582      5.446      2.433      2.439      2.065    142.456    113.784
   1843.375    297.495     22.503   -999.250    595.751      9.057      1.558      2.302      5.434      2.407      2.525      2.123    142.277    113.789
   1843.500    301.785     23.110   -999.250    606.268      8.920      2.636      3.017      5.385      2.492      2.611      2.182    142.273    113.782
   1843.625    308.343     23.281   -999.250    616.147      9.646      3.716      3.604      5.047      2.574      2.695      2.220    142.151    113.632
   1843.750    314.071     22.123   -999.250    626.490      9.293      2.274      3.067      4.669      2.655      2.770      2.199    142.119    113.262
   1843.875    312.437     22.080   -999.250    636.341      8.938      2.114      2.310      4.380      2.738      2.746      2.124    142.080    112.926
   1844.000    309.290     22.520   -999.250    647.789      9.035      1.586      2.050      4.074      2.814      2.658      1.970    141.927    112.562
   1844.125    310.662     22.346   -999.250    662.963      8.625      1.415      1.749      3.812      2.790      2.568      1.865    141.524    112.203
   1844.250    316.672     22.088   -999.250    679.409      9.157      1.470      1.713      3.586      2.699      2.478      1.763    141.599    111.866
   1844.375    321.721     21.964   -999.250    691.216      8.908      1.363      1.743      3.454      2.612      2.387      1.658    141.408    111.568
   1844.500    322.359     21.848   -999.250    703.789      8.601      1.585      1.835      3.431      2.523      2.300      1.540    141.373    111.387
   1844.625    318.406     21.889   -999.250    714.412      8.729      1.670      1.947      3.434      2.436      2.227      1.466    141.105    110.932
   1844.750    313.270     21.954   -999.250    723.761      8.883      1.561      1.818      3.489      2.330      2.138      1.428    140.976    110.751
   1844.875    308.134     22.010   -999.250    732.047      8.936      1.468      1.771      3.594      2.230      2.056      1.387    140.670    110.455
   1845.000    302.998     22.199   -999.250    740.333      8.772      1.883      2.045      3.689      2.178      2.004      1.352    140.546    110.354
   1845.125    301.958     22.442   -999.250    748.254      8.397      1.677      2.236      3.658      2.153      2.016      1.346    140.383    110.137
   1845.250    306.527     22.690   -999.250    755.245      7.695      1.560      2.080      3.450      2.126      2.029      1.362    140.236    110.118
   1845.375    313.522     22.939   -999.250    762.237      7.710      1.838      2.033      3.266      2.102      1.982      1.380    140.045    109.817
   1845.500    319.877     23.187   -999.250    769.228      7.086      1.660      2.030      3.104      2.101      1.923      1.398    139.902    109.643
   1845.625    325.546     23.440   -999.250    775.689      6.614      1.665      1.950      2.933      2.077      1.863      1.408    139.736    109.496
   1845.750    324.614     23.489   -999.250    779.724      6.920      1.568      1.864      2.742      2.050      1.798      1.360    139.696    109.168
   1845.875    321.781     23.385   -999.250    783.759      6.627      1.560      1.777      2.593      2.001      1.721      1.311    139.454    109.033
   1846.000    320.128     23.271   -999.250    787.794      7.281      1.372      1.691      2.513      1.923      1.634      1.262    139.379    108.900
   1846.125    330.009     23.158   -999.250    791.829      7.682      1.481      1.611      2.533      1.797      1.564      1.245    139.228    108.772
   1846.250    329.392     23.044   -999.250    795.864      7.186      1.564      1.629      2.559      1.669      1.492      1.300    139.116    108.644
   1846.375    325.457     22.931   -999.250    799.899      6.685      1.414      1.666      2.563      1.543      1.432      1.354    138.925    108.512
   1846.500    321.522     22.819   -999.250    800.460      7.387      1.626      1.901      2.518      1.517      1.417      1.383    138.917    108.382
   1846.625    318.534     22.706   -999.250    790.302      7.301      1.275      1.738      2.428      1.543      1.394      1.354    138.949    108.374
   1846.750    326.184     22.681   -999.250    774.965      7.319      1.343      1.467      2.337      1.603      1.313      1.310    139.080    108.536
   1846.875    323.798     22.716   -999.250    762.217      7.551      1.200      1.414      2.245      1.669      1.250      1.265    139.099    108.891
   1847.000    319.950     22.750   -999.250    743.095      7.330      1.081      1.319      2.165      1.670      1.188      1.257    139.218    109.273
