~Version Information Block
 VERS.                2.00:     CWLS LOG ASCII STANDARD - VERSION 2.000000
 WRAP.                  NO:     One Line Per Depth Step
#
~Well Information Block
#MNEM.UNIT                     Data                         Information
#----------   ------------------------------------------   ----------------
 STRT.M                                        195.000:
 STOP.M                                       2555.000:
 STEP.M                                          0.125:
 NULL.                                        -999.250:
 COMP.                                   ²â¾®Êý¾Ý¿âµ¼³ö:     COMPANY 
 WELL.                                        ¹ÂÄÏ152-08:     Well 
 FLD .                                                :     Field 
 LOC .                                                :     LOCATION
 CNTY.                                                :     COUNTY
 STAT.                                                :     STATE
 CTRY.                                                :     COUNTRY
 SRVC.                                                :     SERVICE COMPANY
 DATE.                                                :     DATE
 API .                                                :     API NUMBER
#
~Curve Information Block
#MNEM.UNIT       API CODE      Curve Description
#----------    -------------   -------------------
 DEPT.M                    :   Depth in Meters
 AC  .Î¢Ãë/Ã×                      :   AC
 CAL .ÀåÃ×                      :   CAL
 CAL .ÀåÃ×                      :   CAL
 COND.mS/m                      :   COND
 GR  .Î¢Â×ÇÙ                      :   GR
 RLML.Å·Ä·Ã×                      :   RLML
 RNML.Å·Ä·Ã×                      :   RNML
 R04 .Å·Ä·Ã×                      :   R04
 R25 .Å·Ä·Ã×                      :   R25
 R4  .Å·Ä·Ã×                      :   R4
 RFOC.Å·Ä·Ã×                      :   RFOC
 RILD.Å·Ä·Ã×                      :   RILD
 RILM.Å·Ä·Ã×                      :   RILM
 SP  .mv                      :   SP
 SP  .ºÁ·ü                      :   SP
#
~A  DEPTH          AC        CAL        CAL       COND         GR       RLML       RNML        R04        R25         R4       RFOC       RILD       RILM         SP         SP
# ...
    798.750   -999.250   -999.250   -999.250   -999.250   -999.250   -999.250   -999.250   -999.250      3.589   -999.250   -999.250   -999.250   -999.250   -999.250     35.663
    798.875   -999.250   -999.250   -999.250   -999.250   -999.250   -999.250   -999.250   -999.250      3.640   -999.250   -999.250   -999.250   -999.250   -999.250     35.653
    799.000   -999.250   -999.250   -999.250   -999.250   -999.250   -999.250   -999.250   -999.250      3.691   -999.250   -999.250   -999.250   -999.250   -999.250     35.661
    799.125   -999.250   -999.250   -999.250   -999.250   -999.250   -999.250   -999.250   -999.250      3.742   -999.250   -999.250   -999.250   -999.250   -999.250     35.655
    799.250   -999.250   -999.250   -999.250   -999.250   -999.250   -999.250   -999.250   -999.250      3.717   -999.250   -999.250   -999.250   -999.250   -999.250     35.660
    799.375   -999.250   -999.250   -999.250   -999.250   -999.250   -999.250   -999.250   -999.250      3.665   -999.250   -999.250   -999.250   -999.250   -999.250     35.816
    799.500   -999.250   -999.250   -999.250   -999.250   -999.250   -999.250   -999.250   -999.250      3.641   -999.250   -999.250   -999.250   -999.250   -999.250     35.819
    799.625   -999.250   -999.250   -999.250   -999.250   -999.250   -999.250   -999.250   -999.250      3.589   -999.250   -999.250   -999.250   -999.250   -999.250     35.817
    799.750   -999.250   -999.250   -999.250   -999.250   -999.250   -999.250   -999.250   -999.250      3.590   -999.250   -999.250   -999.250   -999.250   -999.250     35.817
    799.875   -999.250   -999.250   -999.250   -999.250   -999.250   -999.250   -999.250   -999.250      3.615   -999.250   -999.250   -999.250   -999.250   -999.250     35.818
    800.000    434.435     23.908   -999.250    288.617      5.248      1.962      1.873      2.025      3.641      5.266      1.989      3.379      2.756     31.290     35.897
    800.125    443.268     24.360   -999.250    295.439      5.530      1.253      1.215      2.041      3.665      5.139      1.989      3.245      2.784     31.449     35.818
    800.250    452.622     24.619   -999.250    308.045      5.895      1.253      1.582      2.048      3.667      4.911      1.969      3.105      2.784     31.449     35.816
    800.375    461.601     25.071   -999.250    321.809      6.003      1.987      2.000      1.972      3.588      4.456      1.873      2.930      2.619     31.449     35.818
    800.500    464.170     25.289   -999.250    328.830      5.948      1.304      1.544      1.881      3.438      4.456      1.876      2.934      2.624     31.631     35.912
    800.625    466.740     25.619   -999.250    339.681      5.868      1.696      1.734      1.735      3.333      4.203      1.716      2.728      2.453     31.745     35.993
    800.750    468.943     25.533   -999.250    351.809      6.025      1.354      1.506      1.684      3.209      4.127      1.647      2.540      2.318     31.903     36.070
    800.875    471.880     24.963   -999.250    363.298      6.215      1.734      1.747      1.667      3.128      4.101      1.639      2.566      2.180     32.060     36.151
    801.000    476.285     24.289   -999.250    371.596      6.372      1.367      1.329      1.677      3.056      4.152      1.639      2.503      2.093     31.840     36.228
    801.125    472.687     24.125   -999.250    376.702      6.104      0.923      0.910      1.691      3.077      4.253      1.639      2.491      2.062     31.737     36.298
    801.250    467.474     24.109   -999.250    374.787      5.733      1.646      1.646      1.715      3.184      4.380      1.678      2.489      2.026     31.604     36.231
    801.375    463.069     23.887   -999.250    369.043      5.499      1.557      1.570      1.782      3.306      4.557      1.742      2.540      2.010     31.477     36.175
    801.500    464.170     23.611   -999.250    363.298      5.318      2.179      2.205      1.865      3.464      4.709      1.806      2.586      2.010     31.301     36.116
    801.625    471.145     23.498   -999.250    354.362      5.355      1.608      1.608      1.897      3.612      4.886      1.871      2.619      2.098     31.438     36.061
    801.750    474.816     23.961   -999.250    346.702      5.397      1.949      2.038      1.937      3.694      5.038      1.890      2.646      2.180     31.448     36.000
    801.875    478.488     24.942   -999.250    335.851      5.584      1.734      1.684      1.929      3.733      4.962      1.890      2.756      2.216     31.443     35.979
    802.000    478.488     23.843   -999.250    327.553      5.301      1.987      2.013      1.907      3.592      4.886      1.871      2.930      2.302     31.491     35.975
    802.125    475.585     24.131   -999.250    319.894      5.015      1.532      2.192      1.896      3.510      4.785      1.843      2.900      2.388     31.569     35.979
    802.250    471.145     24.579   -999.250    310.957      5.219      2.244      1.886      1.896      3.464      4.709      1.833      3.051      2.473     31.436     35.974
    802.375    472.488     24.893   -999.250    305.213      5.273      1.747      1.405      1.895      3.460      4.608      1.871      3.114      2.559     31.605     35.820
    802.500    472.614     25.338   -999.250    301.383      5.217      1.861      1.861      1.884      3.476      4.557      1.825      3.114      2.619     31.681     35.814
    802.625    471.145     25.621   -999.250    299.468      5.435      1.430      1.253      1.841      3.511      4.658      1.778      3.114      2.600     31.732     35.820
    802.750    468.209     25.513   -999.250    301.383      5.605      1.899      1.911      1.820      3.513      4.785      1.769      3.114      2.592     31.828     35.814
    802.875    464.856     25.055   -999.250    304.574      5.224      1.354      1.620      1.872      3.537      4.911      1.833      3.078      2.606     31.915     35.820
    803.000    460.132     24.529   -999.250    307.128      5.708      2.244      2.269      1.968      3.513      5.038      1.913      3.117      2.646     31.931     35.814
    803.125    459.398     24.180   -999.250    308.404      5.508      1.975      1.899      2.047      3.436      4.861      1.969      3.114      2.675     31.672     35.820
    803.250    460.545     24.155   -999.250    305.851      5.156      1.608      1.215      1.996      3.359      4.684      1.925      3.112      2.742     31.763     35.815
    803.375    463.069     23.949   -999.250    302.021      5.076      1.759      1.709      1.913      3.259      4.633      1.881      3.099      2.776     31.736     35.659
    803.500    463.069     23.601   -999.250    295.638      5.267      1.430      1.278      1.894      3.232      4.709      1.852      3.227      2.728     31.616     35.656
    803.625    460.866     23.543   -999.250    289.894      5.116      2.333      1.734      1.979      3.234      4.810      1.900      3.277      2.687     31.608     35.658
    803.750    464.537     24.068   -999.250    286.064      5.348      2.038      1.392      2.059      3.257      4.886      1.973      3.311      2.673     31.606     35.657
    803.875    474.816     24.824   -999.250    291.139      5.225      2.077      1.785      2.116      3.235      4.734      2.041      3.277      2.700     31.600     35.496
    804.000    484.484     25.364   -999.250    298.101      5.330      1.772      1.342      2.169      3.205      4.557      2.115      3.217      2.728     31.524     35.338
    804.125    497.608     26.128   -999.250    305.063      5.093      1.937      1.886      2.175      3.184      4.456      2.115      3.126      2.728     31.440     35.335
    804.250    510.732     25.124   -999.250    310.127      5.240      1.367      1.241      2.132      3.179      4.380      2.030      3.035      2.728     31.279     35.339
    804.375    519.604     23.978   -999.250    315.823      5.596      0.872      0.885      2.013      3.185      4.354      1.910      2.990      2.619     31.258     35.334
