~Version Information Block
 VERS.                2.00:     CWLS LOG ASCII STANDARD - VERSION 2.000000
 WRAP.                  NO:     One Line Per Depth Step
#
~Well Information Block
#MNEM.UNIT                     Data                         Information
#----------   ------------------------------------------   ----------------
 STRT.M                                        110.000:
 STOP.M                                       2506.000:
 STEP.M                                          0.125:
 NULL.                                        -999.250:
 COMP.                                   测井数据库导出:     COMPANY 
 WELL.                                         孤南152-9:     Well 
 FLD .                                                :     Field 
 LOC .                                                :     LOCATION
 CNTY.                                                :     COUNTY
 STAT.                                                :     STATE
 CTRY.                                                :     COUNTRY
 SRVC.                                                :     SERVICE COMPANY
 DATE.                                                :     DATE
 API .                                                :     API NUMBER
#
~Curve Information Block
#MNEM.UNIT       API CODE      Curve Description
#----------    -------------   -------------------
 DEPT.M                    :   Depth in Meters
 AC  .微秒/米                      :   AC
 CAL .厘米                      :   CAL
 COND.毫西门子/米                      :   COND
 GR  .API                      :   GR
 R25 .欧姆米                      :   R25
 R4  .欧姆米                      :   R4
 RFOC.欧姆米                      :   RFOC
 RILD.欧姆米                      :   RILD
 RILM.欧姆米                      :   RILM
 RLML.欧姆米                      :   RLML
 RNML.欧姆米                      :   RNML
 SP  .毫伏                      :   SP
#
~A  DEPTH          AC        CAL       COND         GR        R25         R4       RFOC       RILD       RILM       RLML       RNML         SP
# ...
    600.000    627.000     25.500    327.128     67.600      4.640      5.120      2.354      3.057      3.057      0.780      0.960    -11.750
    600.125    627.000     25.900    327.128     66.400      4.440      4.840      2.495      3.057      3.102      0.900      1.080    -12.000
    600.250    625.000     22.500    331.908     66.400      4.280      4.800      2.569      3.013      3.102      0.900      1.060    -12.000
    600.375    621.000     21.700    336.757     67.200      4.200      4.840      2.644      2.970      3.102      0.820      0.980    -12.250
    600.500    616.000     23.300    336.757     68.400      4.280      4.920      2.722      2.970      3.102      0.780      0.960    -12.500
    600.625    609.000     24.400    336.757     72.000      4.400      5.080      2.722      2.970      3.013      0.780      1.000    -12.500
    600.750    598.000     24.000    336.757     74.800      4.480      5.200      2.532      2.970      2.927      0.860      1.040    -12.250
    600.875    583.000     23.800    336.757     74.000      4.520      5.280      2.424      2.970      2.927      0.940      1.040    -12.000
    601.000    564.000     23.800    336.757     71.200      4.480      5.280      2.424      2.970      2.927      1.020      1.040    -11.750
    601.125    549.000     23.500    336.757     67.200      4.400      5.320      2.532      2.970      2.927      1.000      1.000    -11.750
    601.250    546.000     24.100    336.757     64.000      4.280      5.000      2.532      2.970      2.885      1.000      1.000    -12.000
    601.375    543.000     25.500    327.128     61.600      4.200      4.840      2.459      3.057      2.927      0.820      0.900    -12.000
    601.500    538.000     26.400    317.775     62.400      4.160      4.800      2.424      3.147      3.013      0.820      0.960    -12.000
    601.625    530.000     27.200    299.863     66.000      4.080      4.800      2.354      3.335      3.240      0.900      1.000    -12.000
    601.750    518.000     28.400    287.095     68.000      4.120      4.800      2.321      3.483      3.586      1.000      1.000    -12.000
    601.875    502.000     30.300    278.886     67.600      4.200      4.800      2.532      3.586      4.027      0.720      0.880    -12.250
    602.000    486.000     30.900    270.912     65.600      4.440      5.000      3.102      3.691      4.457      0.780      0.980    -12.500
    602.125    469.000     29.300    267.011     63.600      4.840      5.320      3.855      3.745      4.522      1.020      1.380    -12.750
    602.250    456.000     24.900    270.912     63.200      5.400      5.880      4.145      3.691      4.393      1.460      1.840    -13.000
    602.375    458.000     23.700    274.870     64.400      5.760      6.440      3.912      3.638      4.145      1.660      1.960    -13.500
    602.500    480.000     23.500    278.886     66.000      6.080      6.840      3.534      3.586      3.800      1.660      1.840    -13.750
    602.625    520.000     23.400    287.095     67.600      6.040      7.040      3.240      3.483      3.483      1.460      1.660    -13.750
    602.750    556.000     23.700    299.863     70.400      5.840      6.920      2.843      3.335      3.193      1.200      1.320    -13.000
    602.875    561.000     24.700    304.244     73.200      5.520      6.640      2.459      3.287      3.013      0.880      1.040    -12.500
    603.000    561.000     24.700    317.775     74.000      5.160      6.200      2.287      3.147      2.927      0.900      1.040    -12.000
    603.125    569.000     23.800    327.128     73.600      4.800      5.720      2.287      3.057      2.927      0.920      1.020    -11.500
    603.250    573.000     23.600    331.908     73.600      4.480      5.400      2.354      3.013      2.927      0.840      0.960    -11.500
    603.375    570.000     24.100    331.908     75.200      4.200      5.080      2.424      3.013      3.013      0.820      0.920    -11.250
    603.500    561.000     24.600    331.908     75.200      4.120      4.920      2.644      3.013      3.013      0.780      0.900    -11.250
    603.625    552.000     24.800    322.418     74.800      4.120      5.000      2.722      3.102      3.147      0.780      0.960    -11.250
    603.750    545.000     24.500    317.775     75.200      4.200      5.120      2.762      3.147      3.193      0.800      0.980    -11.500
    603.875    541.000     24.600    299.863     75.200      4.280      5.200      2.762      3.335      3.335      0.840      1.020    -11.500
    604.000    537.000     24.900    287.095     74.000      4.400      5.320      2.683      3.483      3.483      0.860      1.000    -11.500
    604.125    520.000     25.300    278.886     71.200      4.600      5.520      2.683      3.586      3.691      0.920      1.000    -12.000
    604.250    506.000     25.700    274.870     68.800      4.800      5.680      2.970      3.638      3.800      0.920      1.200    -12.250
    604.375    502.000     26.100    274.870     67.200      5.000      5.880      3.287      3.638      3.800      1.220      1.420    -12.500
    604.500    502.000     25.900    278.886     66.400      5.120      5.960      3.240      3.586      3.745      1.120      1.220    -13.000
    604.625    509.000     25.500    291.289     66.400      5.240      6.000      3.013      3.433      3.745      0.780      0.940    -13.000
    604.750    519.000     25.900    299.863     66.800      5.360      6.000      3.013      3.335      3.586      0.820      1.000    -13.000
    604.875    526.000     25.900    308.689     66.800      5.480      5.960      3.013      3.240      3.335      1.180      1.220    -12.500
    605.000    525.000     25.900    322.418     66.800      5.520      5.880      2.722      3.102      3.013      1.140      1.140    -12.000
    605.125    525.000     26.200    327.128     66.000      5.320      5.680      2.321      3.057      2.802      0.680      0.720    -12.000
    605.250    537.000     27.100    327.128     65.600      4.880      5.320      2.127      3.057      2.762      0.580      0.680    -12.000
    605.375    554.000     28.100    331.908     65.600      4.440      4.840      2.127      3.013      2.802      0.680      0.740    -12.000
    605.500    561.000     26.800    341.677     66.400      4.280      4.560      2.321      2.927      2.927      0.780      0.840    -12.000
    605.625    557.000     26.300    346.669     67.600      4.360      4.720      2.644      2.885      2.927      0.960      1.020    -12.250
    605.750    554.000     26.200    346.669     68.800      4.520      4.920      2.885      2.885      2.885      1.080      1.180    -12.250
    605.875    555.000     26.200    341.677     68.800      4.600      5.120      2.762      2.927      2.843      1.000      1.020    -12.250
    606.000    566.000     26.400    336.757     67.600      4.560      5.200      2.532      2.970      2.843      0.720      0.880    -11.750
    606.125    584.000     27.300    327.128     64.800      4.480      5.200      2.532      3.057      2.927      0.780      0.960    -12.000
    606.250    585.000     24.900    317.775     62.800      4.360      5.120      2.569      3.147      3.013      0.780      0.960    -12.000
    606.375    571.000     24.500    304.244     62.800      4.280      5.080      2.532      3.287      3.147      0.760      0.880    -12.000
    606.500    552.000     24.800    299.863     62.400      4.280      5.080      2.606      3.335      3.240      0.740      0.880    -12.000
    606.625    549.000     25.300    299.863     60.400      4.360      5.200      2.762      3.335      3.335      0.780      0.960    -12.500
    606.750    550.000     25.500    299.863     61.200      4.560      5.320      2.843      3.335      3.384      0.760      0.960    -12.250
    606.875    551.000     25.500    299.863     62.800      4.720      5.520      2.885      3.335      3.433      0.760      0.960    -12.250
