~Version Information Block
 VERS.                2.00:     CWLS LOG ASCII STANDARD - VERSION 2.000000
 WRAP.                  NO:     One Line Per Depth Step
#
~Well Information Block
#MNEM.UNIT                     Data                         Information
#----------   ------------------------------------------   ----------------
 STRT.M                                        110.000:
 STOP.M                                       2506.000:
 STEP.M                                          0.125:
 NULL.                                        -999.250:
 COMP.                                   测井数据库导出:     COMPANY 
 WELL.                                         孤南152-9:     Well 
 FLD .                                                :     Field 
 LOC .                                                :     LOCATION
 CNTY.                                                :     COUNTY
 STAT.                                                :     STATE
 CTRY.                                                :     COUNTRY
 SRVC.                                                :     SERVICE COMPANY
 DATE.                                                :     DATE
 API .                                                :     API NUMBER
#
~Curve Information Block
#MNEM.UNIT       API CODE      Curve Description
#----------    -------------   -------------------
 DEPT.M                    :   Depth in Meters
 AC  .微秒/米                      :   AC
 CAL .厘米                      :   CAL
 COND.毫西门子/米                      :   COND
 GR  .API                      :   GR
 R25 .欧姆米                      :   R25
 R4  .欧姆米                      :   R4
 RFOC.欧姆米                      :   RFOC
 RILD.欧姆米                      :   RILD
 RILM.欧姆米                      :   RILM
 RLML.欧姆米                      :   RLML
 RNML.欧姆米                      :   RNML
 SP  .毫伏                      :   SP
#
~A  DEPTH          AC        CAL       COND         GR        R25         R4       RFOC       RILD       RILM       RLML       RNML         SP
# ...
   1146.000    517.000     24.600    463.339     79.600      2.360      2.800      1.638      2.158      1.978      0.800      0.860    -11.250
   1146.125    509.000     24.200    443.610     76.800      2.360      2.800      1.687      2.254      2.097      0.900      0.900    -11.250
   1146.250    499.000     23.700    430.926     70.800      2.520      2.920      1.787      2.321      2.321      0.960      0.960    -11.250
   1146.375    486.000     23.700    412.578     66.800      2.640      3.160      1.950      2.424      2.459      1.040      1.060    -11.250
   1146.500    474.000     23.800    389.322     64.800      2.800      3.360      2.158      2.569      2.644      1.000      1.120    -11.250
   1146.625    462.000     24.100    367.377     64.400      2.960      3.560      2.158      2.722      2.762      0.840      1.040    -11.500
   1146.750    451.000     24.300    356.873     66.800      3.080      3.760      2.097      2.802      2.927      0.740      0.960    -11.500
   1146.875    451.000     24.500    341.677     70.800      3.200      3.880      2.037      2.927      3.013      0.760      1.000    -11.500
   1147.000    454.000     24.600    341.677     72.000      3.320      4.080      2.037      2.927      3.193      0.820      1.000    -11.500
   1147.125    455.000     25.000    346.669     70.800      3.440      4.240      2.158      2.885      3.240      0.980      1.080    -11.250
   1147.250    460.000     25.900    356.873     69.600      3.640      4.560      2.354      2.802      3.147      1.020      1.220    -11.250
   1147.375    468.000     26.500    372.744     68.400      3.800      4.800      2.424      2.683      2.970      1.020      1.280    -11.250
   1147.500    478.000     28.500    389.322     67.600      3.920      5.000      2.254      2.569      2.722      1.320      1.300    -11.000
   1147.625    491.000     30.600    400.781     65.600      3.880      5.000      1.950      2.495      2.495      0.900      0.960    -11.000
   1147.750    502.000     29.300    406.637     64.000      3.720      4.720      1.736      2.459      2.321      0.640      0.780    -11.000
   1147.875    511.000     28.300    418.605     63.200      3.360      4.280      1.592      2.389      2.222      0.700      0.820    -11.250
   1148.000    513.000     27.800    424.721     64.000      3.080      3.880      1.569      2.354      2.158      0.760      0.800    -11.250
   1148.125    517.000     26.700    437.222     65.200      2.840      3.560      1.638      2.287      2.127      0.860      0.820    -11.250
   1148.250    519.000     26.700    456.667     66.000      2.720      3.280      1.687      2.190      2.097      0.820      0.820    -11.250
   1148.375    516.000     26.800    476.977     66.400      2.640      3.160      1.813      2.097      2.066      0.720      0.860    -11.250
   1148.500    513.000     26.100    498.190     66.800      2.680      3.200      1.950      2.007      2.007      0.700      0.900    -11.250
   1148.625    513.000     26.200    512.854     66.800      2.800      3.200      1.978      1.950      1.894      0.620      0.880    -11.250
   1148.750    522.000     26.200    527.949     68.800      2.840      3.200      1.840      1.894      1.736      0.600      0.800    -11.500
   1148.875    537.000     25.400    543.489     72.000      2.880      3.200      1.711      1.840      1.615      0.620      0.780    -11.500
   1149.000    552.000     25.200    559.486     73.600      2.840      3.080      1.592      1.787      1.524      0.720      0.780    -11.500
   1149.125    560.000     25.500    584.368     74.000      2.760      2.840      1.502      1.711      1.417      0.760      0.760    -11.250
   1149.250    565.000     27.000    601.569     74.000      2.640      2.640      1.417      1.662      1.357      0.740      0.720    -11.250
   1149.375    569.000     28.200    619.275     73.600      2.480      2.440      1.397      1.615      1.318      0.720      0.720    -10.750
   1149.500    571.000     28.800    628.323     74.000      2.320      2.160      1.397      1.592      1.299      0.640      0.700    -10.750
   1149.625    571.000     28.900    637.502     74.800      2.200      2.120      1.438      1.569      1.299      0.680      0.700    -10.500
   1149.750    568.000     27.800    628.323     74.800      2.160      2.040      1.502      1.592      1.318      0.740      0.740    -10.500
   1149.875    557.000     27.200    610.358     74.000      2.200      2.040      1.546      1.638      1.337      0.780      0.780    -10.750
   1150.000    544.000     25.700    601.569     73.200      2.320      2.040      1.569      1.662      1.397      0.820      0.800    -11.000
   1150.125    536.000     23.700    575.954     71.200      2.480      2.160      1.569      1.736      1.459      0.720      0.740    -11.000
   1150.250    531.000     25.100    543.489     69.600      2.520      2.160      1.569      1.840      1.592      0.640      0.700    -11.000
   1150.375    530.000     26.100    512.854     68.000      2.560      2.320      1.615      1.950      1.736      0.560      0.680    -11.000
   1150.500    524.000     25.800    476.977     67.200      2.680      2.440      1.736      2.097      1.922      0.540      0.700    -11.250
   1150.625    505.000     26.300    450.092     66.800      2.800      2.640      1.840      2.222      2.097      0.720      0.820    -11.250
   1150.750    490.000     26.300    418.605     67.200      2.840      3.080      1.950      2.389      2.354      0.760      0.940    -11.750
   1150.875    480.000     26.300    389.322     68.400      2.960      3.200      2.037      2.569      2.644      0.740      0.980    -12.000
   1151.000    473.000     26.100    362.087     70.400      3.080      3.480      2.127      2.762      2.885      0.720      0.980    -12.000
   1151.125    467.000     26.100    341.677     72.000      3.240      3.760      2.254      2.927      3.193      0.720      0.960    -12.000
   1151.250    459.000     26.200    327.128     72.000      3.440      4.080      2.354      3.057      3.433      0.720      0.960    -11.500
   1151.375    451.000     26.400    317.775     70.400      3.560      4.440      2.459      3.147      3.691      0.760      0.960    -11.250
   1151.500    447.000     26.600    308.689     68.800      3.720      4.920      2.532      3.240      3.912      0.800      0.980    -11.250
   1151.625    444.000     26.800    304.244     69.600      3.880      5.120      2.532      3.287      3.912      0.820      1.000    -11.250
   1151.750    440.000     26.800    304.244     70.800      4.000      5.400      2.606      3.287      3.912      0.700      0.880    -11.500
   1151.875    437.000     26.500    304.244     70.400      4.000      5.600      2.606      3.287      3.912      0.600      0.820    -11.500
   1152.000    434.000     26.800    308.689     69.200      4.040      5.680      2.532      3.240      3.745      0.660      0.940    -11.500
   1152.125    432.000     26.800    313.199     70.000      4.000      5.680      2.459      3.193      3.586      0.700      0.940    -11.500
   1152.250    437.000     27.000    317.775     72.000      4.000      5.600      2.354      3.147      3.534      0.660      0.880    -11.250
   1152.375    445.000     27.000    322.418     72.800      3.880      5.520      2.287      3.102      3.433      0.680      0.900    -11.500
   1152.500    456.000     27.400    327.128     72.000      3.800      5.400      2.254      3.057      3.433      0.680      0.900    -11.500
   1152.625    469.000     28.100    336.757     71.600      3.720      5.280      2.254      2.970      3.335      0.700      0.920    -11.750
   1152.750    477.000     27.200    346.669     71.600      3.720      5.120      2.254      2.885      3.240      0.780      0.960    -11.750
   1152.875    482.000     26.400    362.087     72.400      3.720      5.080      2.254      2.762      3.102      0.780      0.960    -11.750
