~Version Information Block
 VERS.                2.00:     CWLS LOG ASCII STANDARD - VERSION 2.000000
 WRAP.                  NO:     One Line Per Depth Step
#
~Well Information Block
#MNEM.UNIT                     Data                         Information
#----------   ------------------------------------------   ----------------
 STRT.M                                        195.000:
 STOP.M                                       2555.000:
 STEP.M                                          0.125:
 NULL.                                        -999.250:
 COMP.                                   ²â¾®Êý¾Ý¿âµ¼³ö:     COMPANY 
 WELL.                                        ¹ÂÄÏ152-08:     Well 
 FLD .                                                :     Field 
 LOC .                                                :     LOCATION
 CNTY.                                                :     COUNTY
 STAT.                                                :     STATE
 CTRY.                                                :     COUNTRY
 SRVC.                                                :     SERVICE COMPANY
 DATE.                                                :     DATE
 API .                                                :     API NUMBER
#
~Curve Information Block
#MNEM.UNIT       API CODE      Curve Description
#----------    -------------   -------------------
 DEPT.M                    :   Depth in Meters
 AC  .Î¢Ãë/Ã×                      :   AC
 CAL .ÀåÃ×                      :   CAL
 CAL .ÀåÃ×                      :   CAL
 COND.mS/m                      :   COND
 GR  .Î¢Â×ÇÙ                      :   GR
 RLML.Å·Ä·Ã×                      :   RLML
 RNML.Å·Ä·Ã×                      :   RNML
 R04 .Å·Ä·Ã×                      :   R04
 R25 .Å·Ä·Ã×                      :   R25
 R4  .Å·Ä·Ã×                      :   R4
 RFOC.Å·Ä·Ã×                      :   RFOC
 RILD.Å·Ä·Ã×                      :   RILD
 RILM.Å·Ä·Ã×                      :   RILM
 SP  .mv                      :   SP
 SP  .ºÁ·ü                      :   SP
#
~A  DEPTH          AC        CAL        CAL       COND         GR       RLML       RNML        R04        R25         R4       RFOC       RILD       RILM         SP         SP
# ...
   1379.500    408.003     25.358   -999.250    576.875      6.248      1.987      2.000      1.908      2.314      4.633      1.723      1.590      2.566     49.379     53.125
   1379.625    423.421     25.452   -999.250    597.500      6.667      1.861      1.861      1.514      2.081      4.329      1.364      1.558      2.514     49.464     53.130
   1379.750    476.917     25.119   -999.250    598.750      7.119      0.615      0.628      1.074      1.931      3.971      0.955      1.558      2.162     49.420     53.126
   1379.875    513.730     24.718   -999.250    601.316      7.197      0.821      0.756      0.960      1.827      3.652      0.871      1.542      1.861     49.425     53.129
   1380.000    525.477     25.828   -999.250    607.895      7.799      1.089      0.987      0.942      1.803      3.159      0.908      1.526      1.590     49.717     53.207
   1380.125    526.946     27.860   -999.250    625.000      8.472      1.253      1.228      1.007      1.827      2.696      0.985      1.477      1.495     49.711     53.288
   1380.250    526.946     32.354   -999.250    644.737      8.793      0.974      0.987      1.044      1.879      2.580      1.026      1.429      1.465     49.781     53.447
   1380.375    500.514     32.028   -999.250    663.636      8.263      1.291      1.329      1.132      1.913      2.638      1.079      1.421      1.465     49.786     53.607
   1380.500    492.438     30.339   -999.250    633.553      8.088      1.114      1.127      1.233      1.979      2.696      1.147      1.456      1.450     49.954     53.768
   1380.625    486.564     29.047   -999.250    609.868      8.146      1.367      1.418      1.287      2.054      2.957      1.207      1.542      1.421     50.125     53.927
   1380.750    485.095     27.469   -999.250    588.125      8.879      0.885      0.897      1.349      2.128      2.986      1.244      1.577      1.407     50.326     54.088
   1380.875    482.893     26.637   -999.250    577.500      9.456      1.418      1.430      1.335      2.204      2.986      1.267      1.612      1.407     50.321     54.246
   1381.000    485.463     26.195   -999.250    573.750      9.962      0.872      1.190      1.360      2.188      2.928      1.245      1.622      1.407     50.439     54.407
   1381.125    488.767     25.886   -999.250    573.125      9.458      1.481      0.949      1.290      2.107      2.870      1.194      1.606      1.436     50.473     54.565
   1381.250    489.501     25.741   -999.250    575.000      8.945      1.266      1.456      1.220      2.022      2.899      1.142      1.606      1.465     50.456     54.567
   1381.375    485.830     25.649   -999.250    576.250      7.915      1.038      1.177      1.146      2.061      2.841      1.090      1.606      1.480     50.582     54.726
   1381.500    469.677     25.824   -999.250    570.625      8.515      1.165      0.923      1.137      2.223      3.072      1.068      1.639      1.436     50.629     54.887
   1381.625    460.866     25.877   -999.250    560.000      8.166      1.038      1.380      1.160      2.390      3.043      1.079      1.673      1.436     50.626     54.886
   1381.750    456.461     25.668   -999.250    548.734      8.486      1.671      1.785      1.280      2.551      3.449      1.195      1.725      1.465     50.497     54.886
   1381.875    454.258     25.324   -999.250    536.709      8.231      0.936      1.329      1.333      2.719      3.652      1.258      1.760      1.511     50.440     54.887
   1382.000    452.056     25.542   -999.250    525.949      8.397      1.152      1.696      1.389      2.751      3.855      1.277      1.833      1.606     50.602     54.885
   1382.125    451.322     26.235   -999.250    519.620      8.537      1.696      1.570      1.365      2.565      3.971      1.284      1.796      1.690     50.463     55.048
   1382.250    450.587     26.830   -999.250    512.025      8.251      1.038      1.304      1.376      2.370      4.076      1.337      1.815      1.742     50.463     55.044
   1382.375    451.741     26.982   -999.250    506.962      7.713      1.114      1.114      1.353      2.110      4.177      1.297      1.815      1.796     50.565     54.889
   1382.500    454.993     27.309   -999.250    519.620      7.685      1.051      1.203      1.285      1.965      4.051      1.232      1.815      1.852     50.461     54.883
   1382.625    460.866     27.779   -999.250    529.747      7.824      1.114      1.203      1.187      1.830      3.942      1.118      1.815      1.871     50.470     54.891
   1382.750    462.335     27.868   -999.250    536.709      7.290      1.013      1.177      1.136      1.748      3.826      1.089      1.778      1.796     50.468     54.882
   1382.875    459.765     27.053   -999.250    542.405      7.379      1.127      1.114      1.151      1.727      3.565      1.079      1.725      1.725     50.470     54.732
   1383.000    452.790     26.560   -999.250    543.671      7.190      1.114      1.114      1.187      1.749      3.391      1.124      1.725      1.656     50.294     54.722
   1383.125    444.805     26.057   -999.250    535.443      7.330      1.203      1.190      1.281      1.803      3.159      1.207      1.742      1.590     50.306     54.572
   1383.250    439.574     25.585   -999.250    506.329      7.561      1.190      1.177      1.406      1.927      3.043      1.310      1.796      1.574     50.312     54.562
   1383.375    438.106     25.328   -999.250    482.278      7.387      1.620      1.468      1.512      2.032      3.159      1.421      2.051      1.574     50.131     54.573
   1383.500    437.372     25.545   -999.250    457.595      6.695      1.848      1.949      1.513      2.158      3.101      1.450      2.030      1.639     50.145     54.402
   1383.625    437.372     26.224   -999.250    450.000      7.658      0.692      1.684      1.515      2.313      3.449      1.450      2.115      1.690     50.003     54.252
   1383.750    437.372     27.946   -999.250    422.078      8.345      0.936      1.139      1.549      2.413      3.652      1.465      2.093      1.890     50.170     54.242
   1383.875    435.169     29.441   -999.250    383.544      7.957      1.380      1.342      1.595      2.492      3.855      1.521      2.341      2.158     50.342     54.252
   1384.000    429.295     30.439   -999.250    395.570      8.777      1.785      1.873      1.670      2.516      3.826      1.574      2.414      2.294     50.522     54.243
   1384.125    426.725     31.722   -999.250    419.481      8.731      0.769      0.821      1.674      2.492      4.025      1.590      2.377      2.414     50.573     54.092
   1384.250    425.624     29.986   -999.250    443.506      9.232      0.949      1.000      1.667      2.439      4.000      1.590      2.136      2.502     50.481     54.083
   1384.375    424.890     28.987   -999.250    462.025      8.615      1.127      1.215      1.611      2.364      3.971      1.542      2.010      2.514     50.471     54.092
   1384.500    429.295     29.346   -999.250    457.595      8.669      1.456      1.987      1.437      2.286      3.913      1.310      2.030      2.566     50.468     54.083
   1384.625    439.941     29.320   -999.250    458.861      8.263      1.873      1.620      1.344      2.212      3.826      1.264      2.051      2.592     50.466     54.092
   1384.750    456.461     27.938   -999.250    456.962      7.786      1.127      1.127      1.326      2.132      3.652      1.245      2.041      2.579     50.501     54.083
   1384.875    464.905     27.452   -999.250    468.987      7.444      1.519      1.608      1.312      2.033      3.565      1.232      1.969      2.502     50.623     54.092
   1385.000    476.285     26.861   -999.250    498.101      8.279      0.987      1.000      1.305      1.991      3.391      1.232      1.852      2.271     50.626     54.083
   1385.125    482.526     26.156   -999.250    517.722      7.992      1.810      1.911      1.314      1.957      3.246      1.232      1.871      2.072     50.603     54.091
