~Version Information Block
 VERS.                2.00:     CWLS LOG ASCII STANDARD - VERSION 2.000000
 WRAP.                  NO:     One Line Per Depth Step
#
~Well Information Block
#MNEM.UNIT                     Data                         Information
#----------   ------------------------------------------   ----------------
 STRT.M                                        195.000:
 STOP.M                                       2555.000:
 STEP.M                                          0.125:
 NULL.                                        -999.250:
 COMP.                                   ²â¾®Êý¾Ý¿âµ¼³ö:     COMPANY 
 WELL.                                        ¹ÂÄÏ152-08:     Well 
 FLD .                                                :     Field 
 LOC .                                                :     LOCATION
 CNTY.                                                :     COUNTY
 STAT.                                                :     STATE
 CTRY.                                                :     COUNTRY
 SRVC.                                                :     SERVICE COMPANY
 DATE.                                                :     DATE
 API .                                                :     API NUMBER
#
~Curve Information Block
#MNEM.UNIT       API CODE      Curve Description
#----------    -------------   -------------------
 DEPT.M                    :   Depth in Meters
 AC  .Î¢Ãë/Ã×                      :   AC
 CAL .ÀåÃ×                      :   CAL
 CAL .ÀåÃ×                      :   CAL
 COND.mS/m                      :   COND
 GR  .Î¢Â×ÇÙ                      :   GR
 RLML.Å·Ä·Ã×                      :   RLML
 RNML.Å·Ä·Ã×                      :   RNML
 R04 .Å·Ä·Ã×                      :   R04
 R25 .Å·Ä·Ã×                      :   R25
 R4  .Å·Ä·Ã×                      :   R4
 RFOC.Å·Ä·Ã×                      :   RFOC
 RILD.Å·Ä·Ã×                      :   RILD
 RILM.Å·Ä·Ã×                      :   RILM
 SP  .mv                      :   SP
 SP  .ºÁ·ü                      :   SP
#
~A  DEPTH          AC        CAL        CAL       COND         GR       RLML       RNML        R04        R25         R4       RFOC       RILD       RILM         SP         SP
# ...
   1034.500    500.514     24.967   -999.250    471.519      6.263      1.367      1.608      1.407      2.160      3.362      1.361      1.989      1.703     39.015     42.553
   1034.625    490.235     24.836   -999.250    472.152      6.566      1.797      1.380      1.447      2.211      3.362      1.411      1.969      1.740     38.973     42.705
   1034.750    481.424     24.945   -999.250    467.089      6.641      1.038      1.747      1.507      2.262      3.420      1.462      1.989      1.778     38.846     42.713
   1034.875    477.753     25.588   -999.250    458.861      6.565      1.253      0.962      1.575      2.338      3.507      1.512      1.989      1.852     38.858     42.705
   1035.000    476.065     26.897   -999.250    439.610      6.532      1.418      1.544      1.582      2.376      3.623      1.542      2.061      1.900     38.974     42.712
   1035.125    475.551     27.834   -999.250    422.727      6.592      0.859      1.380      1.590      2.415      3.710      1.511      2.180      2.010     39.009     42.866
   1035.250    476.285     28.484   -999.250    411.039      6.607      1.190      0.949      1.590      2.465      3.739      1.531      2.225      2.093     39.003     42.871
   1035.375    478.488     28.654   -999.250    403.247      6.598      1.190      1.241      1.588      2.517      3.768      1.548      2.294      2.225     38.985     42.867
   1035.500    476.285     28.269   -999.250    398.734      6.464      1.000      1.013      1.616      2.593      3.739      1.558      2.341      2.294     39.192     42.870
   1035.625    473.348     28.184   -999.250    394.937      6.593      1.924      1.329      1.615      2.645      3.797      1.565      2.390      2.318     39.318     42.867
   1035.750    468.117     28.414   -999.250    391.139      6.927      1.139      2.064      1.643      2.669      3.797      1.574      2.390      2.341     39.162     43.029
   1035.875    466.740     28.548   -999.250    387.975      6.847      1.241      1.101      1.641      2.645      3.768      1.590      2.390      2.318     39.186     43.028
   1036.000    466.006     28.278   -999.250    385.443      6.686      0.885      0.897      1.654      2.592      3.797      1.606      2.439      2.294     39.269     43.028
   1036.125    466.740     27.997   -999.250    384.177      6.527      1.190      1.215      1.642      2.543      3.710      1.593      2.464      2.294     39.306     43.029
   1036.250    466.740     27.926   -999.250    384.810      6.609      0.705      0.679      1.642      2.490      3.681      1.588      2.464      2.294     39.170     43.027
   1036.375    466.740     28.171   -999.250    384.810      6.432      0.872      0.949      1.638      2.442      3.623      1.574      2.464      2.294     39.035     43.029
   1036.500    469.310     28.294   -999.250    384.810      6.782      1.241      1.342      1.640      2.439      3.536      1.574      2.464      2.347     39.000     43.026
   1036.625    474.082     28.352   -999.250    385.443      7.068      1.519      1.722      1.723      2.443      3.478      1.701      2.489      2.414     39.006     43.029
   1036.750    478.120     28.449   -999.250    384.810      6.415      0.910      1.063      1.786      2.464      3.449      1.760      2.489      2.414     39.021     42.866
   1036.875    482.159     28.059   -999.250    384.810      6.729      1.215      1.253      1.794      2.468      3.449      1.725      2.464      2.414     38.837     42.868
   1037.000    482.893     27.066   -999.250    381.013      6.638      1.063      1.076      1.817      2.464      3.449      1.742      2.464      2.439     38.722     42.866
   1037.125    483.627     25.970   -999.250    377.848      6.500      1.468      1.772      1.795      2.417      3.449      1.760      2.489      2.439     38.701     42.707
   1037.250    483.627     25.764   -999.250    372.152      6.060      1.810      1.633      1.792      2.413      3.449      1.747      2.592      2.439     38.527     42.707
   1037.375    482.159     25.792   -999.250    368.354      5.981      1.013      1.025      1.868      2.417      3.478      1.778      2.619      2.464     38.500     42.545
   1037.500    484.361     26.136   -999.250    366.456      6.085      1.203      1.190      1.870      2.413      3.536      1.775      2.619      2.464     38.393     42.549
   1037.625    489.501     26.928   -999.250    366.456      6.281      1.342      1.342      1.870      2.417      3.565      1.767      2.619      2.464     38.220     42.543
   1037.750    493.906     27.808   -999.250    366.456      6.041      1.772      0.987      1.785      2.516      3.681      1.760      2.619      2.439     38.054     42.392
   1037.875    488.032     29.179   -999.250    363.291      5.667      0.756      1.797      1.757      2.672      3.652      1.703      2.619      2.439     37.891     42.220
   1038.000    477.753     30.430   -999.250    361.392      5.250      0.987      1.241      1.686      2.898      3.710      1.590      2.619      2.390     37.729     42.234
   1038.125    478.855     33.332   -999.250    357.595      5.654      1.228      1.013      1.644      3.104      3.826      1.606      2.673      2.438     37.553     42.058
   1038.250    478.488     37.026   -999.250    353.797      5.428      0.718      0.705      1.704      3.383      4.000      1.631      2.728      2.537     37.445     41.757
   1038.375    460.866     40.503   -999.250    350.000      5.217      0.936      0.949      1.720      3.537      4.076      1.668      2.791      2.673     37.381     41.736
   1038.500    438.656     39.322   -999.250    339.241      5.675      0.628      0.628      1.720      3.760      4.329      1.705      2.813      2.784     37.272     41.439
   1038.625    418.282     35.681   -999.250    344.937      5.401      1.924      1.848      1.811      3.970      4.557      1.742      2.776      2.990     37.096     41.574
   1038.750    379.736     31.790   -999.250    353.797      5.622      1.354      1.443      2.009      3.792      4.785      2.005      2.728      3.051     36.924     41.440
   1038.875    378.634     28.481   -999.250    358.861      5.559      2.410      2.397      2.176      3.612      4.785      2.158      2.728      2.960     36.896     41.254
   1039.000    404.546     26.689   -999.250    355.696      5.707      1.544      1.076      1.980      3.512      4.532      1.871      2.714      2.756     36.659     40.960
   1039.125    430.764     27.050   -999.250    350.633      5.746      0.949      0.641      1.699      3.484      4.430      1.590      2.700      2.514     36.582     40.774
   1039.250    441.777     28.350   -999.250    348.101      5.464      0.641      0.962      1.710      3.513      4.506      1.690      2.673      2.489     36.456     40.639
   1039.375    443.979     28.568   -999.250    375.316      5.169      1.418      1.671      1.927      3.616      4.506      1.887      2.525      2.470     36.329     40.615
   1039.500    443.245     26.041   -999.250    399.367      5.657      2.321      2.372      2.213      3.740      4.810      2.203      2.365      2.450     36.263     40.478
   1039.625    426.358     25.330   -999.250    416.883      6.123      1.911      2.013      2.104      3.739      4.785      2.010      2.225      2.439     35.970     40.457
   1039.750    422.687     25.266   -999.250    436.364      6.325      0.936      0.923      1.903      3.515      4.911      1.778      2.136      2.439     35.980     40.316
   1039.875    423.697     25.399   -999.250    470.253      6.446      1.684      1.722      1.625      3.229      4.886      1.524      2.030      2.365     35.976     40.300
   1040.000    430.029     26.178   -999.250    488.608      6.575      2.538      2.628      1.297      2.991      4.684      1.220      1.969      2.203     36.032     40.314
   1040.125    452.606     27.015   -999.250    490.506      6.510      0.641      1.532      1.207      2.822      4.481      1.147      1.929      1.949     35.889     40.461
