~Version Information Block
 VERS.                2.00:     CWLS LOG ASCII STANDARD - VERSION 2.000000
 WRAP.                  NO:     One Line Per Depth Step
#
~Well Information Block
#MNEM.UNIT                     Data                         Information
#----------   ------------------------------------------   ----------------
 STRT.M                                        195.000:
 STOP.M                                       2555.000:
 STEP.M                                          0.125:
 NULL.                                        -999.250:
 COMP.                                   ²â¾®Êý¾Ý¿âµ¼³ö:     COMPANY 
 WELL.                                        ¹ÂÄÏ152-08:     Well 
 FLD .                                                :     Field 
 LOC .                                                :     LOCATION
 CNTY.                                                :     COUNTY
 STAT.                                                :     STATE
 CTRY.                                                :     COUNTRY
 SRVC.                                                :     SERVICE COMPANY
 DATE.                                                :     DATE
 API .                                                :     API NUMBER
#
~Curve Information Block
#MNEM.UNIT       API CODE      Curve Description
#----------    -------------   -------------------
 DEPT.M                    :   Depth in Meters
 AC  .Î¢Ãë/Ã×                      :   AC
 CAL .ÀåÃ×                      :   CAL
 CAL .ÀåÃ×                      :   CAL
 COND.mS/m                      :   COND
 GR  .Î¢Â×ÇÙ                      :   GR
 RLML.Å·Ä·Ã×                      :   RLML
 RNML.Å·Ä·Ã×                      :   RNML
 R04 .Å·Ä·Ã×                      :   R04
 R25 .Å·Ä·Ã×                      :   R25
 R4  .Å·Ä·Ã×                      :   R4
 RFOC.Å·Ä·Ã×                      :   RFOC
 RILD.Å·Ä·Ã×                      :   RILD
 RILM.Å·Ä·Ã×                      :   RILM
 SP  .mv                      :   SP
 SP  .ºÁ·ü                      :   SP
#
~A  DEPTH          AC        CAL        CAL       COND         GR       RLML       RNML        R04        R25         R4       RFOC       RILD       RILM         SP         SP
# ...
   1615.250    450.159     26.066   -999.250    713.125      7.518      0.974      0.936      1.172      1.140      2.319      1.138      1.323      1.271     60.025     63.528
   1615.375    444.580     26.348   -999.250    736.250      7.390      1.228      1.456      1.221      1.186      2.522      1.207      1.297      1.310     60.035     63.384
   1615.500    450.361     27.274   -999.250    758.974      7.602      0.615      0.577      1.238      1.293      2.725      1.245      1.258      1.323     59.864     63.531
   1615.625    461.925     28.303   -999.250    780.769      7.704      1.038      1.430      1.207      1.434      2.899      1.220      1.230      1.258     59.741     63.386
   1615.750    474.082     29.407   -999.250    797.436      7.679      1.342      1.114      1.090      1.584      2.667      1.124      1.183      1.183     59.695     63.373
   1615.875    483.138     30.388   -999.250    817.949      7.821      0.538      0.577      0.964      1.721      2.493      0.985      1.136      1.136     59.693     63.386
   1616.000    491.300     31.394   -999.250    830.769      8.383      0.628      0.628      0.913      1.868      2.290      0.917      1.113      1.102     59.472     63.215
   1616.125    497.577     28.199   -999.250    887.143      8.334      0.731      0.756      0.927      2.002      2.203      0.908      1.058      1.068     59.372     63.225
   1616.250    499.046     26.816   -999.250    902.597      7.601      0.782      0.833      0.926      1.624      2.145      0.936      1.036      1.047     59.100     63.217
   1616.375    494.640     26.076   -999.250    909.091      8.311      0.821      0.885      0.970      1.493      2.087      1.005      1.036      1.047     59.060     63.064
   1616.500    482.893     25.908   -999.250    914.286      8.299      0.897      0.962      1.027      1.445      2.029      1.068      1.047      1.047     59.090     63.219
   1616.625    465.272     26.036   -999.250    909.740      8.502      0.974      0.987      1.081      1.315      2.029      1.058      1.090      1.047     58.914     63.222
   1616.750    458.113     26.043   -999.250    821.795      8.535      1.025      1.051      1.117      1.316      2.029      1.079      1.159      1.047     58.880     63.060
   1616.875    454.993     26.040   -999.250    763.462      8.171      1.101      1.139      1.132      1.265      2.174      1.102      1.232      1.068     58.749     63.062
   1617.000    456.424     26.028   -999.250    738.750      7.829      1.342      1.443      1.110      1.290      2.377      1.102      1.284      1.079     58.882     63.061
   1617.125    457.930     26.345   -999.250    719.375      7.497      0.513      0.487      1.055      1.291      2.580      1.026      1.358      1.124     58.898     63.061
   1617.250    457.195     26.977   -999.250    701.250      7.372      0.692      0.615      1.018      1.315      2.696      1.000      1.385      1.165     58.751     62.901
   1617.375    449.165     27.014   -999.250    691.558      7.578      1.000      0.897      1.002      1.291      2.667      0.995      1.414      1.226     58.628     62.901
   1617.500    443.245     26.742   -999.250    674.675      6.781      0.692      1.063      1.036      1.289      2.696      1.036      1.443      1.310     58.602     62.901
   1617.625    436.978     26.982   -999.250    648.684      6.939      0.756      0.641      1.108      1.292      2.725      1.085      1.480      1.488     58.557     62.901
   1617.750    430.764     27.006   -999.250    622.368      7.090      0.936      0.846      1.175      1.366      2.667      1.107      1.511      1.574     58.628     62.901
   1617.875    423.421     26.813   -999.250    609.211      7.245      1.051      1.013      1.204      1.394      2.899      1.147      1.526      1.631     58.378     62.741
   1618.000    414.347     26.754   -999.250    629.605      7.618      0.718      0.731      1.233      1.417      2.986      1.183      1.526      1.707     58.322     62.740
   1618.125    408.737     27.083   -999.250    657.143      7.837      1.456      1.494      1.230      1.521      3.072      1.214      1.473      1.647     58.287     62.742
   1618.250    422.320     27.834   -999.250    680.519      8.099      0.590      0.603      1.281      1.621      3.188      1.264      1.364      1.574     58.276     62.740
   1618.375    439.819     28.510   -999.250    699.351      8.829      1.380      1.494      1.284      1.740      3.275      1.297      1.337      1.473     58.271     62.741
   1618.500    459.398     28.967   -999.250    716.875      9.334      0.846      1.165      1.253      1.845      3.333      1.264      1.330      1.401     58.273     62.739
   1618.625    478.120     29.400   -999.250    723.125      9.194      0.679      0.654      1.081      1.953      3.362      1.091      1.310      1.337     58.283     62.741
   1618.750    486.564     29.796   -999.250    741.250      8.807      0.628      0.641      1.020      1.927      3.188      1.021      1.258      1.277     58.369     62.739
   1618.875    489.501     29.730   -999.250    769.872      8.971      0.821      0.833      0.986      1.775      3.072      0.975      1.195      1.183     58.283     62.741
   1619.000    496.843     28.044   -999.250    797.436      9.073      0.974      1.025      0.959      1.672      2.957      0.965      1.147      1.124     58.274     62.738
   1619.125    501.615     26.841   -999.250    822.436      8.716      1.025      1.165      0.955      1.546      2.812      0.955      1.068      1.089     58.271     62.741
   1619.250    505.286     26.175   -999.250    857.857      8.342      1.291      1.316      0.954      1.468      2.667      0.965      1.058      1.050     58.269     62.737
   1619.375    506.388     25.728   -999.250    867.857      8.297      1.190      1.228      0.979      1.418      2.551      0.985      1.113      1.015     58.273     62.741
   1619.500    505.368     25.292   -999.250    846.795      8.186      1.000      1.101      1.034      1.366      2.464      1.015      1.113      0.995     58.097     62.736
   1619.625    503.328     24.855   -999.250    832.051      7.933      1.013      1.025      0.997      1.290      2.406      1.015      1.113      0.995     58.111     62.741
   1619.750    500.514     24.390   -999.250    850.000      7.714      0.987      1.000      0.980      1.239      2.406      0.985      1.102      0.995     58.111     62.734
   1619.875    498.311     24.043   -999.250    871.429      7.937      1.013      0.987      0.980      1.214      2.406      0.985      1.079      0.995     58.114     62.741
   1620.000    495.374     23.725   -999.250    852.857      7.669      0.987      0.974      0.980      1.163      2.406      0.985      1.102      1.012     57.940     62.732
   1620.125    494.640     23.476   -999.250    860.714      8.015      0.987      0.962      0.980      1.163      2.406      0.985      1.102      1.030     57.956     62.581
   1620.250    493.906     23.246   -999.250    871.429      8.412      1.013      0.936      0.980      1.163      2.377      0.985      1.068      1.047     57.907     62.410
   1620.375    495.810     23.092   -999.250    887.143      8.081      1.013      0.910      0.979      1.188      2.348      0.985      1.047      1.047     58.137     62.260
   1620.500    498.311     22.949   -999.250    892.143      8.325      1.000      0.885      0.968      1.215      2.348      0.975      1.047      1.037     58.112     62.089
   1620.625    500.698     22.789   -999.250    893.571      8.678      0.987      0.910      0.960      1.214      2.319      0.969      1.036      1.025     58.111     61.939
   1620.750    501.248     22.571   -999.250    895.000      8.186      0.962      0.910      0.927      1.241      2.348      0.938      1.036      1.013     58.116     61.929
   1620.875    501.248     22.482   -999.250    899.286      7.862      0.962      0.923      0.903      1.264      2.319      0.899      1.036      1.005     58.118     61.616
