~Version Information Block
 VERS.                2.00:     CWLS LOG ASCII STANDARD - VERSION 2.000000
 WRAP.                  NO:     One Line Per Depth Step
#
~Well Information Block
#MNEM.UNIT                     Data                         Information
#----------   ------------------------------------------   ----------------
 STRT.M                                        195.000:
 STOP.M                                       2555.000:
 STEP.M                                          0.125:
 NULL.                                        -999.250:
 COMP.                                   ²â¾®Êý¾Ý¿âµ¼³ö:     COMPANY 
 WELL.                                        ¹ÂÄÏ152-08:     Well 
 FLD .                                                :     Field 
 LOC .                                                :     LOCATION
 CNTY.                                                :     COUNTY
 STAT.                                                :     STATE
 CTRY.                                                :     COUNTRY
 SRVC.                                                :     SERVICE COMPANY
 DATE.                                                :     DATE
 API .                                                :     API NUMBER
#
~Curve Information Block
#MNEM.UNIT       API CODE      Curve Description
#----------    -------------   -------------------
 DEPT.M                    :   Depth in Meters
 AC  .Î¢Ãë/Ã×                      :   AC
 CAL .ÀåÃ×                      :   CAL
 CAL .ÀåÃ×                      :   CAL
 COND.mS/m                      :   COND
 GR  .Î¢Â×ÇÙ                      :   GR
 RLML.Å·Ä·Ã×                      :   RLML
 RNML.Å·Ä·Ã×                      :   RNML
 R04 .Å·Ä·Ã×                      :   R04
 R25 .Å·Ä·Ã×                      :   R25
 R4  .Å·Ä·Ã×                      :   R4
 RFOC.Å·Ä·Ã×                      :   RFOC
 RILD.Å·Ä·Ã×                      :   RILD
 RILM.Å·Ä·Ã×                      :   RILM
 SP  .mv                      :   SP
 SP  .ºÁ·ü                      :   SP
#
~A  DEPTH          AC        CAL        CAL       COND         GR       RLML       RNML        R04        R25         R4       RFOC       RILD       RILM         SP         SP
# ...
   2081.000    302.643     25.180   -999.250    596.250     11.204      0.590      0.615      1.327      1.649      2.638      1.337      1.590      1.890     66.916     70.586
   2081.125    314.253     25.171   -999.250    590.625      9.831      1.152      1.392      1.366      1.647      2.667      1.232      1.606      1.890     66.952     70.425
   2081.250    328.341     25.445   -999.250    586.250      9.670      2.013      2.192      1.652      1.700      2.638      1.453      1.606      1.949     66.871     70.106
   2081.375    339.721     24.831   -999.250    583.750      9.918      1.253      2.282      1.949      1.724      2.696      1.778      1.606      2.072     66.722     69.624
   2081.500    339.721     24.642   -999.250    586.250      9.500      0.603      0.769      2.301      1.750      2.783      2.072      1.590      2.115     66.483     69.307
   2081.625    337.518     26.839   -999.250    591.875      9.052      0.731      0.949      2.364      1.724      2.841      2.271      1.558      2.115     66.088     68.824
   2081.750    326.872     28.208   -999.250    596.875      8.696      0.513      1.165      2.193      1.699      2.783      2.111      1.542      1.994     65.578     68.348
   2081.875    315.492     25.819   -999.250    600.658      8.472      0.910      1.000      1.627      1.724      2.812      1.549      1.542      1.890     65.002     67.704
   2082.000    305.947     23.127   -999.250    603.289      8.259      0.705      0.731      1.481      1.750      2.754      1.351      1.558      1.815     64.492     67.228
   2082.125    317.695     21.821   -999.250    605.263      7.752      0.833      0.974      1.673      1.775      2.725      1.542      1.574      1.815     63.659     66.904
   2082.250    331.645     22.736   -999.250    606.579      7.795      1.494      1.494      2.083      1.801      2.783      1.929      1.574      1.910     63.023     66.269
   2082.375    332.746     23.589   -999.250    607.237      8.045      1.367      1.342      2.437      1.775      2.841      2.341      1.574      1.969     62.301     65.940
   2082.500    325.037     24.837   -999.250    607.895      8.255      2.051      2.231      1.886      1.724      2.783      1.969      1.542      1.910     61.735     65.468
   2082.625    314.758     25.024   -999.250    607.895      8.586      0.590      1.709      1.398      1.699      2.696      1.378      1.548      1.760     61.264     65.144
   2082.750    308.150     24.234   -999.250    609.211      9.062      1.114      1.114      1.261      1.673      2.638      1.245      1.558      1.742     60.993     64.668
   2082.875    307.416     23.420   -999.250    612.500      8.715      1.405      1.241      1.317      1.648      2.609      1.245      1.526      1.742     60.805     64.185
   2083.000    327.239     22.602   -999.250    618.421      8.939      0.987      1.595      1.628      1.622      2.638      1.511      1.495      1.910     60.691     64.028
   2083.125    348.164     23.900   -999.250    626.316      8.717      1.215      1.266      1.834      1.673      2.667      1.778      1.465      1.900     60.658     63.706
   2083.250    350.000     25.562   -999.250    632.237      8.365      1.544      2.026      1.895      1.724      2.696      1.796      1.465      1.879     60.660     63.708
   2083.375    345.962     26.728   -999.250    632.895      8.635      1.772      1.658      1.619      1.750      2.754      1.673      1.461      1.852     60.661     64.028
   2083.500    334.949     26.161   -999.250    634.211      8.996      0.756      0.859      1.429      1.750      2.754      1.310      1.457      1.871     60.662     64.189
   2083.625    331.645     24.645   -999.250    635.526      8.646      1.038      1.063      1.517      1.674      2.667      1.465      1.453      1.949     60.665     64.350
   2083.750    329.337     23.421   -999.250    638.158      7.859      0.718      0.718      1.867      1.622      2.580      1.802      1.450      1.949     60.632     64.511
   2083.875    323.568     23.109   -999.250    639.474      7.967      1.380      1.165      2.546      1.597      2.522      2.414      1.450      1.890     60.503     64.191
   2084.000    323.568     23.763   -999.250    640.789      7.656      2.051      1.608      2.441      1.622      2.464      2.318      1.451      1.796     60.560     63.872
   2084.125    312.555     24.200   -999.250    639.474      7.427      0.718      1.190      2.228      1.648      2.493      2.051      1.465      1.725     60.332     63.551
   2084.250    309.618     23.311   -999.250    633.553      8.069      0.872      0.731      1.837      1.674      2.464      1.725      1.480      1.707     60.088     63.072
   2084.375    311.087     21.923   -999.250    625.000      7.328      1.190      0.962      1.514      1.648      2.522      1.495      1.511      1.690     60.014     62.750
   2084.500    318.062     21.467   -999.250    613.158      6.372      1.519      1.165      1.344      1.597      2.609      1.364      1.542      1.796     59.995     62.591
   2084.625    325.771     21.385   -999.250    601.974      6.056      1.266      1.456      1.341      1.596      2.667      1.258      1.542      2.010     59.881     62.431
   2084.750    330.543     21.837   -999.250    593.750      6.620      1.304      1.316      1.683      1.597      2.783      1.568      1.574      2.115     60.000     62.271
   2084.875    338.987     22.649   -999.250    588.750      7.382      1.937      2.051      2.036      1.621      2.754      1.929      1.606      2.136     60.144     62.751
   2085.000    328.708     23.286   -999.250    587.500      7.781      1.430      1.253      2.335      1.636      2.783      2.093      1.606      2.093     60.473     63.391
   2085.125    325.404     23.760   -999.250    583.125      7.594      0.718      0.692      2.004      1.672      2.696      1.910      1.590      1.969     60.963     64.512
   2085.250    316.667     24.186   -999.250    573.750      7.895      1.937      1.873      1.674      1.649      2.609      1.606      1.640      1.852     61.652     65.951
   2085.375    307.416     22.653   -999.250    562.500      7.497      0.590      0.487      1.444      1.621      2.638      1.465      1.690      1.796     62.656     67.233
   2085.500    317.327     21.512   -999.250    548.734      6.908      1.025      0.808      1.322      1.649      2.638      1.271      1.778      1.871     63.802     68.672
   2085.625    325.771     21.773   -999.250    527.215      6.624      1.481      1.570      1.486      1.698      2.667      1.387      1.833      1.989     65.022     69.953
   2085.750    328.341     23.467   -999.250    515.823      6.864      2.013      0.872      1.667      1.725      2.696      1.584      1.815      2.072     66.077     71.393
   2085.875    334.581     24.568   -999.250    510.759      7.183      0.949      1.329      1.846      1.749      2.812      1.796      1.833      2.093     66.919     72.192
   2086.000    326.780     25.515   -999.250    508.228      7.219      1.684      1.759      1.902      1.751      2.870      1.796      1.833      2.115     68.095     72.674
   2086.125    318.062     26.251   -999.250    506.962      6.963      0.603      0.513      1.652      1.749      2.841      1.606      1.833      2.115     68.854     73.150
   2086.250    313.656     25.623   -999.250    501.266      6.629      1.000      1.051      1.510      1.751      2.812      1.488      1.852      2.115     69.529     73.475
   2086.375    312.775     25.105   -999.250    494.304      6.438      0.641      0.628      1.488      1.698      2.725      1.421      1.949      2.125     70.377     73.787
   2086.500    312.555     26.055   -999.250    484.810      6.668      1.684      1.709      1.558      1.623      2.696      1.542      1.929      2.186     71.019     74.117
   2086.625    310.903     27.043   -999.250    475.949      7.016      0.551      0.590      1.593      1.596      2.725      1.526      1.949      2.259     71.503     74.584
