~Version Information Block
 VERS.                2.00:     CWLS LOG ASCII STANDARD - VERSION 2.000000
 WRAP.                  NO:     One Line Per Depth Step
#
~Well Information Block
#MNEM.UNIT                     Data                         Information
#----------   ------------------------------------------   ----------------
 STRT.M                                        189.625:
 STOP.M                                       2185.000:
 STEP.M                                          0.125:
 NULL.                                        -999.250:
 COMP.                                   ²â¾®Êý¾Ý¿âµ¼³ö:     COMPANY 
 WELL.                                         ¹ÂÄÏ152-4:     Well 
 FLD .                                                :     Field 
 LOC .                                                :     LOCATION
 CNTY.                                                :     COUNTY
 STAT.                                                :     STATE
 CTRY.                                                :     COUNTRY
 SRVC.                                                :     SERVICE COMPANY
 DATE.                                                :     DATE
 API .                                                :     API NUMBER
#
~Curve Information Block
#MNEM.UNIT       API CODE      Curve Description
#----------    -------------   -------------------
 DEPT.M                    :   Depth in Meters
 AC  .Î¢Ãë/Ã×                      :   AC
 CAL .ÀåÃ×                      :   CAL
 CAL .ÀåÃ×                      :   CAL
 COND.mS/m                      :   COND
 GR  .Î¢ÂØÇÙ/Ð¡Ê±                      :   GR
 RLML.Å·Ä·Ã×                      :   RLML
 RNML.Å·Ä·Ã×                      :   RNML
 R04 .Å·Ä·Ã×                      :   R04
 R25 .Å·Ä·Ã×                      :   R25
 R25 .Å·Ä·Ã×                      :   R25
 R4  .Å·Ä·Ã×                      :   R4
 SP  .ºÁ·ü                      :   SP
 SP  .ºÁ·ü                      :   SP
#
~A  DEPTH          AC        CAL        CAL       COND         GR       RLML       RNML        R04        R25        R25         R4         SP         SP
# ...
    722.625    510.484     24.065   -999.250    372.982      6.761      1.938      2.196      3.585      4.243      5.799      5.658    159.527    129.262
    722.750    460.781     23.855   -999.250    380.630      6.593      2.321      2.039      3.422      3.934      5.478      5.132    159.474    129.414
    722.875    454.964     24.844   -999.250    390.191      6.728      1.654      1.670      3.261      3.607      4.853      4.716    159.475    129.419
    723.000    504.212     26.279   -999.250    396.565      7.051      1.043      1.301      3.098      3.527      4.511      4.480    159.475    129.416
    723.125    535.690     26.965   -999.250    405.489      7.371      1.170      1.153      2.905      3.557      4.169      4.168    159.474    129.416
    723.250    561.462     25.043   -999.250    409.950      7.715      1.326      1.337      2.793      3.655      3.835      3.905    159.474    129.418
    723.375    574.180     22.896   -999.250    411.225      8.106      1.308      1.425      2.725      3.701      3.624      3.650    159.481    129.573
    723.500    564.809     21.603   -999.250    411.863      8.347      1.398      1.460      2.665      3.740      3.500      3.407    159.602    129.580
    723.625    556.330     22.831   -999.250    412.500      7.722      1.251      1.370      2.640      3.785      3.501      3.219    159.644    129.571
    723.750    548.837     24.456   -999.250    412.500      7.028      1.209      1.250      2.611      3.782      3.587      3.157    159.763    129.582
    723.875    542.691     26.118   -999.250    414.412      6.696      1.090      1.209      2.591      3.684      3.649      3.160    159.804    129.729
    724.000    536.545     27.446   -999.250    417.599      6.512      1.796      1.424      2.592      3.576      3.711      3.160    159.925    129.742
    724.125    535.291     28.547   -999.250    421.424      7.319      1.492      1.442      2.600      3.474      3.684      3.154    159.955    129.728
    724.250    565.893     29.387   -999.250    425.885      7.698      1.128      1.252      2.584      3.367      3.618      3.141    160.129    129.743
    724.375    576.730     26.208   -999.250    428.435      7.373      1.160      1.180      2.566      3.251      3.541      3.128    160.114    129.727
    724.500    576.730     23.726   -999.250    430.984      7.180      1.359      1.253      2.553      3.248      3.463      3.115    160.109    129.743
    724.625    569.718     22.649   -999.250    432.897      7.523      1.664      1.423      2.505      3.301      3.385      3.102    160.096    129.886
    724.750    560.155     22.425   -999.250    434.171      8.036      1.307      1.506      2.457      3.380      3.308      3.090    160.269    129.743
    724.875    555.692     22.180   -999.250    434.809      7.641      1.691      1.413      2.410      3.481      3.324      3.051    160.252    129.887
    725.000    550.592     22.088   -999.250    434.809      8.080      1.335      1.319      2.363      3.603      3.379      3.002    160.432    129.902
    725.125    546.528     22.031   -999.250    436.721      7.955      1.462      1.379      2.315      3.631      3.432      2.949    160.430    129.887
    725.250    549.636     22.174   -999.250    438.633      8.163      1.570      1.446      2.268      3.533      3.485      2.908    160.398    129.901
    725.375    555.055     22.724   -999.250    439.908      8.607      1.385      1.387      2.232      3.435      3.539      2.848    160.280    129.888
    725.500    558.242     23.528   -999.250    441.183      7.734      1.622      1.454      2.250      3.335      3.557      2.831    160.286    129.900
    725.625    561.430     24.419   -999.250    442.458      7.535      1.115      1.251      2.267      3.250      3.533      2.802    160.112    129.890
    725.750    562.705     24.616   -999.250    443.732      7.227      1.457      1.413      2.282      3.223      3.457      2.804    160.132    129.899
    725.875    562.705     23.686   -999.250    444.370      6.834      1.238      1.505      2.272      3.148      3.366      2.812    159.955    130.050
    726.000    561.430     22.894   -999.250    445.644      6.593      1.366      1.312      2.259      3.095      3.277      2.838    159.923    130.057
    726.125    560.792     22.462   -999.250    445.007      7.011      1.438      1.516      2.257      3.072      3.191      2.864    159.803    130.051
    726.250    558.880     22.720   -999.250    443.732      6.591      1.270      1.383      2.251      3.019      3.119      2.889    159.809    130.057
    726.375    556.330     23.162   -999.250    441.183      6.730      1.387      1.435      2.220      2.996      3.057      2.914    159.632    130.051
    726.500    551.230     22.842   -999.250    438.633      6.406      1.315      1.361      2.189      2.942      3.022      2.940    159.638    130.056
    726.625    545.492     22.074   -999.250    437.358      6.850      1.261      1.434      2.158      2.869      3.003      2.965    159.638    130.051
    726.750    542.244     21.542   -999.250    433.534      6.357      1.211      1.343      2.128      2.814      2.997      2.990    159.602    130.056
    726.875    538.479     22.529   -999.250    430.347      6.126      1.352      1.386      2.097      2.793      2.997      3.015    159.476    130.051
    727.000    543.579     24.015   -999.250    426.523      6.539      1.298      1.328      2.066      2.865      2.996      3.034    159.426    130.056
    727.125    548.042     25.473   -999.250    422.698      6.109      1.475      1.303      2.034      2.954      2.982      3.041    159.469    130.051
    727.250    548.679     26.365   -999.250    417.599      5.624      1.412      1.384      2.007      3.093      2.996      3.049    159.474    130.056
    727.375    545.412     27.099   -999.250    412.500      5.795      1.285      1.235      2.005      3.200      2.990      3.057    159.475    130.051
    727.500    541.667     28.181   -999.250    408.038      5.494      1.166      1.118      2.105      3.335      3.001      3.091    159.475    130.056
    727.625    535.929     29.568   -999.250    401.027      5.108      1.115      1.120      2.209      3.429      3.009      3.146    159.475    130.050
    727.750    528.645     30.874   -999.250    394.653      4.848      1.776      1.337      2.309      3.602      3.021      3.239    159.475    129.897
    727.875    522.740     31.822   -999.250    388.916      5.107      1.059      1.239      2.408      3.709      3.062      3.348    159.475    129.892
    728.000    512.341     30.740   -999.250    382.542      5.254      1.100      1.118      2.508      3.790      3.151      3.459    159.475    129.897
    728.125    502.877     29.519   -999.250    378.081      5.210      1.158      1.076      2.608      3.879      3.245      3.570    159.475    129.892
    728.250    485.963     28.965   -999.250    373.300      5.799      1.049      1.046      2.704      3.908      3.341      3.705    159.475    129.738
    728.375    467.339     27.934   -999.250    370.432      5.643      1.008      1.378      2.789      3.809      3.430      3.832    159.475    129.733
    728.500    448.716     26.048   -999.250    368.520      5.841      2.003      1.822      2.898      3.633      3.583      3.960    159.475    129.737
    728.625    430.092     24.646   -999.250    367.882      5.807      1.603      1.971      2.989      3.461      3.758      4.073    159.475    129.575
    728.750    416.075     23.992   -999.250    366.926      5.517      1.851      1.961      3.118      3.324      3.816      3.955    159.474    129.577
    728.875    402.069     25.051   -999.250    366.608      5.440      1.023      1.307      3.264      3.224      3.766      3.786    159.474    129.576
    729.000    401.412     25.753   -999.250    366.608      5.685      1.727      1.640      3.385      3.172      3.634      3.612    159.477    129.417
