~Version Information Block
 VERS.                2.00:     CWLS LOG ASCII STANDARD - VERSION 2.000000
 WRAP.                  NO:     One Line Per Depth Step
#
~Well Information Block
#MNEM.UNIT                     Data                         Information
#----------   ------------------------------------------   ----------------
 STRT.M                                        189.625:
 STOP.M                                       2185.000:
 STEP.M                                          0.125:
 NULL.                                        -999.250:
 COMP.                                   ²â¾®Êý¾Ý¿âµ¼³ö:     COMPANY 
 WELL.                                         ¹ÂÄÏ152-4:     Well 
 FLD .                                                :     Field 
 LOC .                                                :     LOCATION
 CNTY.                                                :     COUNTY
 STAT.                                                :     STATE
 CTRY.                                                :     COUNTRY
 SRVC.                                                :     SERVICE COMPANY
 DATE.                                                :     DATE
 API .                                                :     API NUMBER
#
~Curve Information Block
#MNEM.UNIT       API CODE      Curve Description
#----------    -------------   -------------------
 DEPT.M                    :   Depth in Meters
 AC  .Î¢Ãë/Ã×                      :   AC
 CAL .ÀåÃ×                      :   CAL
 CAL .ÀåÃ×                      :   CAL
 COND.mS/m                      :   COND
 GR  .Î¢ÂØÇÙ/Ð¡Ê±                      :   GR
 RLML.Å·Ä·Ã×                      :   RLML
 RNML.Å·Ä·Ã×                      :   RNML
 R04 .Å·Ä·Ã×                      :   R04
 R25 .Å·Ä·Ã×                      :   R25
 R25 .Å·Ä·Ã×                      :   R25
 R4  .Å·Ä·Ã×                      :   R4
 SP  .ºÁ·ü                      :   SP
 SP  .ºÁ·ü                      :   SP
#
~A  DEPTH          AC        CAL        CAL       COND         GR       RLML       RNML        R04        R25        R25         R4         SP         SP
# ...
   2172.125    212.864   -999.250   -999.250    119.936     10.709      3.013      3.204     14.716     27.656     28.006     21.033    177.957    150.619
   2172.250    213.444   -999.250   -999.250    120.574     10.558      4.452      4.287     14.694     27.631     27.787     21.135    177.830    150.622
   2172.375    215.117   -999.250   -999.250    119.387     10.257      2.554      2.911     14.678     27.592     27.740     21.260    177.704    150.619
   2172.500    216.530   -999.250   -999.250    118.127     10.416      4.799      3.998     14.659     27.259     27.658     21.382    177.628    150.622
   2172.625    215.840   -999.250   -999.250    116.868     10.782      6.146      4.541     14.638     26.625     27.565     21.506    177.628    150.620
   2172.750    213.347   -999.250   -999.250    115.608     11.149      4.694      4.299     14.617     25.975     27.365     21.237    177.636    150.622
   2172.875    210.855   -999.250   -999.250    114.348     11.299      4.236      4.803     14.596     25.784     27.125     20.807    177.695    150.620
   2173.000    208.880   -999.250   -999.250    113.089     11.094      5.739      5.475     14.579     25.589     26.939     20.364    177.754    150.622
   2173.125    211.796   -999.250   -999.250    111.829     11.481      3.828      5.105   -999.250     25.395     27.046     20.192    177.813    150.621
   2173.250    215.478   -999.250   -999.250    110.569     11.047      3.701      4.403   -999.250     25.185     27.188     20.190    177.872    150.622
   2173.375    219.160   -999.250   -999.250    109.738     11.345      4.363      4.660   -999.250     25.159     27.329     20.202    177.931    150.621
   2173.500    220.993   -999.250   -999.250    109.818     11.193      3.193      3.006   -999.250     25.134     27.400     20.215    177.990    150.622
   2173.625    216.460   -999.250   -999.250    109.947     11.186      2.503      3.417   -999.250     25.208     27.348     20.228    178.049    150.622
   2173.750    211.091   -999.250   -999.250    110.077     11.402      4.042      4.531   -999.250     25.290     27.296     20.241    178.108    150.622
   2173.875    207.693   -999.250   -999.250    110.206     11.109      3.559      4.235   -999.250     25.372     27.304     20.255    178.167    150.622
   2174.000    208.314   -999.250   -999.250    110.336     11.357      3.844      4.026   -999.250     25.458     27.335     20.266    178.226    150.622
   2174.125    208.880   -999.250   -999.250    110.375     11.620      3.552      4.582   -999.250     25.537     27.362     20.267    178.285    150.622
   2174.250    208.880   -999.250   -999.250    110.375     11.951      3.894      5.072   -999.250     25.595     27.389     20.283    178.344    150.622
   2174.375    208.880   -999.250   -999.250    111.013     11.660      4.029      5.501   -999.250     25.593     27.417     20.299    178.405    150.622
   2174.500    208.880   -999.250   -999.250    111.013     11.972      4.086      5.704   -999.250     25.594     27.445     20.314    178.406    150.622
   2174.625    208.242   -999.250   -999.250    111.013     12.288      4.112      5.897   -999.250     25.593     27.462     20.314    178.334    150.622
   2174.750    207.605   -999.250   -999.250    111.650     12.425      4.113      5.904   -999.250     25.589     27.461     20.309    178.263    150.622
   2174.875    206.967   -999.250   -999.250    111.650     11.979      4.099      5.898   -999.250     25.584     27.441     20.305    178.191    150.622
   2175.000    206.330   -999.250   -999.250    111.650     12.086      4.085      5.892   -999.250     25.579     27.419     20.301    178.117    150.622
   2175.125    204.905   -999.250   -999.250    112.288     11.949      4.071      5.895   -999.250     25.575     27.397     20.295    178.163    150.622
   2175.250    204.118   -999.250   -999.250    112.288     11.712      4.058      5.910   -999.250     25.570     27.386     20.271    178.233    150.622
   2175.375    203.331   -999.250   -999.250    112.288     12.046      4.057      5.924   -999.250     25.567     27.380     20.263    178.304    150.622
   2175.500    202.505   -999.250   -999.250    112.288     11.453      4.057      5.927   -999.250     25.566     27.356     20.261    178.372    150.622
   2175.625    202.424   -999.250   -999.250    112.925     11.896      4.057      5.915   -999.250     25.567     27.347     20.258    178.455    150.622
   2175.750    202.316   -999.250   -999.250    112.925     11.759      4.057      5.903   -999.250     25.566     27.339     20.256    178.525    150.622
   2175.875    202.208   -999.250   -999.250    113.562     12.019      4.057      5.890   -999.250     25.567     27.339     20.253    178.439    150.622
   2176.000    202.100   -999.250   -999.250    112.925     12.005      4.057      5.879   -999.250     25.592     27.379     20.250    178.346    150.622
   2176.125    201.992   -999.250   -999.250    113.562     12.158      4.057      5.876   -999.250     25.590     27.421     20.247    178.252    150.622
   2176.250    201.884   -999.250   -999.250    113.562     12.280      4.060      5.867   -999.250     25.588     27.461     20.245    178.158    150.622
   2176.375    201.867   -999.250   -999.250    113.562     12.287      4.072      5.866   -999.250     25.586     27.501     20.242    178.064    150.622
   2176.500    201.230   -999.250   -999.250    113.562     12.062      4.082      5.866   -999.250     25.583     27.541     20.242    177.966    150.622
   2176.625    200.735   -999.250   -999.250    113.562     11.762      4.085      5.866   -999.250     25.582     27.581     20.223    177.945    150.622
   2176.750   -999.250   -999.250   -999.250    113.562     11.198      4.095      5.866   -999.250     25.579     27.616   -999.250    177.762    150.622
   2176.875   -999.250   -999.250   -999.250    113.393     11.185      4.095      5.862   -999.250     25.577     27.615   -999.250    177.704    150.622
   2177.000   -999.250   -999.250   -999.250    112.606     11.041      4.098      5.867   -999.250     25.575     27.602   -999.250    177.617    150.622
   2177.125   -999.250   -999.250   -999.250    111.819     10.884      4.110      5.866   -999.250     25.573     27.588   -999.250    177.629    150.622
   2177.250   -999.250   -999.250   -999.250    111.033     11.057      4.119      5.866   -999.250     25.571     27.575   -999.250    177.628    150.622
   2177.375   -999.250   -999.250   -999.250    110.375     11.516      4.135      5.866   -999.250     25.568     27.565   -999.250    177.627    150.622
   2177.500   -999.250   -999.250   -999.250   -999.250     11.212      4.144      5.868   -999.250     25.567     27.571   -999.250    177.627    150.622
   2177.625   -999.250   -999.250   -999.250   -999.250     11.327      4.160      5.853   -999.250     25.567     27.578   -999.250    177.627    150.622
   2177.750   -999.250   -999.250   -999.250   -999.250     11.218      4.172      5.854   -999.250     25.567     27.584   -999.250    177.627    150.622
   2177.875   -999.250   -999.250   -999.250   -999.250     11.404      4.187      5.852   -999.250     25.566     27.589   -999.250    177.628    150.622
   2178.000   -999.250   -999.250   -999.250   -999.250     11.715      4.196      5.850   -999.250     25.568     27.594   -999.250    177.608    150.622
   2178.125   -999.250   -999.250   -999.250   -999.250     11.399      4.221      5.848   -999.250     25.592     27.599   -999.250    177.582    150.622
   2178.250   -999.250   -999.250   -999.250   -999.250     11.440      4.238      5.846   -999.250     25.593     27.604   -999.250    177.556    150.622
   2178.375   -999.250   -999.250   -999.250   -999.250     11.216      4.242      5.845   -999.250     25.592     27.608   -999.250    177.530    150.622
   2178.500   -999.250   -999.250   -999.250   -999.250     10.966      4.249      5.843   -999.250     25.593     27.614   -999.250    177.504    150.622
