~Version Information Block
 VERS.                2.00:     CWLS LOG ASCII STANDARD - VERSION 2.000000
 WRAP.                  NO:     One Line Per Depth Step
#
~Well Information Block
#MNEM.UNIT                     Data                         Information
#----------   ------------------------------------------   ----------------
 STRT.M                                        189.625:
 STOP.M                                       2185.000:
 STEP.M                                          0.125:
 NULL.                                        -999.250:
 COMP.                                   ²â¾®Êý¾Ý¿âµ¼³ö:     COMPANY 
 WELL.                                         ¹ÂÄÏ152-4:     Well 
 FLD .                                                :     Field 
 LOC .                                                :     LOCATION
 CNTY.                                                :     COUNTY
 STAT.                                                :     STATE
 CTRY.                                                :     COUNTRY
 SRVC.                                                :     SERVICE COMPANY
 DATE.                                                :     DATE
 API .                                                :     API NUMBER
#
~Curve Information Block
#MNEM.UNIT       API CODE      Curve Description
#----------    -------------   -------------------
 DEPT.M                    :   Depth in Meters
 AC  .Î¢Ãë/Ã×                      :   AC
 CAL .ÀåÃ×                      :   CAL
 CAL .ÀåÃ×                      :   CAL
 COND.mS/m                      :   COND
 GR  .Î¢ÂØÇÙ/Ð¡Ê±                      :   GR
 RLML.Å·Ä·Ã×                      :   RLML
 RNML.Å·Ä·Ã×                      :   RNML
 R04 .Å·Ä·Ã×                      :   R04
 R25 .Å·Ä·Ã×                      :   R25
 R25 .Å·Ä·Ã×                      :   R25
 R4  .Å·Ä·Ã×                      :   R4
 SP  .ºÁ·ü                      :   SP
 SP  .ºÁ·ü                      :   SP
#
~A  DEPTH          AC        CAL        CAL       COND         GR       RLML       RNML        R04        R25        R25         R4         SP         SP
# ...
   2061.625    281.978     21.390   -999.250    501.098      9.133      1.244      1.599      4.564      2.000      2.136      1.561    151.452    122.426
   2061.750    280.920     21.491   -999.250    490.262      8.958      1.254      1.613      4.627      2.002      2.170      1.560    152.082    123.035
   2061.875    276.617     21.611   -999.250    480.064      9.257      1.246      1.671      4.689      2.051      2.226      1.564    152.662    123.706
   2062.000    266.894     21.797   -999.250    469.865      9.443      1.323      1.757      4.752      2.078      2.279      1.630    153.794    124.626
   2062.125    254.144     22.182   -999.250    460.942      9.352      1.422      1.816      4.808      2.143      2.332      1.693    154.860    125.462
   2062.250    238.594     22.549   -999.250    449.562      8.930      1.517      1.817      4.805      2.223      2.385      1.759    155.923    126.375
   2062.375    224.823     22.381   -999.250    437.996      9.392      1.509      1.909      4.729      2.300      2.438      1.807    156.984    127.304
   2062.500    222.905     21.880   -999.250    425.885      9.024      1.501      1.850      4.646      2.379      2.498      1.885    158.306    129.399
   2062.625    251.082     22.050   -999.250    416.324     10.137      1.709      2.187      4.564      2.458      2.558      1.960    159.948    131.520
   2062.750    270.082     22.985   -999.250    403.576     10.525      2.145      1.912      4.482      2.536      2.618      2.052    161.586    133.053
   2062.875    282.832     23.918   -999.250    392.741     10.099      1.265      1.403      4.402      2.615      2.676      2.137    163.224    134.554
   2063.000    290.908     24.848   -999.250    383.180     10.204      0.896      1.223      4.420      2.692      2.721      2.222    164.863    136.556
   2063.125    295.583     25.713   -999.250    374.256     10.511      0.804      1.047      4.427      2.772      2.769      2.307    166.502    137.737
   2063.250    285.348     25.083   -999.250    367.661     10.472      1.018      1.015      4.427      2.840      2.854      2.393    168.133    139.583
   2063.375    273.270     23.931   -999.250    359.618     10.817      1.067      1.161      4.479      2.893      2.942      2.478    169.901    140.918
   2063.500    263.707     24.748   -999.250    354.497     10.257      0.887      1.159      4.534      2.993      3.029      2.563    171.998    142.772
   2063.625    251.721     25.001   -999.250    350.035     10.134      0.885      1.099      4.589      3.071      3.118      2.648    173.385    143.938
   2063.750    250.319     24.075   -999.250    347.486      9.931      0.957      1.076      4.645      3.196      3.217      2.733    174.773    145.326
   2063.875    264.447     23.196   -999.250    346.848      9.747      0.899      1.155      4.701      3.299      3.359      2.818    176.161    146.640
   2064.000    274.545     22.827   -999.250    347.486     10.265      0.873      1.289      4.686      3.451      3.496      2.903    177.548    147.403
   2064.125    282.832     23.731   -999.250    348.123     10.008      1.115      1.053      4.629      3.578      3.641      2.985    178.463    148.068
   2064.250    296.858     24.265   -999.250    350.035     10.557      0.981      1.297      4.537      3.705      3.795      3.086    178.779    148.683
   2064.375    300.683     23.513   -999.250    353.422     10.963      0.963      1.149      4.446      3.833      3.923      3.183    179.070    149.180
   2064.500    298.770     23.853   -999.250    356.409     10.696      1.299      1.383      4.355      3.935      4.040      3.280    179.092    149.167
   2064.625    290.483     24.666   -999.250    359.596     11.026      0.913      1.035      4.246      4.088      4.172      3.377    179.134    149.659
   2064.750    278.370     24.896   -999.250    362.056     10.800      1.215      1.225      4.147      4.139      4.296      3.441    179.180    149.970
   2064.875    272.632     24.159   -999.250    364.810     10.487      0.742      1.003      4.064      4.221      4.394      3.377    179.225    150.137
   2065.000    289.208     23.778   -999.250    368.520     10.331      1.202      1.188      4.006      4.304      4.463      3.249    179.270    150.131
   2065.125    298.133     24.549   -999.250    370.618     10.148      1.105      1.435      3.982      4.368      4.325      3.125    179.315    150.140
   2065.250    299.408     24.821   -999.250    372.716     10.370      1.448      1.184      3.968      4.317      4.170      3.004    179.360    150.452
   2065.375    291.120     24.342   -999.250    374.256     10.699      0.855      1.111      3.997      4.096      4.014      2.896    179.405    150.302
   2065.500    281.557     24.005   -999.250    372.434     11.029      1.229      1.157      4.076      3.913      3.858      2.764    179.449    150.294
   2065.625    270.034     24.341   -999.250    369.090     11.361      1.388      1.383      4.144      3.730      3.699      2.661    179.494    150.304
   2065.750    265.586     24.506   -999.250    365.746     11.433      1.050      1.192      4.253      3.546      3.538      2.556    179.539    150.455
   2065.875    272.632     24.365   -999.250    362.783     11.142      1.357      1.579      4.373      3.365      3.440      2.451    179.584    150.464
   2066.000    296.220     24.267   -999.250    359.278     11.342      1.111      1.302      4.553      3.180      3.323      2.345    179.629    150.457
   2066.125    288.633     24.546   -999.250    357.043     11.333      1.792      1.455      4.760      3.097      3.195      2.249    179.674    150.464
   2066.250    273.265     24.966   -999.250    355.208     11.385      0.910      1.108      4.959      3.198      3.152      2.247    179.692    150.619
   2066.375    257.896     24.609   -999.250    353.860     10.780      1.436      1.309      4.840      3.398      3.234      2.329    179.672    150.622
   2066.500    243.306     23.850   -999.250    354.497     10.345      0.924      1.077      4.590      3.605      3.410      2.495    179.652    150.621
   2066.625    253.297     23.314   -999.250    355.135     10.654      1.275      1.818      4.667      3.707      3.585      2.668    179.632    150.620
   2066.750    268.774     22.909   -999.250    356.572     10.861      2.679      2.834      4.754      3.813      3.760      2.842    179.612    150.464
   2066.875    280.920     23.599   -999.250    357.957     11.228      1.989      1.996      4.555      3.920      3.864      2.908    179.593    150.459
   2067.000    276.457     24.695   -999.250    359.341     11.162      0.877      1.021      4.401      3.987      3.837      2.814    179.573    150.466
   2067.125    287.933     24.397   -999.250    360.726     11.491      1.381      1.448      4.236      3.962      3.771      2.703    179.553    150.616
   2067.250    294.945     23.825   -999.250    362.146     11.748      1.225      1.284      4.244      3.758      3.706      2.590    179.533    150.627
   2067.375    299.806     23.956   -999.250    364.058     11.629      0.972      1.155      4.272      3.580      3.639      2.481    179.513    150.615
   2067.500    302.596     24.644   -999.250    366.044     11.188      1.403      1.260      4.247      3.580      3.609      2.454    179.493    150.627
   2067.625    292.883     25.227   -999.250    368.465     11.367      1.155      1.288      4.125      3.669      3.608      2.496    179.473    150.615
   2067.750    286.658     24.989   -999.250    371.069     11.392      0.978      1.069      4.038      3.740      3.662      2.584    179.453    150.468
   2067.875    292.395     24.554   -999.250    373.345     10.872      1.488      1.412      3.962      3.811      3.764      2.673    179.434    150.457
   2068.000    279.007     24.185   -999.250    375.807     10.977      1.099      1.169      3.942      3.885      3.914      2.762    179.414    150.308
