~Version Information Block
 VERS.                2.00:     CWLS LOG ASCII STANDARD - VERSION 2.000000
 WRAP.                  NO:     One Line Per Depth Step
#
~Well Information Block
#MNEM.UNIT                     Data                         Information
#----------   ------------------------------------------   ----------------
 STRT.M                                        110.000:
 STOP.M                                       2506.000:
 STEP.M                                          0.125:
 NULL.                                        -999.250:
 COMP.                                   测井数据库导出:     COMPANY 
 WELL.                                         孤南152-9:     Well 
 FLD .                                                :     Field 
 LOC .                                                :     LOCATION
 CNTY.                                                :     COUNTY
 STAT.                                                :     STATE
 CTRY.                                                :     COUNTRY
 SRVC.                                                :     SERVICE COMPANY
 DATE.                                                :     DATE
 API .                                                :     API NUMBER
#
~Curve Information Block
#MNEM.UNIT       API CODE      Curve Description
#----------    -------------   -------------------
 DEPT.M                    :   Depth in Meters
 AC  .微秒/米                      :   AC
 CAL .厘米                      :   CAL
 COND.毫西门子/米                      :   COND
 GR  .API                      :   GR
 R25 .欧姆米                      :   R25
 R4  .欧姆米                      :   R4
 RFOC.欧姆米                      :   RFOC
 RILD.欧姆米                      :   RILD
 RILM.欧姆米                      :   RILM
 RLML.欧姆米                      :   RLML
 RNML.欧姆米                      :   RNML
 SP  .毫伏                      :   SP
#
~A  DEPTH          AC        CAL       COND         GR        R25         R4       RFOC       RILD       RILM       RLML       RNML         SP
# ...
   1412.000    421.000     21.800    505.469     88.400      2.440      2.720      1.736      1.978      2.037      0.760      0.820     -8.000
   1412.125    417.000     22.300    498.190     88.000      2.400      2.720      1.687      2.007      2.097      0.780      0.860     -8.000
   1412.250    414.000     23.300    483.946     85.600      2.400      2.920      1.638      2.066      2.222      0.740      0.800     -8.000
   1412.375    405.000     23.600    463.339     80.000      2.480      2.920      1.615      2.158      2.354      0.600      0.760     -8.000
   1412.500    390.000     23.400    463.339     75.600      2.560      3.160      1.687      2.158      2.569      0.620      0.760     -8.250
   1412.625    366.000     23.300    443.610     72.400      2.720      3.360      1.950      2.254      2.722      0.620      0.800     -9.000
   1412.750    343.000     22.700    437.222     71.600      2.880      3.600      2.222      2.287      2.843      0.740      0.980     -9.750
   1412.875    332.000     22.100    430.926     73.200      3.160      3.880      2.424      2.321      2.885      1.260      1.420    -10.750
   1413.000    333.000     21.700    430.926     78.000      3.320      4.080      2.495      2.321      2.927      1.500      1.580    -11.750
   1413.125    344.000     21.700    430.926     83.200      3.440      4.240      2.532      2.321      2.885      1.520      1.680    -12.500
   1413.250    352.000     21.800    430.926     86.400      3.480      4.280      2.424      2.321      2.843      1.680      1.800    -13.250
   1413.375    359.000     22.100    430.926     86.000      3.440      4.080      2.097      2.321      2.802      1.120      1.320    -13.750
   1413.500    372.000     22.500    437.222     84.000      3.320      3.880      1.840      2.287      2.762      0.980      1.180    -14.250
   1413.625    384.000     22.500    450.092     82.400      3.120      3.560      1.840      2.222      2.762      1.080      1.180    -14.750
   1413.750    385.000     22.000    463.339     81.600      2.920      3.280      1.950      2.158      2.722      1.060      1.240    -14.750
   1413.875    379.000     21.800    470.109     80.400      2.800      3.080      2.037      2.127      2.606      1.540      1.540    -15.250
   1414.000    372.000     22.000    476.977     78.800      2.720      3.000      2.037      2.097      2.532      1.760      1.680    -15.500
   1414.125    372.000     22.000    476.977     78.000      2.680      2.920      2.007      2.097      2.459      1.600      1.520    -15.750
   1414.250    375.000     21.800    476.977     77.600      2.600      2.800      2.097      2.097      2.424      1.400      1.600    -15.750
   1414.375    377.000     21.600    476.977     76.800      2.560      2.800      2.097      2.097      2.389      1.720      1.760    -15.500
   1414.500    380.000     21.600    476.977     76.400      2.560      2.720      2.066      2.097      2.389      1.680      1.720    -15.250
   1414.625    382.000     21.600    476.977     75.600      2.560      2.720      2.066      2.097      2.354      1.680      1.740    -14.750
   1414.750    384.000     21.600    483.946     73.600      2.560      2.720      2.097      2.066      2.321      1.680      1.720    -14.250
   1414.875    385.000     21.700    498.190     72.000      2.560      2.720      2.158      2.007      2.222      1.540      1.580    -13.750
   1415.000    389.000     21.700    505.469     71.200      2.560      2.800      2.158      1.978      2.097      1.500      1.560    -13.000
   1415.125    398.000     21.800    520.347     70.400      2.560      2.800      2.097      1.922      1.922      1.480      1.480    -11.750
   1415.250    420.000     22.300    535.663     69.200      2.520      2.640      1.736      1.867      1.813      1.460      1.300    -10.500
   1415.375    457.000     23.200    551.429     67.200      2.400      2.520      1.438      1.813      1.736      1.000      0.760     -9.000
   1415.500    492.000     25.800    559.486     67.200      2.280      2.240      1.337      1.787      1.711      0.460      0.600     -8.000
   1415.625    513.000     29.100    575.954     72.000      2.120      2.040      1.397      1.736      1.687      0.500      0.660     -7.750
   1415.750    514.000     29.800    575.954     77.600      2.120      1.920      1.397      1.736      1.638      0.540      0.660     -7.750
   1415.875    499.000     26.100    584.368     82.800      2.120      1.920      1.397      1.711      1.592      0.580      0.640     -7.750
   1416.000    485.000     22.400    584.368     83.600      2.080      1.960      1.417      1.711      1.569      0.600      0.640     -7.750
   1416.125    475.000     21.600    575.954     81.600      2.120      1.960      1.502      1.736      1.615      0.760      0.700     -7.500
   1416.250    470.000     21.700    567.660     82.800      2.160      1.960      1.569      1.762      1.662      0.800      0.720     -7.250
   1416.375    466.000     21.500    551.429     85.600      2.280      2.040      1.638      1.813      1.711      0.780      0.780     -7.000
   1416.500    461.000     21.400    535.663     88.400      2.440      2.160      1.711      1.867      1.840      0.700      0.820     -7.000
   1416.625    457.000     21.400    520.347     88.400      2.560      2.400      1.762      1.922      1.867      0.720      0.860     -7.000
   1416.750    452.000     21.400    505.469     87.200      2.640      2.600      1.736      1.978      1.950      0.760      0.880     -7.000
   1416.875    451.000     21.600    498.190     86.400      2.800      2.720      1.736      2.007      2.007      0.720      0.860     -7.250
   1417.000    451.000     21.500    498.190     84.800      2.840      2.920      1.762      2.007      2.007      0.720      0.860     -7.500
   1417.125    453.000     21.300    498.190     81.600      2.880      3.000      1.787      2.007      1.978      0.760      0.880     -7.250
   1417.250    456.000     21.400    498.190     81.600      2.920      3.000      1.736      2.007      1.922      0.760      0.860     -7.000
   1417.375    465.000     21.400    520.347     84.800      2.920      2.920      1.638      1.922      1.867      0.640      0.780     -7.000
   1417.500    475.000     21.300    535.663     87.200      2.880      2.920      1.615      1.867      1.813      0.620      0.780     -7.000
   1417.625    484.000     20.900    551.429     87.600      2.840      2.920      1.615      1.813      1.736      0.620      0.780     -7.000
   1417.750    492.000     20.700    575.954     86.400      2.720      2.800      1.638      1.736      1.662      0.620      0.800     -7.250
   1417.875    497.000     20.800    592.906     84.800      2.640      2.720      1.638      1.687      1.569      0.680      0.800     -7.250
   1418.000    502.000     20.700    610.358     82.400      2.560      2.720      1.592      1.638      1.502      0.700      0.780     -6.750
   1418.125    509.000     21.000    619.275     80.800      2.400      2.640      1.502      1.615      1.417      0.660      0.720     -6.750
   1418.250    516.000     21.100    628.323     80.800      2.280      2.520      1.438      1.592      1.397      0.600      0.680     -6.500
   1418.375    519.000     20.700    637.502     81.600      2.160      2.440      1.459      1.569      1.377      0.660      0.700     -6.250
   1418.500    519.000     20.700    646.817     81.600      2.080      2.400      1.502      1.546      1.357      0.680      0.720     -6.250
   1418.625    514.000     20.700    656.266     84.000      2.000      2.440      1.524      1.524      1.337      0.680      0.720     -6.250
   1418.750    512.000     20.500    656.266     85.600      2.000      2.400      1.524      1.524      1.318      0.620      0.720     -6.750
   1418.875    509.000     20.300    656.266     84.000      2.000      2.440      1.524      1.524      1.318      0.660      0.720     -7.000
