~Version Information Block
 VERS.                2.00:     CWLS LOG ASCII STANDARD - VERSION 2.000000
 WRAP.                  NO:     One Line Per Depth Step
#
~Well Information Block
#MNEM.UNIT                     Data                         Information
#----------   ------------------------------------------   ----------------
 STRT.M                                        195.000:
 STOP.M                                       2555.000:
 STEP.M                                          0.125:
 NULL.                                        -999.250:
 COMP.                                   ²â¾®Êý¾Ý¿âµ¼³ö:     COMPANY 
 WELL.                                        ¹ÂÄÏ152-08:     Well 
 FLD .                                                :     Field 
 LOC .                                                :     LOCATION
 CNTY.                                                :     COUNTY
 STAT.                                                :     STATE
 CTRY.                                                :     COUNTRY
 SRVC.                                                :     SERVICE COMPANY
 DATE.                                                :     DATE
 API .                                                :     API NUMBER
#
~Curve Information Block
#MNEM.UNIT       API CODE      Curve Description
#----------    -------------   -------------------
 DEPT.M                    :   Depth in Meters
 AC  .Î¢Ãë/Ã×                      :   AC
 CAL .ÀåÃ×                      :   CAL
 CAL .ÀåÃ×                      :   CAL
 COND.mS/m                      :   COND
 GR  .Î¢Â×ÇÙ                      :   GR
 RLML.Å·Ä·Ã×                      :   RLML
 RNML.Å·Ä·Ã×                      :   RNML
 R04 .Å·Ä·Ã×                      :   R04
 R25 .Å·Ä·Ã×                      :   R25
 R4  .Å·Ä·Ã×                      :   R4
 RFOC.Å·Ä·Ã×                      :   RFOC
 RILD.Å·Ä·Ã×                      :   RILD
 RILM.Å·Ä·Ã×                      :   RILM
 SP  .mv                      :   SP
 SP  .ºÁ·ü                      :   SP
#
~A  DEPTH          AC        CAL        CAL       COND         GR       RLML       RNML        R04        R25         R4       RFOC       RILD       RILM         SP         SP
# ...
   2311.000    339.810     25.205   -999.250    408.442      7.845      1.797      1.873      2.285      1.775      3.072      2.203      2.341      2.619     88.800     92.546
   2311.125    332.379     24.752   -999.250    411.039      7.624      1.177      1.177      1.782      1.828      3.043      1.742      2.341      2.566     88.847     92.549
   2311.250    323.018     24.403   -999.250    418.831      7.288      2.769      2.756      1.867      1.902      3.188      1.788      2.341      2.566     88.757     92.547
   2311.375    312.555     24.295   -999.250    431.169      6.854      2.154      2.128      2.009      1.930      3.217      1.890      2.203      2.566     88.656     92.549
   2311.500    309.618     24.296   -999.250    442.857      6.898      1.646      1.595      2.155      1.979      3.246      2.030      2.147      2.592     88.337     92.547
   2311.625    308.196     24.537   -999.250    460.759      6.945      3.354      3.316      2.297      2.032      3.246      2.195      2.093      2.592     88.237     92.548
   2311.750    308.150     25.082   -999.250    472.152      6.796      2.526      2.603      2.222      2.056      3.217      2.248      2.051      2.514     88.212     92.547
   2311.875    312.555     25.557   -999.250    485.443      7.090      1.975      2.051      1.982      2.057      3.159      1.979      1.999      2.370     88.082     92.549
   2312.000    317.327     25.902   -999.250    496.835      6.908      1.557      1.557      1.819      2.031      3.101      1.778      1.949      2.225     88.175     92.547
   2312.125    317.695     25.733   -999.250    505.063      6.768      3.253      3.278      1.628      2.031      3.014      1.609      1.929      2.158     88.077     92.549
   2312.250    315.492     26.053   -999.250    510.127      6.867      2.987      3.051      1.549      2.005      3.014      1.495      1.871      2.115     88.153     92.547
   2312.375    315.804     27.158   -999.250    515.190      6.751      2.462      2.577      1.505      1.980      2.899      1.465      1.815      2.115     88.211     92.549
   2312.500    317.695     27.850   -999.250    518.987      6.642      2.013      2.103      1.522      1.980      2.928      1.495      1.796      2.115     88.212     92.547
   2312.625    327.239     28.353   -999.250    520.886      6.337      1.544      1.633      1.558      2.005      2.899      1.542      1.796      2.072     88.209     92.550
   2312.750    333.847     28.432   -999.250    520.886      5.917      1.127      1.165      1.595      2.031      2.870      1.558      1.796      2.072     88.209     92.546
   2312.875    342.658     27.918   -999.250    520.886      5.504      0.833      0.795      1.545      2.031      2.870      1.495      1.796      2.051     88.209     92.551
   2313.000    342.282     27.730   -999.250    520.253      5.605      2.000      1.658      1.514      2.056      2.899      1.495      1.815      2.072     88.209     92.545
   2313.125    342.055     28.415   -999.250    518.987      5.824      1.342      2.244      1.518      2.082      2.928      1.495      1.796      2.093     88.208     92.551
   2313.250    343.130     28.982   -999.250    513.291      5.888      1.025      1.063      1.595      2.133      2.957      1.558      1.796      2.115     88.206     92.544
   2313.375    343.392     28.677   -999.250    502.532      6.084      1.215      1.228      1.622      2.210      3.014      1.590      1.833      2.157     88.209     92.392
   2313.500    343.392     27.992   -999.250    493.671      6.425      0.692      0.692      1.654      2.235      3.014      1.606      1.890      2.203     88.033     92.383
   2313.625    341.924     27.889   -999.250    478.481      6.714      1.329      1.456      1.641      2.286      3.014      1.606      2.030      2.158     88.047     92.393
   2313.750    336.365     27.491   -999.250    470.886      6.403      2.346      2.321      1.669      2.363      3.014      1.606      2.010      2.115     88.048     92.382
   2313.875    332.379     26.855   -999.250    467.722      5.981      1.038      1.190      1.684      2.413      3.014      1.622      2.051      2.115     88.047     92.394
   2314.000    332.379     26.830   -999.250    465.190      5.909      1.797      1.861      1.701      2.465      3.043      1.673      2.051      2.093     88.093     92.382
   2314.125    336.325     27.215   -999.250    458.228      6.030      0.987      0.949      1.647      2.464      3.014      1.590      2.093      2.180     88.074     92.394
   2314.250    339.459     27.407   -999.250    448.701      6.376      2.218      2.231      1.696      2.440      3.014      1.639      2.051      2.294     88.206     92.542
   2314.375    342.282     27.007   -999.250    440.909      6.100      0.859      0.859      1.780      2.362      2.986      1.725      2.117      2.439     88.198     92.554
   2314.500    344.787     26.420   -999.250    434.416      6.402      1.278      1.241      1.935      2.262      3.014      1.833      2.180      2.489     88.287     92.543
   2314.625    346.329     26.292   -999.250    429.221      6.849      2.295      2.410      2.037      2.209      3.072      1.989      2.158      2.566     88.360     92.393
   2314.750    343.392     26.082   -999.250    418.831      6.737      1.962      2.026      2.156      2.134      3.101      2.115      2.294      2.592     88.367     92.544
   2314.875    337.335     25.293   -999.250    410.390      6.948      1.266      1.241      2.204      2.107      3.159      2.158      2.271      2.592     88.363     92.391
   2315.000    329.442     25.079   -999.250    401.948      7.454      3.000      2.885      2.177      2.096      3.159      2.072      2.414      2.646     88.508     92.385
   2315.125    330.176     24.823   -999.250    396.835      7.887      1.924      1.797      1.972      2.159      3.217      1.910      2.439      2.725     88.397     92.550
   2315.250    329.809     24.816   -999.250    389.873      6.902      2.987      3.000      1.928      2.185      3.246      1.852      2.464      2.900     88.512     92.386
   2315.375    315.492     24.815   -999.250    384.177      6.807      1.975      1.975      2.001      2.210      3.275      1.920      2.489      2.960     88.376     92.388
   2315.500    318.429     25.301   -999.250    381.646      6.912      2.359      2.359      2.192      2.236      3.275      2.072      2.489      2.990     88.397     92.388
   2315.625    316.226     25.836   -999.250    381.013      6.907      2.910      2.897      2.365      2.261      3.304      2.318      2.489      2.990     88.362     92.387
   2315.750    316.960     26.090   -999.250    380.380      6.616      1.076      1.114      2.446      2.313      3.362      2.426      2.489      3.036     88.373     92.388
   2315.875    318.429     26.102   -999.250    380.380      6.750      1.709      1.696      2.506      2.313      3.391      2.439      2.464      3.051     88.329     92.387
   2316.000    316.226     26.092   -999.250    381.013      6.897      2.346      3.203      2.452      2.389      3.652      2.341      2.464      2.930     88.260     92.388
   2316.125    310.804     26.109   -999.250    382.911      6.608      3.329      2.487      2.273      2.492      3.710      2.225      2.482      2.813     88.209     92.387
   2316.250    306.681     26.107   -999.250    384.177      6.239      2.821      2.974      2.009      2.567      3.681      1.989      2.489      2.728     88.030     92.388
   2316.375    308.884     26.105   -999.250    384.810      6.691      2.808      1.924      1.871      2.670      3.797      1.815      2.464      2.784     88.029     92.388
   2316.500    316.960     26.248   -999.250    386.076      7.477      2.231      2.513      1.950      2.745      3.855      1.871      2.464      2.871     87.825     92.387
   2316.625    327.136     26.434   -999.250    384.177      8.038      3.101      3.114      2.161      2.772      3.884      2.136      2.439      3.021     87.877     92.549
