~Version Information Block
 VERS.                2.00:     CWLS LOG ASCII STANDARD - VERSION 2.000000
 WRAP.                  NO:     One Line Per Depth Step
#
~Well Information Block
#MNEM.UNIT                     Data                         Information
#----------   ------------------------------------------   ----------------
 STRT.M                                        195.000:
 STOP.M                                       2555.000:
 STEP.M                                          0.125:
 NULL.                                        -999.250:
 COMP.                                   ²â¾®Êý¾Ý¿âµ¼³ö:     COMPANY 
 WELL.                                        ¹ÂÄÏ152-08:     Well 
 FLD .                                                :     Field 
 LOC .                                                :     LOCATION
 CNTY.                                                :     COUNTY
 STAT.                                                :     STATE
 CTRY.                                                :     COUNTRY
 SRVC.                                                :     SERVICE COMPANY
 DATE.                                                :     DATE
 API .                                                :     API NUMBER
#
~Curve Information Block
#MNEM.UNIT       API CODE      Curve Description
#----------    -------------   -------------------
 DEPT.M                    :   Depth in Meters
 AC  .Î¢Ãë/Ã×                      :   AC
 CAL .ÀåÃ×                      :   CAL
 CAL .ÀåÃ×                      :   CAL
 COND.mS/m                      :   COND
 GR  .Î¢Â×ÇÙ                      :   GR
 RLML.Å·Ä·Ã×                      :   RLML
 RNML.Å·Ä·Ã×                      :   RNML
 R04 .Å·Ä·Ã×                      :   R04
 R25 .Å·Ä·Ã×                      :   R25
 R4  .Å·Ä·Ã×                      :   R4
 RFOC.Å·Ä·Ã×                      :   RFOC
 RILD.Å·Ä·Ã×                      :   RILD
 RILM.Å·Ä·Ã×                      :   RILM
 SP  .mv                      :   SP
 SP  .ºÁ·ü                      :   SP
#
~A  DEPTH          AC        CAL        CAL       COND         GR       RLML       RNML        R04        R25         R4       RFOC       RILD       RILM         SP         SP
# ...
    913.750    494.640     24.752   -999.250    436.364      6.020      2.103      1.924      1.643      2.389      5.114      1.574      2.158      1.815     34.951     40.461
    913.875    487.298     25.212   -999.250    423.377      5.650      1.342      2.256      1.643      2.465      4.937      1.558      2.214      1.855     34.946     40.466
    914.000    484.269     25.793   -999.250    411.688      5.176      1.722      1.734      1.666      2.451      4.658      1.574      2.258      1.879     34.824     40.461
    914.125    481.057     26.079   -999.250    405.195      5.031      2.115      2.282      1.638      2.505      4.481      1.574      2.303      1.890     34.790     40.467
    914.250    477.019     26.241   -999.250    399.367      5.169      1.506      1.481      1.615      2.596      4.329      1.574      2.341      1.890     34.792     40.300
    914.375    471.880     25.657   -999.250    396.203      5.376      2.064      2.077      1.614      2.688      4.203      1.511      2.347      1.910     34.793     40.148
    914.500    466.327     25.773   -999.250    396.203      5.146      1.671      1.684      1.624      2.692      4.127      1.546      2.357      1.978     34.793     40.139
    914.625    463.803     26.183   -999.250    399.367      4.931      2.462      2.577      1.645      2.517      4.025      1.606      2.365      2.048     34.793     39.989
    914.750    468.209     25.196   -999.250    405.195      5.118      1.532      1.810      1.706      2.465      3.942      1.585      2.338      2.115     34.791     39.978
    914.875    472.981     24.355   -999.250    411.039      5.786      1.304      1.291      1.607      2.390      3.855      1.545      2.305      2.080     34.798     39.829
    915.000    477.753     24.118   -999.250    413.636      6.422      1.544      1.570      1.522      2.325      3.710      1.436      2.281      2.047     34.622     39.817
    915.125    483.667     24.231   -999.250    417.532      6.670      1.430      1.481      1.535      2.262      3.594      1.460      2.251      2.010     34.632     39.830
    915.250    488.767     24.292   -999.250    422.078      6.833      1.367      1.367      1.546      2.211      3.449      1.496      2.208      1.989     34.637     39.657
    915.375    495.374     24.293   -999.250    429.870      6.659      1.949      2.038      1.591      2.186      3.391      1.526      2.165      1.949     34.650     39.510
    915.500    499.046     24.495   -999.250    437.662      6.362      1.835      1.785      1.616      2.160      3.333      1.542      2.115      1.890     34.474     39.497
    915.625    507.489     24.813   -999.250    442.208      6.715      1.418      1.481      1.608      2.186      3.304      1.542      2.106      1.910     34.471     39.349
    915.750    520.338     24.865   -999.250    445.455      6.333      2.218      2.218      1.618      2.211      3.362      1.532      2.093      1.910     34.350     39.338
    915.875    525.477     24.662   -999.250    444.156      5.527      1.456      1.557      1.614      2.262      3.536      1.511      2.093      1.910     34.287     39.189
    916.000    527.680     24.360   -999.250    437.662      5.355      2.218      2.205      1.614      2.287      3.652      1.542      2.203      1.890     34.278     39.179
    916.125    522.540     24.290   -999.250    414.286      5.213      1.430      1.405      1.641      2.365      3.768      1.511      2.294      1.989     34.211     39.188
    916.250    514.464     24.853   -999.250    387.975      4.769      1.886      1.899      1.791      2.465      4.000      1.656      2.489      2.225     34.207     39.179
    916.375    507.856     25.852   -999.250    361.392      4.994      2.308      2.359      1.971      2.620      4.177      1.890      2.784      2.398     34.295     39.187
    916.500    492.438     28.795   -999.250    338.608      5.163      1.835      2.718      1.986      2.770      4.405      1.929      2.920      2.589     34.234     39.020
    916.625    486.197     31.987   -999.250    324.684      5.001      2.936      1.823      1.992      2.947      4.633      1.929      3.051      2.738     34.145     38.866
    916.750    477.386     32.222   -999.250    306.962      4.812      1.873      1.861      1.992      3.124      4.835      1.929      3.211      2.871     34.158     38.861
    916.875    470.778     28.873   -999.250    292.405      4.982      2.141      2.141      1.991      3.312      5.038      1.929      3.311      2.841     34.157     38.865
    917.000    466.006     28.295   -999.250    286.076      5.136      1.772      1.570      1.997      3.488      5.190      1.929      3.379      2.921     34.156     38.861
    917.125    464.170     27.312   -999.250    282.278      5.089      1.557      1.608      1.996      3.678      5.241      1.929      3.413      2.990     34.155     38.865
    917.250    463.436     25.773   -999.250    282.911      5.388      2.500      2.513      2.002      3.890      5.139      1.941      3.345      3.051     34.158     38.861
    917.375    468.576     23.916   -999.250    301.899      5.742      1.519      1.519      2.110      3.694      5.013      1.949      3.146      2.871     34.173     38.865
    917.500    474.816     23.346   -999.250    333.544      6.092      2.128      1.810      2.001      3.686      4.911      1.910      2.871      2.700     33.994     38.860
    917.625    485.095     23.075   -999.250    365.190      6.389      1.962      2.167      1.852      3.803      4.785      1.798      2.673      2.527     33.984     38.865
    917.750    497.577     23.079   -999.250    387.342      6.587      1.544      1.557      1.798      3.865      4.684      1.675      2.439      2.341     34.160     38.860
    917.875    512.261     23.321   -999.250    404.545      6.780      2.256      2.308      1.723      3.727      4.532      1.542      2.248      2.136     34.145     38.866
    918.000    525.477     23.339   -999.250    412.338      6.467      1.886      1.380      1.524      3.549      4.405      1.465      2.203      2.010     34.203     38.860
    918.125    535.022     22.964   -999.250    422.078      6.767      1.380      1.671      1.491      3.382      4.278      1.436      2.203      1.949     34.155     38.866
    918.250    532.452     22.338   -999.250    425.325      6.756      2.038      2.064      1.488      3.207      4.203      1.436      2.180      1.862     34.154     39.020
    918.375    525.110     22.031   -999.250    427.922      6.929      1.316      1.392      1.494      3.038      4.101      1.436      2.158      1.806     34.156     39.026
    918.500    507.856     21.970   -999.250    428.571      7.125      1.835      1.899      1.534      2.873      4.000      1.450      2.158      1.838     34.156     39.020
    918.625    498.532     22.054   -999.250    420.779      7.361      1.278      1.266      1.546      2.747      3.855      1.519      2.283      1.907     34.155     38.866
    918.750    493.049     22.260   -999.250    409.740      6.769      1.722      1.911      1.667      2.619      3.739      1.598      2.365      2.014     34.153     38.860
    918.875    488.032     22.440   -999.250    394.937      6.296      2.269      2.372      1.764      2.568      3.652      1.716      2.451      2.096     34.164     38.866
    919.000    486.013     22.965   -999.250    380.380      6.152      1.810      1.797      1.910      2.568      3.565      1.806      2.659      2.178     34.109     38.860
    919.125    483.627     23.423   -999.250    366.456      6.011      1.582      1.570      1.944      2.619      3.536      1.929      2.784      2.248     34.156     39.025
    919.250    482.159     24.154   -999.250    352.532      6.246      1.924      2.167      1.877      2.619      3.507      1.797      2.756      2.296     34.159     39.021
    919.375    472.614     25.001   -999.250    341.772      6.459      2.333      2.423      1.801      2.619      3.449      1.734      2.784      2.349     34.245     39.025
