~Version Information Block
 VERS.                2.00:     CWLS LOG ASCII STANDARD - VERSION 2.000000
 WRAP.                  NO:     One Line Per Depth Step
#
~Well Information Block
#MNEM.UNIT                     Data                         Information
#----------   ------------------------------------------   ----------------
 STRT.M                                        110.000:
 STOP.M                                       2506.000:
 STEP.M                                          0.125:
 NULL.                                        -999.250:
 COMP.                                   测井数据库导出:     COMPANY 
 WELL.                                         孤南152-9:     Well 
 FLD .                                                :     Field 
 LOC .                                                :     LOCATION
 CNTY.                                                :     COUNTY
 STAT.                                                :     STATE
 CTRY.                                                :     COUNTRY
 SRVC.                                                :     SERVICE COMPANY
 DATE.                                                :     DATE
 API .                                                :     API NUMBER
#
~Curve Information Block
#MNEM.UNIT       API CODE      Curve Description
#----------    -------------   -------------------
 DEPT.M                    :   Depth in Meters
 AC  .微秒/米                      :   AC
 CAL .厘米                      :   CAL
 COND.毫西门子/米                      :   COND
 GR  .API                      :   GR
 R25 .欧姆米                      :   R25
 R4  .欧姆米                      :   R4
 RFOC.欧姆米                      :   RFOC
 RILD.欧姆米                      :   RILD
 RILM.欧姆米                      :   RILM
 RLML.欧姆米                      :   RLML
 RNML.欧姆米                      :   RNML
 SP  .毫伏                      :   SP
#
~A  DEPTH          AC        CAL       COND         GR        R25         R4       RFOC       RILD       RILM       RLML       RNML         SP
# ...
   1958.000    326.000     21.500    263.166     70.800      5.840      8.640      3.691      3.800      4.457      1.220      1.660    -20.500
   1958.125    324.000     21.300    255.642     71.200      5.520      8.280      3.586      3.912      4.457      1.160      1.620    -20.750
   1958.250    321.000     21.300    251.960     69.200      5.280      8.160      3.483      3.969      4.588      1.100      1.580    -20.750
   1958.375    321.000     21.500    244.756     65.200      5.160      8.280      3.534      4.086      4.792      1.100      1.540    -20.750
   1958.500    323.000     21.500    237.758     61.600      5.160      8.560      3.534      4.206      5.228      1.100      1.520    -21.250
   1958.625    324.000     21.300    230.960     58.800      5.440      9.280      3.912      4.330      5.704      0.960      1.460    -22.000
   1958.750    326.000     21.300    224.357     57.200      5.840     10.320      4.934      4.457      6.222      0.920      1.500    -22.250
   1958.875    326.000     21.400    208.662     56.000      6.360     10.960      6.222      4.792      6.594      1.180      1.900    -23.000
   1959.000    325.000     21.600    199.777     52.800      6.800     11.160      6.405      5.006      6.690      1.400      2.040    -23.000
   1959.125    324.000     21.600    185.801     51.600      7.000     10.800      5.382      5.382      6.988      1.320      1.920    -23.000
   1959.250    323.000     21.600    175.328     53.600      7.000     10.200      4.862      5.704      7.299      1.220      1.720    -22.500
   1959.375    321.000     21.400    165.446     56.400      6.840      9.520      5.006      6.044      7.513      1.060      1.760    -22.250
   1959.500    318.000     21.600    165.446     56.400      6.680      9.040      5.461      6.044      7.847      1.280      1.860    -22.250
   1959.625    317.000     21.700    167.863     56.000      6.640      8.640      5.704      5.957      8.078      1.200      1.800    -22.500
   1959.750    320.000     21.700    172.804     55.600      6.840      8.280      5.704      5.787      8.078      1.240      1.880    -23.000
   1959.875    323.000     21.700    177.890     55.600      7.160      8.000      5.305      5.621      8.078      1.500      1.920    -23.250
   1960.000    325.000     21.900    183.126     55.200      7.440      7.720      4.723      5.461      7.847      1.260      1.600    -23.000
   1960.125    324.000     21.800    185.801     55.600      7.760      7.400      4.588      5.382      7.623      0.840      1.400    -23.000
   1960.250    321.000     21.700    188.516     54.800      8.040      7.120      4.588      5.305      7.193      1.000      1.540    -23.000
   1960.375    319.000     21.600    194.065     52.400      8.160      6.920      4.393      5.153      6.690      1.000      1.480    -23.000
   1960.500    319.000     21.600    196.900     50.400      8.120      6.720      4.086      5.079      6.405      1.000      1.480    -23.000
   1960.625    321.000     21.700    196.900     50.800      8.000      6.440      4.086      5.079      6.313      0.900      1.400    -23.250
   1960.750    325.000     21.700    199.777     54.000      7.880      6.200      4.086      5.006      6.313      0.980      1.540    -23.250
   1960.875    326.000     21.700    199.777     57.200      7.840      6.200      4.027      5.006      6.405      1.360      1.680    -23.750
   1961.000    324.000     21.700    196.900     58.800      7.960      6.200      3.912      5.079      6.405      1.100      1.540    -23.750
   1961.125    321.000     21.600    196.900     58.400      8.200      6.360      3.969      5.079      6.405      0.900      1.380    -24.250
   1961.250    316.000     21.400    194.065     58.000      8.600      6.560      4.145      5.153      6.499      1.080      1.640    -24.500
   1961.375    309.000     21.600    188.516     58.800      9.000      6.920      4.393      5.305      6.499      1.300      1.820    -25.000
   1961.500    303.000     22.100    183.126     61.200      9.560      7.160      4.457      5.461      6.690      1.220      1.800    -25.500
   1961.625    300.000     22.100    180.489     64.000     10.080      7.640      4.522      5.541      6.988      1.160      1.760    -26.000
   1961.750    302.000     22.100    175.328     64.400     10.480      8.080      4.655      5.704      7.193      1.040      1.700    -26.750
   1961.875    309.000     22.100    170.315     62.000     10.760      8.400      4.862      5.871      7.623      1.180      1.840    -27.750
   1962.000    316.000     22.100    165.446     58.400     11.080      8.960      5.006      6.044      8.078      1.640      2.040    -28.750
   1962.125    320.000     22.100    158.401     55.600     11.440      9.280      5.153      6.313      8.438      1.500      2.100    -29.750
   1962.250    322.000     22.100    156.120     53.600     11.720      9.720      5.228      6.405      8.813      1.640      2.080    -30.500
   1962.375    321.000     22.400    153.872     52.800     12.000     10.200      5.305      6.499      9.205      1.840      2.200    -31.000
   1962.500    321.000     22.500    153.872     52.800     12.280     10.600      5.153      6.499      9.476      1.940      2.220    -31.250
   1962.625    320.000     22.500    156.120     53.600     12.480     11.200      5.153      6.405      9.476      1.420      1.880    -31.250
   1962.750    318.000     22.300    156.120     53.600     12.760     12.040      5.153      6.405      8.942      1.260      1.720    -31.250
   1962.875    317.000     22.300    158.401     53.600     12.920     12.920      5.228      6.313      8.438      1.080      1.680    -31.250
   1963.000    317.000     22.700    160.715     53.600     13.080     13.760      5.305      6.222      8.078      1.220      1.780    -31.500
   1963.125    320.000     23.000    165.446     52.000     13.160     14.240      4.934      6.044      8.078      1.300      1.840    -31.750
   1963.250    323.000     23.800    165.446     51.600     12.960     14.280      4.792      6.044      8.078      1.640      1.840    -32.250
   1963.375    326.000     23.900    170.315     52.800     12.640     14.240      4.655      5.871      8.197      1.100      1.600    -32.500
   1963.500    326.000     24.000    175.328     56.400     12.320     14.160      4.522      5.704      8.316      1.180      1.580    -32.500
   1963.625    325.000     24.000    180.489     59.600     12.200     14.160      4.457      5.541      8.197      0.960      1.420    -32.750
   1963.750    323.000     24.000    183.126     61.200     12.280     14.360      4.522      5.461      8.078      0.820      1.360    -33.000
   1963.875    322.000     24.000    183.126     60.400     12.560     14.640      4.588      5.461      8.078      0.880      1.400    -33.000
   1964.000    322.000     24.000    185.801     59.600     12.960     14.920      4.655      5.382      8.078      0.920      1.420    -33.500
   1964.125    324.000     24.100    185.801     58.800     13.240     15.320      4.655      5.382      8.316      0.880      1.400    -33.750
   1964.250    326.000     24.100    188.516     58.800     13.720     15.600      4.655      5.305      8.561      0.980      1.400    -33.750
   1964.375    327.000     24.100    199.777     58.000     14.240     16.000      4.723      5.006      8.813      1.020      1.540    -34.250
   1964.500    326.000     24.100    214.803     54.800     14.840     16.560      4.862      4.655      8.561      1.200      1.580    -34.500
   1964.625    325.000     24.100    237.758     50.800     15.440     17.200      4.934      4.206      7.962      0.960      1.400    -34.750
   1964.750    324.000     24.100    267.011     48.800     16.160     17.520      4.862      3.745      6.690      0.840      1.400    -35.250
   1964.875    325.000     23.800    299.863     48.800     16.920     17.720      4.457      3.335      5.382      0.860      1.380    -35.500
