~Version Information Block
 VERS.                2.00:     CWLS LOG ASCII STANDARD - VERSION 2.000000
 WRAP.                  NO:     One Line Per Depth Step
#
~Well Information Block
#MNEM.UNIT                     Data                         Information
#----------   ------------------------------------------   ----------------
 STRT.M                                        110.000:
 STOP.M                                       2506.000:
 STEP.M                                          0.125:
 NULL.                                        -999.250:
 COMP.                                   测井数据库导出:     COMPANY 
 WELL.                                         孤南152-9:     Well 
 FLD .                                                :     Field 
 LOC .                                                :     LOCATION
 CNTY.                                                :     COUNTY
 STAT.                                                :     STATE
 CTRY.                                                :     COUNTRY
 SRVC.                                                :     SERVICE COMPANY
 DATE.                                                :     DATE
 API .                                                :     API NUMBER
#
~Curve Information Block
#MNEM.UNIT       API CODE      Curve Description
#----------    -------------   -------------------
 DEPT.M                    :   Depth in Meters
 AC  .微秒/米                      :   AC
 CAL .厘米                      :   CAL
 COND.毫西门子/米                      :   COND
 GR  .API                      :   GR
 R25 .欧姆米                      :   R25
 R4  .欧姆米                      :   R4
 RFOC.欧姆米                      :   RFOC
 RILD.欧姆米                      :   RILD
 RILM.欧姆米                      :   RILM
 RLML.欧姆米                      :   RLML
 RNML.欧姆米                      :   RNML
 SP  .毫伏                      :   SP
#
~A  DEPTH          AC        CAL       COND         GR        R25         R4       RFOC       RILD       RILM       RLML       RNML         SP
# ...
   2091.000    339.000     24.500    491.016     63.200      2.880      3.480      2.127      2.037      2.254      0.660      0.720      0.500
   2091.125    336.000     24.300    491.016     64.400      2.920      3.480      2.424      2.037      2.354      0.720      0.720      0.750
   2091.250    325.000     23.500    491.016     66.400      2.920      3.480      2.722      2.037      2.389      0.740      0.860      0.750
   2091.375    313.000     22.900    491.016     68.800      2.960      3.480      2.802      2.037      2.354      0.800      1.000      1.000
   2091.500    304.000     22.700    491.016     71.200      3.040      3.400      2.762      2.037      2.321      0.900      1.040      1.000
   2091.625    301.000     22.700    491.016     71.600      3.080      3.400      2.569      2.037      2.222      1.100      0.960      1.000
   2091.750    304.000     23.000    498.190     70.000      3.040      3.360      2.389      2.007      2.127      1.120      0.960      1.250
   2091.875    311.000     23.000    505.469     68.000      2.920      3.280      2.158      1.978      2.066      0.920      0.920      1.000
   2092.000    319.000     23.400    527.949     67.600      2.840      3.160      2.037      1.894      2.007      0.800      0.840      1.000
   2092.125    326.000     23.900    535.663     67.600      2.720      3.080      1.978      1.867      1.950      0.680      0.820      0.750
   2092.250    330.000     24.300    543.489     66.400      2.640      3.000      1.950      1.840      1.894      0.640      0.780      0.500
   2092.375    332.000     24.200    543.489     65.200      2.560      2.920      1.950      1.840      1.894      0.700      0.720      0.500
   2092.500    333.000     24.200    543.489     64.400      2.480      2.800      1.922      1.840      1.894      0.620      0.760      0.250
   2092.625    332.000     24.300    520.347     64.000      2.440      2.800      1.840      1.922      1.922      0.680      0.720      0.250
   2092.750    329.000     24.600    498.190     63.200      2.440      2.720      1.762      2.007      2.097      0.640      0.760      0.500
   2092.875    326.000     24.600    476.977     63.200      2.440      2.720      1.762      2.097      2.389      0.660      0.760      0.250
   2093.000    322.000     24.600    463.339     63.200      2.360      2.720      2.158      2.158      2.762      0.660      0.720      0.250
   2093.125    314.000     24.600    443.610     63.600      2.360      2.640      3.147      2.254      3.013      0.720      0.900      0.000
   2093.250    290.000     22.300    424.721     64.400      2.400      2.800      4.330      2.354      3.057      1.780      1.780      0.000
   2093.375    268.000     22.100    412.578     65.200      2.400      2.800      3.912      2.424      3.013      3.240      2.600     -0.250
   2093.500    254.000     22.100    400.781     64.400      2.440      2.800      3.102      2.495      2.970      2.900      2.260     -0.500
   2093.625    256.000     22.100    389.322     63.200      2.560      2.720      2.722      2.569      2.970      2.100      1.600     -0.500
   2093.750    266.000     22.200    389.322     63.600      2.640      2.640      2.532      2.569      2.970      1.440      1.240     -0.250
   2093.875    271.000     22.400    400.781     65.200      2.680      2.640      2.495      2.495      2.885      1.160      1.240      0.000
   2094.000    278.000     22.600    412.578     66.000      2.720      2.640      2.495      2.424      2.802      1.340      1.120      0.000
   2094.125    292.000     22.700    430.926     67.200      2.800      2.640      2.495      2.321      2.722      1.180      1.120      0.000
   2094.250    298.000     22.800    443.610     69.600      2.880      2.720      2.389      2.254      2.569      1.260      1.100      0.000
   2094.375    302.000     23.400    463.339     70.400      2.960      2.720      2.287      2.158      2.459      0.940      1.080      0.000
   2094.500    307.000     23.200    470.109     71.600      3.080      2.800      2.190      2.127      2.389      0.840      0.960      0.250
   2094.625    313.000     23.300    483.946     72.800      3.120      2.920      2.127      2.066      2.321      0.820      0.960      0.500
   2094.750    317.000     23.400    491.016     72.400      3.200      3.000      2.097      2.037      2.254      0.800      0.880      0.500
   2094.875    321.000     23.400    505.469     71.200      3.320      3.080      2.097      1.978      2.190      0.780      0.800      0.500
   2095.000    325.000     23.300    520.347     70.400      3.440      3.280      2.190      1.922      2.097      0.780      0.800      0.500
   2095.125    326.000     23.400    535.663     69.600      3.440      3.360      2.190      1.867      2.007      0.700      0.760      0.500
   2095.250    325.000     23.300    559.486     69.600      3.440      3.400      2.066      1.787      1.894      0.760      0.940      0.500
   2095.375    328.000     23.600    567.660     70.800      3.440      3.400      1.894      1.762      1.813      0.780      0.940      0.500
   2095.500    332.000     24.400    584.368     70.800      3.440      3.400      1.840      1.711      1.736      0.720      0.780      0.500
   2095.625    337.000     24.600    592.906     67.600      3.440      3.360      1.787      1.687      1.662      0.680      0.700      0.250
   2095.750    339.000     24.700    601.569     65.200      3.320      3.200      1.736      1.662      1.615      0.620      0.700      0.250
   2095.875    340.000     25.500    592.906     65.200      3.360      3.160      1.687      1.687      1.592      0.540      0.640      0.000
   2096.000    343.000     24.700    592.906     67.600      3.240      3.160      1.662      1.687      1.615      0.560      0.640      0.000
   2096.125    345.000     24.700    575.954     68.400      3.120      3.160      1.592      1.736      1.687      0.580      0.640      0.000
   2096.250    348.000     24.700    559.486     66.800      3.000      3.160      1.592      1.787      1.813      0.560      0.620      0.000
   2096.375    352.000     24.900    543.489     64.400      2.880      3.200      1.840      1.840      1.978      0.580      0.620      0.000
   2096.500    349.000     24.900    535.663     64.000      2.840      3.200      2.254      1.867      2.097      0.580      0.680      0.000
   2096.625    332.000     22.900    520.347     66.000      2.880      3.360      2.459      1.922      2.158      0.800      0.920      0.000
   2096.750    315.000     23.100    505.469     68.400      2.920      3.480      2.389      1.978      2.222      0.820      1.060      0.000
   2096.875    306.000     23.600    498.190     69.200      2.880      3.480      2.287      2.007      2.254      0.780      0.860      0.000
   2097.000    310.000     23.900    491.016     68.800      2.840      3.480      2.287      2.037      2.321      0.780      0.840      0.000
   2097.125    315.000     23.400    491.016     70.000      2.840      3.480      2.321      2.037      2.287      0.720      0.860      0.000
   2097.250    318.000     22.900    491.016     72.000      2.800      3.560      2.222      2.037      2.254      0.780      0.940      0.250
   2097.375    321.000     23.400    505.469     72.000      2.800      3.480      2.097      1.978      2.190      0.920      0.960      0.500
   2097.500    326.000     24.400    512.854     70.000      2.760      3.480      2.066      1.950      2.097      0.900      0.880      0.750
   2097.625    329.000     23.900    520.347     67.600      2.680      3.360      2.007      1.922      2.037      0.760      0.800      0.750
   2097.750    327.000     24.400    527.949     67.600      2.640      3.280      1.922      1.894      1.978      0.720      0.760      0.500
   2097.875    327.000     24.800    535.663     67.600      2.560      3.200      1.813      1.867      1.978      0.680      0.760      0.500
