~Version Information Block
 VERS.                2.00:     CWLS LOG ASCII STANDARD - VERSION 2.000000
 WRAP.                  NO:     One Line Per Depth Step
#
~Well Information Block
#MNEM.UNIT                     Data                         Information
#----------   ------------------------------------------   ----------------
 STRT.M                                        110.000:
 STOP.M                                       2506.000:
 STEP.M                                          0.125:
 NULL.                                        -999.250:
 COMP.                                   测井数据库导出:     COMPANY 
 WELL.                                         孤南152-9:     Well 
 FLD .                                                :     Field 
 LOC .                                                :     LOCATION
 CNTY.                                                :     COUNTY
 STAT.                                                :     STATE
 CTRY.                                                :     COUNTRY
 SRVC.                                                :     SERVICE COMPANY
 DATE.                                                :     DATE
 API .                                                :     API NUMBER
#
~Curve Information Block
#MNEM.UNIT       API CODE      Curve Description
#----------    -------------   -------------------
 DEPT.M                    :   Depth in Meters
 AC  .微秒/米                      :   AC
 CAL .厘米                      :   CAL
 COND.毫西门子/米                      :   COND
 GR  .API                      :   GR
 R25 .欧姆米                      :   R25
 R4  .欧姆米                      :   R4
 RFOC.欧姆米                      :   RFOC
 RILD.欧姆米                      :   RILD
 RILM.欧姆米                      :   RILM
 RLML.欧姆米                      :   RLML
 RNML.欧姆米                      :   RNML
 SP  .毫伏                      :   SP
#
~A  DEPTH          AC        CAL       COND         GR        R25         R4       RFOC       RILD       RILM       RLML       RNML         SP
# ...
    467.000    496.000     27.900   -999.250     63.200      1.720      2.840   -999.250   2000.000   -999.250      0.000      0.000    -11.750
    467.125    508.000     28.400   -999.250     66.800      1.720      2.720   -999.250   2000.000   -999.250      0.000      0.000    -12.000
    467.250    519.000     28.400   -999.250     68.400      1.720      2.600   -999.250   2000.000   -999.250      0.000      0.000    -12.500
    467.375    526.000     28.400   -999.250     68.400      1.720      2.520   -999.250   2000.000   -999.250      0.000      0.000    -13.000
    467.500    530.000     28.400   -999.250     67.600      1.880      2.520   -999.250   2000.000   -999.250      0.000      0.000    -13.750
    467.625    532.000     28.400   -999.250     64.000      1.880      2.520   -999.250   2000.000   -999.250      0.000      0.000    -14.250
    467.750    527.000     28.000   -999.250     58.800      2.000      2.520   -999.250   2000.000   -999.250      0.000      0.000    -15.000
    467.875    518.000     27.800   -999.250     56.000      2.080      2.520   -999.250   2000.000   -999.250      0.000      0.000    -15.500
    468.000    509.000     28.200   -999.250     55.600      2.160      2.520   -999.250      1.840   -999.250      1.080      1.180    -15.500
    468.125    507.000     28.700   -999.250     56.400      2.200      2.600   -999.250      1.840   -999.250      1.200      1.260    -15.500
    468.250    514.000     28.900   -999.250     57.600      2.200      2.600   -999.250      1.840   -999.250      1.460      1.540    -15.500
    468.375    520.000     28.700   -999.250     59.600      2.200      2.600   -999.250      1.894   -999.250      1.820      1.900    -15.750
    468.500    519.000     28.300   -999.250     60.400      2.200      2.600   -999.250      1.922   -999.250      1.220      1.460    -16.000
    468.625    511.000     28.300   -999.250     62.800      2.200      2.520   -999.250      1.978   -999.250      0.880      1.060    -16.250
    468.750    496.000     28.000   -999.250     66.800      2.080      2.440   -999.250      2.037   -999.250      0.840      1.080    -16.500
    468.875    480.000     26.800   -999.250     71.600      2.000      2.440   -999.250      2.097   -999.250      0.860      1.160    -16.250
    469.000    460.000     25.700   -999.250     74.000      1.880      2.640   -999.250      2.127   2000.000      0.900      1.220    -16.000
    469.125    442.000     25.100   -999.250     74.000      1.800      2.640   -999.250      2.158   2000.000      0.920      1.260    -15.750
    469.250    432.000     24.700   -999.250     73.200      1.760      2.640   -999.250      2.190   2000.000      0.960      1.260    -15.750
    469.375    434.000     24.500   -999.250     73.200      1.720      2.720   -999.250      2.190   2000.000      1.000      1.400    -15.750
    469.500    443.000     24.600   -999.250     73.200      1.720      2.800   -999.250      2.190   2000.000      1.440      1.680    -15.750
    469.625    452.000     24.400   -999.250     73.200      1.720      2.800   -999.250      2.190   2000.000      1.600      1.780    -16.000
    469.750    465.000     24.400   -999.250     72.400      1.720      2.800   -999.250      2.190   2000.000      1.540      1.680    -16.000
    469.875    479.000     24.400   -999.250     71.600      1.760      2.800   -999.250      2.190   2000.000      1.580      1.680    -16.000
    470.000    500.000     24.400   -999.250     71.200      1.760      2.800   2000.000      2.158      2.495      1.660      1.660    -15.750
    470.125    517.000     24.500   -999.250     71.200      1.720      2.800   2000.000      2.127      2.389      1.560      1.700    -15.250
    470.250    508.000     24.500   -999.250     70.400      1.720      2.720   2000.000      2.127      2.321      1.480      1.120    -14.500
    470.375    495.000     24.800   -999.250     70.000      1.720      2.600   2000.000      2.127      2.354      0.600      0.660    -14.000
    470.500    475.000     25.200   -999.250     70.000      1.720      2.440   2000.000      2.097      2.459      0.560      0.680    -13.750
    470.625    459.000     25.800   -999.250     70.400      1.720      2.400   2000.000      2.066      2.495      0.580      0.820    -13.750
    470.750    458.000     26.200   -999.250     70.400      1.720      2.400   2000.000      2.037      2.495      0.600      0.880    -13.750
    470.875    463.000     26.200   -999.250     70.000      1.720      2.520   2000.000      2.007      2.459      0.700      1.060    -13.500
    471.000    465.000     26.400   -999.250     68.400      1.760      2.600      2.254      1.950      2.389      1.300      1.520    -13.500
    471.125    464.000     26.400   -999.250     66.400      1.720      2.640      2.287      1.922      2.389      1.360      1.540    -13.250
    471.250    465.000     26.500   -999.250     64.400      1.760      2.640      2.321      1.894      2.354      1.480      1.700    -13.500
    471.375    471.000     26.900   -999.250     63.200      1.800      2.720      2.321      1.867      2.254      1.600      1.760    -13.750
    471.500    478.000     27.500   -999.250     62.400      1.800      2.720      2.190      1.867      2.222      1.420      1.700    -14.250
    471.625    483.000     28.600   -999.250     62.400      1.800      2.640      2.158      1.840      2.158      1.580      1.660    -15.000
    471.750    489.000     29.900   -999.250     62.400      1.800      2.520      2.190      1.787      2.097      1.600      1.820    -15.750
    471.875    498.000     29.300   -999.250     61.600      1.880      2.400      2.222      1.787      2.097      1.500      1.700    -17.000
    472.000    505.000     27.100   -999.250     60.000      2.000      2.320      2.158      1.762      2.066      1.040      1.460    -18.250
    472.125    505.000     24.600   -999.250     60.000      2.040      2.320      2.097      1.736      2.037      1.120      1.460    -19.750
    472.250    501.000     24.300   -999.250     60.800      2.160      2.240      2.097      1.736      2.037      1.460      1.680    -21.000
    472.375    499.000     24.600   -999.250     62.800      2.200      2.240      2.097      1.736      2.066      1.680      1.740    -22.000
    472.500    499.000     24.800   -999.250     62.800      2.280      2.160      2.158      1.736      2.066      1.720      1.680    -23.250
    472.625    505.000     24.900   -999.250     60.000      2.280      2.160      2.222      1.762      2.066      1.640      1.640    -25.500
    472.750    515.000     24.500   -999.250     56.400      2.280      2.160      2.321      1.787      2.066      1.540      1.680    -27.750
    472.875    523.000     24.600   -999.250     53.600      2.280      2.160      2.287      1.787      2.097      1.480      1.680    -30.250
    473.000    520.000     24.600   -999.250     53.600      2.320      2.160      2.127      1.787      2.097      1.600      1.580    -32.250
    473.125    511.000     24.700   -999.250     54.000      2.320      2.160      2.037      1.787      2.127      1.300      1.380    -33.750
    473.250    499.000     24.700   -999.250     54.800      2.360      2.160      2.066      1.867      2.158      1.360      1.400    -35.250
    473.375    492.000     24.700   -999.250     55.600      2.280      2.120      2.190      1.867      2.158      1.420      1.500    -36.500
    473.500    489.000     25.000   -999.250     57.200      2.160      2.240      2.321      1.867      2.158      1.300      1.520    -37.500
    473.625    490.000     25.300   -999.250     57.200      2.040      2.240      2.321      1.922      2.190      1.260      1.460    -38.250
    473.750    492.000     24.900   -999.250     57.600      1.880      2.320      2.254      1.950      2.190      1.340      1.460    -38.750
    473.875    495.000     24.400   -999.250     58.800      1.720      2.320      2.222      1.978      2.190      1.420      1.460    -38.750
