~Version Information Block
 VERS.                2.00:     CWLS LOG ASCII STANDARD - VERSION 2.000000
 WRAP.                  NO:     One Line Per Depth Step
#
~Well Information Block
#MNEM.UNIT                     Data                         Information
#----------   ------------------------------------------   ----------------
 STRT.M                                        189.625:
 STOP.M                                       2185.000:
 STEP.M                                          0.125:
 NULL.                                        -999.250:
 COMP.                                   ²â¾®Êý¾Ý¿âµ¼³ö:     COMPANY 
 WELL.                                         ¹ÂÄÏ152-4:     Well 
 FLD .                                                :     Field 
 LOC .                                                :     LOCATION
 CNTY.                                                :     COUNTY
 STAT.                                                :     STATE
 CTRY.                                                :     COUNTRY
 SRVC.                                                :     SERVICE COMPANY
 DATE.                                                :     DATE
 API .                                                :     API NUMBER
#
~Curve Information Block
#MNEM.UNIT       API CODE      Curve Description
#----------    -------------   -------------------
 DEPT.M                    :   Depth in Meters
 AC  .Î¢Ãë/Ã×                      :   AC
 CAL .ÀåÃ×                      :   CAL
 CAL .ÀåÃ×                      :   CAL
 COND.mS/m                      :   COND
 GR  .Î¢ÂØÇÙ/Ð¡Ê±                      :   GR
 RLML.Å·Ä·Ã×                      :   RLML
 RNML.Å·Ä·Ã×                      :   RNML
 R04 .Å·Ä·Ã×                      :   R04
 R25 .Å·Ä·Ã×                      :   R25
 R25 .Å·Ä·Ã×                      :   R25
 R4  .Å·Ä·Ã×                      :   R4
 SP  .ºÁ·ü                      :   SP
 SP  .ºÁ·ü                      :   SP
#
~A  DEPTH          AC        CAL        CAL       COND         GR       RLML       RNML        R04        R25        R25         R4         SP         SP
# ...
   1951.125    381.011     22.552   -999.250    901.647      8.750      1.979      1.856      1.438      1.566      1.266      1.486    154.186    128.655
   1951.250    409.699     23.198   -999.250    880.666      8.951      1.860      1.626      1.343      1.815      1.369      1.744    155.940    130.500
   1951.375    430.100     24.295   -999.250    859.685      9.211      2.110      1.268      1.267      2.007      1.500      1.968    157.845    132.316
   1951.500    457.514     27.624   -999.250    838.704      9.557      1.359      0.908      1.280      2.195      1.679      2.195    159.742    134.484
   1951.625    445.520     26.920   -999.250    819.582      9.903      0.829      0.661      1.388      2.305      1.919      2.534    162.042    136.771
   1951.750    423.486     24.825   -999.250    803.647     10.210      0.793      0.776      1.518      2.174      2.145      2.683    164.285    140.382
   1951.875    400.137     23.292   -999.250    784.525     10.121      1.291      0.934      1.650      1.923      2.234      2.293    166.721    142.019
   1952.000    412.196     23.680   -999.250    736.933     10.346      1.866      1.257      1.781      1.669      2.135      1.976    168.860    143.733
   1952.125    436.012     23.780   -999.250    726.098     10.721      1.176      1.512      1.878      1.419      1.881      1.659    171.490    145.516
   1952.250    459.829     22.964   -999.250    717.334     10.504      1.318      1.132      1.871      1.164      1.635      1.341    174.159    146.294
   1952.375    483.645     22.162   -999.250    714.734     10.842      1.168      1.145      1.777      0.856      1.394      1.026    175.414    147.427
   1952.500    493.852     21.160   -999.250    718.569     10.824      1.134      1.088      1.690      0.726      1.032      0.754    176.344    148.051
   1952.625    476.712     20.137   -999.250    722.911     11.002      0.977      0.984      1.587      0.704      0.768      0.584    177.017    148.536
   1952.750    456.876     19.256   -999.250    724.823     11.307      1.195      1.014      1.541      0.676      0.577      0.528    177.497    148.533
   1952.875    462.594     18.783   -999.250    718.879     11.728      1.181      1.017      1.524      0.679      0.489      0.519    177.827    148.696
   1953.000    475.173     18.358   -999.250    709.525     11.995      1.130      0.990      1.549      0.701      0.473      0.556    178.067    148.535
   1953.125    487.477     18.073   -999.250    694.865     11.760      0.982      0.986      1.582      0.782      0.471      0.592    178.108    148.538
   1953.250    493.215     18.268   -999.250    682.755     11.299      1.201      1.036      1.614      0.878      0.518      0.643    178.106    148.376
   1953.375    484.290     19.043   -999.250    668.095     11.707      1.092      1.062      1.665      0.986      0.560      0.730    178.113    148.224
   1953.500    459.426     19.770   -999.250    647.698     11.376      1.021      1.011      1.724      1.081      0.600      0.888    178.038    148.058
   1953.625    382.286     20.630   -999.250    626.027     10.870      1.006      0.957      1.846      1.215      0.641      1.046    177.855    147.752
   1953.750    347.780     21.775   -999.250    604.356     10.343      2.909      0.911      2.147      1.385      0.753      1.020    177.670    147.741
   1953.875    307.640     23.316   -999.250    585.871     10.099      6.580      3.078      2.451      1.597      0.942      0.906    177.491    147.119
   1954.000    299.408     25.283   -999.250    572.486      9.858      4.115      2.372      2.784      1.918      1.153      0.798    177.312    146.945
   1954.125    341.874     27.774   -999.250    555.276      9.831      1.102      1.406      2.823      2.081      1.300      0.704    177.133    146.485
   1954.250    380.343     28.470   -999.250    541.254     10.421      1.318      1.092      2.834      2.349      1.545      0.727    176.954    146.145
   1954.375    405.237     26.777   -999.250    531.418     10.167      1.008      0.901      2.850      2.513      1.784      0.868    176.776    145.855
   1954.500    384.318     25.037   -999.250    523.477      9.798      0.860      0.876      2.962      2.766      2.102      1.010    176.597    145.829
   1954.625    357.472     23.445   -999.250    520.857      9.459      1.306      1.337      3.125      3.043      2.439      1.152    176.418    145.536
   1954.750    331.922     22.435   -999.250    534.993      8.859      1.090      1.167      3.309      3.214      2.722      1.294    176.239    145.366
   1954.875    296.858     22.008   -999.250    548.902      9.228      1.284      1.482      3.486      3.128      3.083      1.437    176.060    145.196
   1955.000    303.233     22.142   -999.250    561.331      8.752      1.393      1.419      3.280      2.860      3.327      1.459    175.880    145.039
   1955.125    288.570     22.255   -999.250    580.772      9.040      1.536      1.762      2.998      2.615      3.144      1.281    175.720    145.053
   1955.250    274.545     22.374   -999.250    597.344      9.670      1.561      1.976      2.716      2.401      2.724      1.088    175.734    145.201
   1955.375    300.623     22.667   -999.250    614.554     10.221      1.939      2.199      2.455      2.054      2.295      0.929    175.573    145.535
   1955.500    337.133     24.560   -999.250    641.324     10.002      2.088      1.892      2.249      1.817      1.875      0.957    175.403    145.768
   1955.625    377.823     28.137   -999.250    666.183      9.872      1.374      1.418      2.001      1.494      1.617      1.089    175.400    146.013
   1955.750    394.518     27.086   -999.250    686.579     10.230      0.839      0.812      1.813      1.360      1.532      1.218    175.578    146.249
   1955.875    399.917     24.545   -999.250    705.701     10.802      0.856      0.862      1.695      1.341      1.496      1.349    175.801    146.491
   1956.000    403.962     23.870   -999.250    715.415     10.711      1.217      0.959      1.647      1.387      1.466      1.407    176.061    146.728
   1956.125    418.625     25.562   -999.250    723.617     10.537      1.119      1.010      1.589      1.493      1.470      1.357    176.399    146.970
   1956.250    444.285     26.025   -999.250    731.197     10.783      0.927      0.833      1.526      1.566      1.536      1.301    176.657    147.207
   1956.375    453.051     22.515   -999.250    738.846     11.078      0.894      0.959      1.492      1.645      1.601      1.249    176.998    147.450
   1956.500    444.126     20.067   -999.250    743.095     10.658      1.102      1.152      1.494      1.694      1.693      1.185    177.322    147.685
   1956.625    433.288     19.666   -999.250    748.821     10.755      1.320      1.183      1.468      1.747      1.798      1.134    177.515    147.931
   1956.750    446.038     19.390   -999.250    752.755     10.599      0.962      0.914      1.427      1.721      1.846      1.102    177.609    148.065
   1956.875    445.082     19.105   -999.250    756.689     11.130      1.180      1.025      1.391      1.670      1.773      1.058    177.703    148.231
   1957.000    452.555     18.821   -999.250    760.623     11.179      1.073      1.051      1.352      1.619      1.674      1.026    177.807    148.382
   1957.125    468.139     18.454   -999.250    765.493     11.410      1.195      1.006      1.336      1.567      1.573      1.022    177.920    148.443
   1957.250    482.696     17.996   -999.250    771.001     10.952      1.046      1.000      1.318      1.542      1.568      1.004    178.114    148.700
   1957.375    492.577     17.659   -999.250    776.508     11.030      1.001      0.936      1.283      1.516      1.569      1.002    178.231    148.709
   1957.500    501.184     17.435   -999.250    782.016     10.704      1.000      0.882      1.236      1.517      1.589      1.008    178.268    148.859
