~Version Information Block
 VERS.                2.00:     CWLS LOG ASCII STANDARD - VERSION 2.000000
 WRAP.                  NO:     One Line Per Depth Step
#
~Well Information Block
#MNEM.UNIT                     Data                         Information
#----------   ------------------------------------------   ----------------
 STRT.M                                        189.625:
 STOP.M                                       2185.000:
 STEP.M                                          0.125:
 NULL.                                        -999.250:
 COMP.                                   ²â¾®Êý¾Ý¿âµ¼³ö:     COMPANY 
 WELL.                                         ¹ÂÄÏ152-4:     Well 
 FLD .                                                :     Field 
 LOC .                                                :     LOCATION
 CNTY.                                                :     COUNTY
 STAT.                                                :     STATE
 CTRY.                                                :     COUNTRY
 SRVC.                                                :     SERVICE COMPANY
 DATE.                                                :     DATE
 API .                                                :     API NUMBER
#
~Curve Information Block
#MNEM.UNIT       API CODE      Curve Description
#----------    -------------   -------------------
 DEPT.M                    :   Depth in Meters
 AC  .Î¢Ãë/Ã×                      :   AC
 CAL .ÀåÃ×                      :   CAL
 CAL .ÀåÃ×                      :   CAL
 COND.mS/m                      :   COND
 GR  .Î¢ÂØÇÙ/Ð¡Ê±                      :   GR
 RLML.Å·Ä·Ã×                      :   RLML
 RNML.Å·Ä·Ã×                      :   RNML
 R04 .Å·Ä·Ã×                      :   R04
 R25 .Å·Ä·Ã×                      :   R25
 R25 .Å·Ä·Ã×                      :   R25
 R4  .Å·Ä·Ã×                      :   R4
 SP  .ºÁ·ü                      :   SP
 SP  .ºÁ·ü                      :   SP
#
~A  DEPTH          AC        CAL        CAL       COND         GR       RLML       RNML        R04        R25        R25         R4         SP         SP
# ...
    501.625    481.740     35.349   -999.250    514.483   -999.250      1.279      1.424      1.958      2.180      2.271      2.373    155.664    124.630
    501.750    494.532     37.414   -999.250    512.571   -999.250      1.202      1.342      1.997      2.109      2.197      2.311    155.595    124.472
    501.875    525.731     40.573   -999.250    507.901   -999.250      1.884      1.673      2.049      2.052      2.124      2.175    155.526    124.152
    502.000    556.930     43.278   -999.250    503.470   -999.250      1.317      1.096      2.146      2.171      2.050      2.040    155.443    123.993
    502.125    566.530     45.222   -999.250    499.823   -999.250      1.087      1.060      2.269      2.343      1.982      1.938    155.348    123.674
    502.250    538.638     41.231   -999.250    494.086   -999.250      1.096      1.091      2.396      2.513      2.007      1.980    155.251    123.515
    502.375    516.883     36.746   -999.250    489.625   -999.250      1.113      1.255      2.523      2.685      2.166      2.245    155.095    123.196
    502.500    494.490     32.245   -999.250    485.163   -999.250      1.119      1.371      2.651      2.855      2.371      2.454    154.672    122.719
    502.625    477.914     29.430   -999.250    482.119   -999.250      1.181      1.785      2.778      2.942      2.576      2.630    154.250    122.558
    502.750    461.857     27.119   -999.250    478.796   -999.250      1.980      2.215      2.906      2.888      2.782      2.804    153.830    122.081
    502.875    448.648     25.703   -999.250    475.602   -999.250      1.436      1.985      3.033      2.775      2.987      2.956    153.414    121.601
    503.000    442.213     25.418   -999.250    476.239   -999.250      1.679      2.252      3.160      2.713      3.175      2.885    152.885    121.284
    503.125    453.051     26.676   -999.250    482.715   -999.250      2.672      2.468      3.282      2.760      3.038      2.746    152.364    120.804
    503.250    451.138     27.115   -999.250    489.744   -999.250      1.170      1.566      3.300      2.811      2.894      2.607    151.843    120.328
    503.375    467.714     25.959   -999.250    500.480   -999.250      1.592      1.912      3.195      2.839      2.748      2.476    151.323    120.007
    503.500    463.889     25.161   -999.250    511.216   -999.250      2.348      2.480      3.057      2.693      2.720      2.533    150.805    119.370
    503.625    484.927     24.507   -999.250    522.132   -999.250      1.686      2.069      2.871      2.456      2.819      2.633    150.317    118.733
    503.750    480.464     23.940   -999.250    531.175   -999.250      1.813      2.314      2.610      2.219      2.862      2.552    149.988    118.412
    503.875    489.476     25.101   -999.250    542.130   -999.250      2.196      2.612      2.373      1.949      2.749      2.248    149.651    118.095
    504.000    506.211     26.537   -999.250    549.701   -999.250      2.546      1.321      2.178      1.950      2.499      1.966    149.298    117.774
    504.125    522.946     28.020   -999.250    551.452   -999.250      1.319      1.443      2.151      2.112      2.259      1.779    149.173    117.617
    504.250    525.091     28.406   -999.250    551.452   -999.250      1.441      1.352      2.135      2.306      2.059      1.695    149.063    117.454
    504.375    509.171     26.832   -999.250    549.651   -999.250      1.854      1.295      2.245      2.534      2.002      1.773    148.989    117.139
    504.500    496.501     29.291   -999.250    547.373   -999.250      1.410      1.698      2.356      2.617      2.002      1.889    148.480    116.658
    504.625    486.840     32.065   -999.250    545.094   -999.250      1.863      1.613      2.465      2.716      2.072      2.024    148.012    116.024
    504.750    481.740     33.291   -999.250    543.166      7.093      1.347      1.510      2.573      2.765      2.187      2.218    147.438    115.384
    504.875    488.752     29.600   -999.250    543.166      6.499      0.974      1.404      2.674      2.651      2.306      2.413    146.851    114.590
    505.000    504.690     25.270   -999.250    544.441      6.553      1.729      2.572      2.764      2.510      2.427      2.570    146.167    114.271
    505.125    521.903     26.047   -999.250    547.627      6.599      3.401      3.433      2.846      2.364      2.566      2.707    145.573    113.633
    505.250    534.016     27.924   -999.250    553.683      6.503      2.518      2.691      2.930      2.256      2.774      2.635    144.815    112.681
    505.375    548.042     27.030   -999.250    562.288      6.939      3.384      3.138      2.954      2.202      2.927      2.522    144.196    112.039
    505.500    557.180     29.452   -999.250    573.123      6.555      2.274      2.467      2.888      2.129      2.875      2.409    143.382    111.250
    505.625    565.255     31.650   -999.250    582.684      6.608      2.883      2.570      2.811      2.126      2.683      2.296    142.452    110.286
    505.750    561.883     28.807   -999.250    592.882      6.338      3.201      3.153      2.734      2.103      2.483      2.193    141.605    109.500
    505.875    555.907     25.621   -999.250    602.443      6.125      2.781      3.005      2.665      2.100      2.280      2.061    140.940    109.011
    506.000    549.317     26.940   -999.250    610.729      6.428      2.910      2.811      2.609      2.077      2.168      1.960    140.298    108.388
    506.125    549.317     26.090   -999.250    622.840      6.046      2.560      2.889      2.570      2.025      2.209      1.857    139.835    108.215
    506.250    549.317     24.504   -999.250    634.313      5.808      2.940      2.957      2.555      1.925      2.286      1.769    139.389    108.230
    506.375    545.505     22.673   -999.250    643.237      5.975      3.390      3.176      2.515      1.822      2.311      1.681    138.979    108.374
    506.500    542.304     22.366   -999.250    650.885      6.054      3.768      3.394      2.512      1.746      2.251      1.655    138.773    108.389
    506.625    537.204     22.423   -999.250    657.897      5.306      3.636      3.567      2.513      1.669      2.140      1.644    138.645    108.375
    506.750    532.383     22.617   -999.250    664.271      4.890      4.188      3.376      2.513      1.593      2.025      1.628    138.590    108.548
    506.875    530.052     23.227   -999.250    668.732      5.085      3.841      3.643      2.495      1.542      1.911      1.593    138.780    108.854
    507.000    529.554     25.121   -999.250    674.150      4.260      3.994      3.731      2.471      1.516      1.796      1.559    139.038    109.025
    507.125    536.002     27.122   -999.250    677.656      3.444      3.877      3.568      2.447      1.492      1.673      1.525    139.216    109.386
    507.250    542.477     27.273   -999.250    682.118      3.014      3.971      3.337      2.423      1.516      1.599      1.491    139.412    109.819
    507.375    546.129     26.221   -999.250    685.942      3.171      3.830      3.108      2.399      1.530      1.534      1.451    139.614    110.291
    507.500    535.504     25.180   -999.250    685.942      3.393      3.656      2.934      2.375      1.592      1.496      1.398    139.838    110.692
    507.625    525.144     24.232   -999.250    681.480      3.615      3.480      3.147      2.359      1.670      1.503      1.379    140.347    111.088
    507.750    514.891     24.032   -999.250    671.282      4.244      3.949      3.411      2.389      1.728      1.517      1.326    140.825    111.565
    507.875    505.328     23.752   -999.250    660.446      4.105      4.203      3.557      2.407      1.799      1.517      1.331    141.413    112.204
    508.000    495.765     23.754   -999.250    648.973      4.001      3.638      3.356      2.491      1.872      1.523      1.335    142.113    112.837
