~Version Information Block
 VERS.                2.00:     CWLS LOG ASCII STANDARD - VERSION 2.000000
 WRAP.                  NO:     One Line Per Depth Step
#
~Well Information Block
#MNEM.UNIT                     Data                         Information
#----------   ------------------------------------------   ----------------
 STRT.M                                        189.625:
 STOP.M                                       2185.000:
 STEP.M                                          0.125:
 NULL.                                        -999.250:
 COMP.                                   ²â¾®Êý¾Ý¿âµ¼³ö:     COMPANY 
 WELL.                                         ¹ÂÄÏ152-4:     Well 
 FLD .                                                :     Field 
 LOC .                                                :     LOCATION
 CNTY.                                                :     COUNTY
 STAT.                                                :     STATE
 CTRY.                                                :     COUNTRY
 SRVC.                                                :     SERVICE COMPANY
 DATE.                                                :     DATE
 API .                                                :     API NUMBER
#
~Curve Information Block
#MNEM.UNIT       API CODE      Curve Description
#----------    -------------   -------------------
 DEPT.M                    :   Depth in Meters
 AC  .Î¢Ãë/Ã×                      :   AC
 CAL .ÀåÃ×                      :   CAL
 CAL .ÀåÃ×                      :   CAL
 COND.mS/m                      :   COND
 GR  .Î¢ÂØÇÙ/Ð¡Ê±                      :   GR
 RLML.Å·Ä·Ã×                      :   RLML
 RNML.Å·Ä·Ã×                      :   RNML
 R04 .Å·Ä·Ã×                      :   R04
 R25 .Å·Ä·Ã×                      :   R25
 R25 .Å·Ä·Ã×                      :   R25
 R4  .Å·Ä·Ã×                      :   R4
 SP  .ºÁ·ü                      :   SP
 SP  .ºÁ·ü                      :   SP
#
~A  DEPTH          AC        CAL        CAL       COND         GR       RLML       RNML        R04        R25        R25         R4         SP         SP
# ...
   1502.625    283.470     21.770   -999.250    662.996      7.905      1.665      1.968      3.177      1.897      1.754      1.667    149.359    121.470
   1502.750    311.981     22.003   -999.250    654.072      8.228      1.723      1.924      3.181      1.899      1.798      1.716    149.919    122.245
   1502.875    369.004     22.240   -999.250    646.424      8.505      1.893      1.878      3.099      1.805      1.765      1.714    150.506    123.223
   1503.000    404.599     22.474   -999.250    639.412      8.574      1.689      1.839      3.010      1.695      1.773      1.754    151.423    124.149
   1503.125    429.144     22.659   -999.250    632.401      9.058      1.372      1.748      2.923      1.693      1.828      1.813    152.411    125.297
   1503.250    435.838     22.501   -999.250    627.939      9.344      1.702      1.845      2.822      1.768      1.932      1.912    153.522    126.691
   1503.375    398.802     22.320   -999.250    623.477      8.987      1.644      1.837      2.706      1.884      2.057      2.010    154.926    127.689
   1503.500    370.312     22.288   -999.250    620.928      9.027      1.548      1.742      2.605      2.003      2.177      2.108    156.535    128.917
   1503.625    344.672     22.349   -999.250    620.928      8.862      1.632      1.836      2.401      2.119      2.181      2.171    157.846    129.921
   1503.750    369.014     22.499   -999.250    622.840      9.213      1.924      1.693      2.214      2.153      2.134      2.011    159.566    131.622
   1503.875    403.788     23.743   -999.250    626.664      8.951      1.361      1.342      2.024      1.981      2.032      1.822    161.026    132.627
   1504.000    430.504     25.778   -999.250    631.445      9.188      0.877      0.983      1.901      1.685      1.859      1.679    162.444    134.172
   1504.125    449.226     27.985   -999.250    634.950      8.857      0.833      0.866      1.825      1.386      1.686      1.531    163.684    134.355
   1504.250    445.726     26.425   -999.250    639.412      9.142      0.861      0.946      1.795      1.212      1.514      1.419    164.794    135.651
   1504.375    437.800     24.093   -999.250    643.874      9.302      1.211      1.074      1.768      1.305      1.369      1.305    166.105    137.024
   1504.500    430.100     22.562   -999.250    648.973      8.497      1.449      1.137      1.749      1.412      1.337      1.282    167.170    138.331
   1504.625    441.209     23.393   -999.250    651.523      8.841      1.100      1.005      1.719      1.516      1.394      1.306    168.215    139.781
   1504.750    460.064     24.237   -999.250    651.523      9.325      0.961      1.027      1.722      1.645      1.464      1.334    169.051    140.398
   1504.875    476.639     25.088   -999.250    650.885      9.836      1.212      1.041      1.722      1.677      1.534      1.351    169.992    141.049
   1505.000    488.752     25.831   -999.250    649.610      9.957      1.030      0.968      1.722      1.721      1.605      1.384    170.699    141.361
   1505.125    496.403     25.343   -999.250    651.523      9.640      0.930      0.946      1.720      1.762      1.675      1.411    171.160    141.523
   1505.250    498.315     24.068   -999.250    655.984      9.726      1.209      1.090      1.700      1.798      1.696      1.410    171.536    141.686
   1505.375    498.953     22.599   -999.250    661.721      9.972      0.866      0.936      1.647      1.795      1.696      1.404    171.766    142.157
   1505.500    498.953     20.879   -999.250    666.820     10.121      1.043      1.002      1.617      1.651      1.692      1.378    171.900    142.327
   1505.625    498.953     19.536   -999.250    675.106      9.975      1.202      1.101      1.594      1.541      1.671      1.311    172.213    142.476
   1505.750    497.678     18.307   -999.250    682.118     10.453      0.991      1.017      1.564      1.543      1.649      1.273    172.347    142.489
   1505.875    495.546     17.300   -999.250    689.129      9.815      0.998      1.040      1.545      1.631      1.620      1.236    172.505    142.638
   1506.000    490.665     16.013   -999.250    692.316      9.875      1.133      1.066      1.532      1.717      1.592      1.200    172.540    142.808
   1506.125    484.290     14.804   -999.250    693.591      9.815      1.115      1.025      1.519      1.820      1.626      1.206    172.532    142.959
   1506.250    468.075     15.567   -999.250    691.041      9.611      1.115      1.070      1.518      1.924      1.662      1.257    172.704    143.126
   1506.375    448.769     17.282   -999.250    685.942      9.222      1.402      1.030      1.518      2.023      1.748      1.375    172.692    143.122
   1506.500    429.463     18.991   -999.250    678.931      9.306      1.149      0.903      1.545      2.091      1.847      1.490    172.745    143.127
   1506.625    415.437     20.694   -999.250    672.557      9.494      0.901      0.853      1.569      2.173      2.043      1.604    172.811    143.284
   1506.750    438.701     22.422   -999.250    668.095      9.635      0.986      0.984      1.596      2.261      2.252      1.719    172.857    143.285
   1506.875    466.546     24.168   -999.250    664.271      9.754      1.149      1.111      1.614      2.355      2.437      1.837    172.853    143.286
   1507.000    499.590     24.175   -999.250    665.864     10.025      1.013      1.079      1.621      2.357      2.401      1.860    172.851    143.444
   1507.125    515.329     21.870   -999.250    670.644      9.495      0.878      0.961      1.622      2.262      2.247      1.769    172.848    143.445
   1507.250    521.234     20.165   -999.250    675.744      9.598      0.839      0.896      1.575      2.058      2.097      1.679    172.834    143.444
   1507.375    518.078     18.760   -999.250    682.755      9.810      1.042      0.990      1.494      1.853      1.948      1.592    173.010    143.445
   1507.500    526.366     17.140   -999.250    691.870     10.054      1.203      1.093      1.464      1.649      1.797      1.533    173.004    143.445
   1507.625    515.907     15.863   -999.250    699.016      9.634      1.051      1.064      1.441      1.491      1.649      1.519    173.010    143.285
   1507.750    495.765     15.252   -999.250    705.701      8.844      1.064      0.998      1.441      1.491      1.596      1.499    172.833    143.287
   1507.875    483.015     15.720   -999.250    702.847      9.022      1.004      1.010      1.440      1.516      1.596      1.485    172.850    143.284
   1508.000    470.264     16.631   -999.250    694.285      9.401      1.218      1.055      1.486      1.560      1.568      1.502    172.866    143.288
   1508.125    454.326     17.564   -999.250    685.623      9.032      1.163      1.093      1.547      1.625      1.569      1.540    172.693    143.283
   1508.250    433.288     17.982   -999.250    673.831      9.354      1.250      1.051      1.611      1.691      1.574      1.590    172.711    143.130
   1508.375    403.962     18.581   -999.250    656.622      9.502      1.582      0.987      1.642      1.756      1.612      1.665    172.536    143.122
   1508.500    365.710     19.500   -999.250    642.280      9.723      1.097      1.161      1.700      1.821      1.672      1.751    172.508    142.972
   1508.625    347.860     20.789   -999.250    627.620      9.889      1.150      1.036      1.748      1.887      1.747      1.885    172.354    142.804
   1508.750    353.119     22.468   -999.250    616.466     10.199      1.104      1.032      1.800      1.952      1.836      1.976    172.194    142.494
   1508.875    362.523     23.647   -999.250    606.586     10.352      1.041      1.222      1.855      2.018      1.924      2.065    172.029    142.486
   1509.000    380.055     24.469   -999.250    598.938      9.823      1.128      1.175      1.911      2.083      2.015      2.119    171.817    142.334
