~Version Information Block
 VERS.                2.00:     CWLS LOG ASCII STANDARD - VERSION 2.000000
 WRAP.                  NO:     One Line Per Depth Step
#
~Well Information Block
#MNEM.UNIT                     Data                         Information
#----------   ------------------------------------------   ----------------
 STRT.M                                        195.000:
 STOP.M                                       2555.000:
 STEP.M                                          0.125:
 NULL.                                        -999.250:
 COMP.                                   ²â¾®Êý¾Ý¿âµ¼³ö:     COMPANY 
 WELL.                                        ¹ÂÄÏ152-08:     Well 
 FLD .                                                :     Field 
 LOC .                                                :     LOCATION
 CNTY.                                                :     COUNTY
 STAT.                                                :     STATE
 CTRY.                                                :     COUNTRY
 SRVC.                                                :     SERVICE COMPANY
 DATE.                                                :     DATE
 API .                                                :     API NUMBER
#
~Curve Information Block
#MNEM.UNIT       API CODE      Curve Description
#----------    -------------   -------------------
 DEPT.M                    :   Depth in Meters
 AC  .Î¢Ãë/Ã×                      :   AC
 CAL .ÀåÃ×                      :   CAL
 CAL .ÀåÃ×                      :   CAL
 COND.mS/m                      :   COND
 GR  .Î¢Â×ÇÙ                      :   GR
 RLML.Å·Ä·Ã×                      :   RLML
 RNML.Å·Ä·Ã×                      :   RNML
 R04 .Å·Ä·Ã×                      :   R04
 R25 .Å·Ä·Ã×                      :   R25
 R4  .Å·Ä·Ã×                      :   R4
 RFOC.Å·Ä·Ã×                      :   RFOC
 RILD.Å·Ä·Ã×                      :   RILD
 RILM.Å·Ä·Ã×                      :   RILM
 SP  .mv                      :   SP
 SP  .ºÁ·ü                      :   SP
#
~A  DEPTH          AC        CAL        CAL       COND         GR       RLML       RNML        R04        R25         R4       RFOC       RILD       RILM         SP         SP
# ...
   1149.500    440.308     36.059   -999.250    458.228      5.821      1.582      1.671      1.435      2.645      3.768      1.465      2.072      2.003     39.021     43.194
   1149.625    440.538     34.444   -999.250    462.658      6.043      0.885      0.859      1.437      2.669      3.855      1.436      2.051      1.992     39.007     43.184
   1149.750    438.106     33.305   -999.250    465.190      5.290      1.203      1.190      1.443      2.695      3.855      1.462      2.051      1.989     39.008     43.194
   1149.875    432.966     33.148   -999.250    467.722      5.643      0.859      1.013      1.491      2.720      3.797      1.500      2.051      1.989     39.007     43.184
   1150.000    431.498     33.695   -999.250    468.987      5.872      0.744      0.667      1.503      2.670      3.739      1.511      2.051      1.989     39.149     43.194
   1150.125    434.435     33.562   -999.250    470.253      6.057      1.405      1.430      1.491      2.593      3.681      1.478      2.051      1.989     39.014     43.184
   1150.250    444.714     33.252   -999.250    470.253      5.591      1.013      1.266      1.416      2.542      3.623      1.428      2.051      1.989     39.003     43.193
   1150.375    447.651     33.145   -999.250    467.089      5.882      1.089      0.910      1.393      2.517      3.681      1.407      2.078      1.987     39.000     43.265
   1150.500    447.651     33.728   -999.250    460.127      5.332      1.139      1.165      1.397      2.491      3.739      1.425      2.116      2.011     39.015     43.353
   1150.625    441.777     34.585   -999.250    450.000      5.713      0.923      0.885      1.435      2.504      3.884      1.484      2.154      2.009     38.973     43.505
   1150.750    423.421     35.643   -999.250    442.208      5.377      0.923      1.063      1.490      2.567      3.971      1.526      2.203      2.048     38.843     43.512
   1150.875    417.670     34.676   -999.250    439.610      5.491      1.380      0.923      1.489      2.606      4.127      1.521      2.203      2.091     38.859     43.505
   1151.000    414.611     32.905   -999.250    438.312      5.803      0.962      1.557      1.504      2.643      4.127      1.511      2.248      2.156     38.800     43.512
   1151.125    417.364     32.134   -999.250    434.416      6.116      1.684      1.013      1.489      2.670      4.101      1.480      2.271      2.220     38.850     43.505
   1151.250    417.548     32.229   -999.250    427.922      6.387      0.974      1.797      1.546      2.694      4.127      1.562      2.271      2.284     38.816     43.511
   1151.375    411.674     31.359   -999.250    416.883      6.537      1.203      0.974      1.631      2.709      4.051      1.622      2.294      2.356     38.691     43.506
   1151.500    405.433     29.603   -999.250    419.481      6.138      1.532      1.519      1.669      2.707      3.971      1.656      2.256      2.414     38.685     43.511
   1151.625    404.332     28.590   -999.250    433.766      5.801      1.152      1.329      1.662      2.645      3.855      1.622      2.180      2.414     38.497     43.506
   1151.750    411.674     27.873   -999.250    450.000      5.923      0.910      0.885      1.603      2.592      3.739      1.547      2.072      2.414     38.430     43.350
   1151.875    417.548     27.685   -999.250    479.114      5.956      1.544      1.734      1.538      2.543      3.710      1.511      1.989      2.390     38.341     43.346
   1152.000    421.023     27.663   -999.250    475.949      5.761      0.910      0.897      1.461      2.503      3.739      1.490      1.969      2.341     38.318     43.270
   1152.125    425.624     27.534   -999.250    470.253      5.867      1.709      1.772      1.489      2.492      3.652      1.480      1.997      2.294     38.196     43.186
   1152.250    426.358     27.333   -999.250    465.823      5.463      0.808      0.808      1.515      2.490      3.594      1.495      2.021      2.204     38.079     43.110
   1152.375    426.358     27.347   -999.250    462.658      5.282      1.759      1.899      1.540      2.492      3.449      1.541      2.046      2.158     38.015     42.947
   1152.500    422.687     27.268   -999.250    460.127      5.774      0.833      0.821      1.593      2.477      3.362      1.574      2.051      2.158     37.897     42.870
   1152.625    420.485     27.275   -999.250    460.127      5.541      1.165      1.190      1.623      2.466      3.275      1.639      2.072      2.154     37.885     42.707
   1152.750    420.117     27.582   -999.250    455.063      5.767      1.101      1.443      1.640      2.452      3.275      1.630      2.115      2.136     37.765     42.630
   1152.875    420.117     27.675   -999.250    449.351      6.297      1.937      1.114      1.586      2.441      3.333      1.603      2.158      2.161     37.682     42.467
   1153.000    422.320     27.829   -999.250    444.156      6.208      0.987      2.000      1.573      2.464      3.391      1.576      2.158      2.180     37.690     42.310
   1153.125    424.156     27.824   -999.250    447.403      6.052      1.658      1.709      1.565      2.479      3.391      1.558      2.158      2.155     37.735     42.227
   1153.250    423.054     27.842   -999.250    453.165      6.178      0.885      0.859      1.564      2.503      3.362      1.558      2.136      2.126     37.728     41.990
   1153.375    418.374     27.440   -999.250    456.962      6.547      1.304      1.532      1.565      2.492      3.333      1.574      2.104      2.098     37.739     41.987
   1153.500    416.814     27.277   -999.250    460.127      6.102      0.974      1.316      1.565      2.477      3.333      1.561      2.083      2.072     37.715     41.910
   1153.625    416.263     27.196   -999.250    462.658      5.774      1.215      0.974      1.560      2.441      3.333      1.542      2.048      2.072     37.594     41.907
   1153.750    416.814     27.040   -999.250    464.557      5.845      1.722      1.924      1.541      2.439      3.478      1.558      2.030      2.080     37.576     41.909
   1153.875    422.687     27.072   -999.250    465.823      5.890      0.949      0.910      1.568      2.454      3.507      1.574      2.030      2.093     37.572     41.907
   1154.000    424.890     27.763   -999.250    467.722      5.674      1.658      1.443      1.588      2.490      3.507      1.590      2.030      2.089     37.575     41.909
   1154.125    423.421     28.417   -999.250    468.354      5.254      0.872      0.872      1.555      2.517      3.536      1.526      2.030      2.081     37.541     41.907
   1154.250    421.219     28.311   -999.250    465.823      5.434      1.595      1.709      1.493      2.567      3.420      1.465      2.030      2.072     37.419     42.068
   1154.375    420.485     28.040   -999.250    462.025      5.709      0.897      0.987      1.493      2.606      3.362      1.495      2.051      2.088     37.409     42.067
   1154.500    421.219     27.924   -999.250    458.228      5.842      1.848      1.975      1.517      2.605      3.333      1.513      2.083      2.106     37.420     42.148
   1154.625    421.219     28.050   -999.250    454.430      5.943      0.846      0.821      1.538      2.580      3.391      1.526      2.115      2.124     37.365     42.227
   1154.750    419.750     28.293   -999.250    456.962      6.192      1.696      1.810      1.510      2.542      3.507      1.515      2.158      2.146     37.414     42.228
   1154.875    410.940     28.403   -999.250    462.658      6.027      1.266      1.203      1.516      2.503      3.536      1.511      2.104      2.180     37.415     42.227
   1155.000    403.965     28.409   -999.250    474.684      6.204      2.026      2.064      1.591      2.465      3.478      1.574      2.010      2.180     37.413     42.068
   1155.125    394.053     28.113   -999.250    484.177      6.147      0.923      0.885      1.698      2.440      3.391      1.714      1.949      2.180     37.413     42.067
