~Version Information Block
 VERS.                2.00:     CWLS LOG ASCII STANDARD - VERSION 2.000000
 WRAP.                  NO:     One Line Per Depth Step
#
~Well Information Block
#MNEM.UNIT                     Data                         Information
#----------   ------------------------------------------   ----------------
 STRT.M                                        195.000:
 STOP.M                                       2555.000:
 STEP.M                                          0.125:
 NULL.                                        -999.250:
 COMP.                                   ²â¾®Êý¾Ý¿âµ¼³ö:     COMPANY 
 WELL.                                        ¹ÂÄÏ152-08:     Well 
 FLD .                                                :     Field 
 LOC .                                                :     LOCATION
 CNTY.                                                :     COUNTY
 STAT.                                                :     STATE
 CTRY.                                                :     COUNTRY
 SRVC.                                                :     SERVICE COMPANY
 DATE.                                                :     DATE
 API .                                                :     API NUMBER
#
~Curve Information Block
#MNEM.UNIT       API CODE      Curve Description
#----------    -------------   -------------------
 DEPT.M                    :   Depth in Meters
 AC  .Î¢Ãë/Ã×                      :   AC
 CAL .ÀåÃ×                      :   CAL
 CAL .ÀåÃ×                      :   CAL
 COND.mS/m                      :   COND
 GR  .Î¢Â×ÇÙ                      :   GR
 RLML.Å·Ä·Ã×                      :   RLML
 RNML.Å·Ä·Ã×                      :   RNML
 R04 .Å·Ä·Ã×                      :   R04
 R25 .Å·Ä·Ã×                      :   R25
 R4  .Å·Ä·Ã×                      :   R4
 RFOC.Å·Ä·Ã×                      :   RFOC
 RILD.Å·Ä·Ã×                      :   RILD
 RILM.Å·Ä·Ã×                      :   RILM
 SP  .mv                      :   SP
 SP  .ºÁ·ü                      :   SP
#
~A  DEPTH          AC        CAL        CAL       COND         GR       RLML       RNML        R04        R25         R4       RFOC       RILD       RILM         SP         SP
# ...
   1264.500    384.655     31.883   -999.250    405.195     11.211      1.177      1.367      1.462      2.541      4.152      1.414      2.322      2.158     37.601     42.233
   1264.625    367.621     32.501   -999.250    403.896     10.951      1.025      1.899      1.540      2.621      4.127      1.436      2.333      2.225     37.408     42.069
   1264.750    359.545     31.737   -999.250    400.000     10.607      1.722      1.025      1.697      2.705      4.051      1.590      2.343      2.318     37.544     41.754
   1264.875    371.292     29.399   -999.250    398.101     10.289      1.975      1.418      1.879      2.815      3.971      1.815      2.354      2.489     37.592     41.589
   1265.000    395.521     27.315   -999.250    403.247      9.622      0.859      2.064      1.979      2.921      3.855      1.833      2.365      2.592     37.558     41.596
   1265.125    408.003     26.104   -999.250    420.130      8.959      1.076      1.304      1.713      2.827      3.710      1.606      2.306      2.592     37.683     41.429
   1265.250    416.814     25.671   -999.250    437.013      7.435      1.456      1.937      1.532      2.659      3.565      1.480      2.241      2.540     37.741     41.277
   1265.375    429.295     25.659   -999.250    455.696      7.542      2.167      2.282      1.452      2.517      3.507      1.407      2.140      2.390     37.851     41.269
   1265.500    434.435     26.208   -999.250    470.253      7.675      1.329      1.342      1.552      2.440      3.478      1.492      1.988      2.271     37.930     41.279
   1265.625    435.903     26.553   -999.250    494.937      4.923      1.734      1.506      1.656      2.415      3.478      1.637      1.910      2.225     38.179     41.589
   1265.750    417.181     26.059   -999.250    510.127      5.344      1.481      1.911      1.772      2.389      3.478      1.690      1.871      2.225     38.351     41.762
   1265.875    391.483     24.856   -999.250    520.253      5.978      1.759      1.468      1.688      2.364      3.507      1.656      1.796      2.203     38.501     41.908
   1266.000    392.183     24.228   -999.250    525.316      6.313      2.192      1.506      1.565      2.363      3.536      1.513      1.772      1.969     38.703     42.244
   1266.125    397.724     24.083   -999.250    531.013      6.174      1.228      2.064      1.517      2.363      3.507      1.463      1.765      1.833     38.921     42.707
   1266.250    408.003     23.958   -999.250    532.911      6.111      1.861      1.924      1.514      2.415      3.536      1.436      1.760      1.760     39.565     43.206
   1266.375    409.471     23.674   -999.250    516.456      6.348      1.532      1.544      1.537      2.465      3.594      1.495      1.778      1.725     40.196     43.665
   1266.500    407.269     23.526   -999.250    501.266      5.917      1.797      1.823      1.564      2.492      3.623      1.480      1.815      1.725     40.692     44.328
   1266.625    405.066     23.623   -999.250    493.038      6.006      1.696      1.734      1.564      2.516      3.710      1.495      1.898      1.690     41.425     44.944
   1266.750    406.167     23.865   -999.250    489.241      6.108      2.295      2.436      1.571      2.543      3.826      1.521      1.969      1.725     41.946     45.288
   1266.875    409.471     24.020   -999.250    487.342      6.523      1.544      1.975      1.659      2.602      3.942      1.590      1.966      1.760     42.653     46.063
   1267.000    422.687     24.062   -999.250    487.975      6.495      1.177      1.544      1.751      2.646      4.051      1.701      1.957      1.833     43.390     46.728
   1267.125    431.498     23.792   -999.250    485.443      6.527      2.500      2.064      1.879      2.734      3.942      1.833      1.949      1.881     44.093     47.503
   1267.250    442.144     23.771   -999.250    465.823      6.774      2.103      2.256      1.901      2.815      3.826      1.852      1.949      1.939     44.822     48.327
   1267.375    454.258     23.985   -999.250    450.000      6.528      0.744      1.304      1.880      2.821      3.681      1.852      2.147      1.979     45.546     49.105
   1267.500    468.576     24.307   -999.250    416.234      5.999      1.076      0.962      1.571      2.670      3.507      1.549      2.283      2.030     46.427     49.444
   1267.625    472.247     24.679   -999.250    409.740      6.245      1.759      1.468      1.354      2.567      3.536      1.335      2.318      1.871     47.291     50.708
   1267.750    473.348     25.213   -999.250    411.039      6.288      0.846      1.633      1.318      2.517      3.681      1.271      2.294      1.862     48.043     51.520
   1267.875    465.272     26.691   -999.250    414.286      5.732      1.924      1.937      1.410      2.516      3.826      1.342      2.271      1.852     48.842     51.991
   1268.000    456.461     27.530   -999.250    418.182      6.200      0.910      0.897      1.573      2.542      4.000      1.558      2.251      1.881     49.343     52.636
   1268.125    449.119     27.489   -999.250    419.481      6.093      1.278      1.797      1.665      2.618      4.076      1.614      2.225      2.051     49.785     52.796
   1268.250    445.448     26.324   -999.250    419.481      5.893      1.810      1.114      1.717      2.720      4.101      1.644      2.237      2.225     49.938     52.953
   1268.375    445.448     26.082   -999.250    418.182      5.841      1.810      1.747      1.711      2.746      4.076      1.656      2.256      2.248     50.354     52.960
   1268.500    449.853     26.036   -999.250    418.182      5.807      0.897      0.910      1.670      2.797      4.025      1.622      2.271      2.248     50.612     53.109
   1268.625    457.930     26.189   -999.250    421.429      6.341      1.215      1.392      1.558      2.849      3.971      1.511      2.248      2.225     50.609     53.124
   1268.750    466.373     26.149   -999.250    429.221      6.826      1.671      1.658      1.462      2.847      3.942      1.393      2.248      2.225     50.444     53.107
   1268.875    471.512     25.310   -999.250    440.260      6.700      1.114      1.114      1.438      2.773      3.971      1.378      2.203      2.115     50.209     53.127
   1269.000    474.633     24.167   -999.250    447.403      6.316      1.899      1.873      1.459      2.694      4.025      1.407      2.165      2.010     49.947     53.106
   1269.125    476.652     23.763   -999.250    458.228      5.731      1.430      1.418      1.469      2.569      4.000      1.378      2.112      1.989     49.709     52.809
   1269.250    476.285     23.525   -999.250    468.354      5.973      1.532      1.519      1.518      2.491      4.000      1.495      2.060      1.949     49.338     52.626
   1269.375    473.663     23.363   -999.250    477.848      6.272      2.038      2.051      1.585      2.492      3.971      1.527      2.007      1.949     49.215     52.330
   1269.500    472.308     23.258   -999.250    486.076      5.916      1.177      1.722      1.591      2.516      3.942      1.558      1.949      1.949     49.021     51.987
   1269.625    471.880     23.267   -999.250    488.608      6.557      1.241      1.228      1.591      2.543      3.942      1.548      1.949      1.949     48.520     51.531
   1269.750    471.880     23.194   -999.250    484.177      6.481      1.367      1.253      1.587      2.567      3.826      1.526      1.949      1.929     48.240     51.348
   1269.875    471.145     23.165   -999.250    478.481      6.305      1.304      1.291      1.561      2.619      3.768      1.495      2.010      1.910     48.041     50.890
   1270.000    464.905     23.238   -999.250    469.620      6.265      1.266      1.304      1.564      2.644      3.826      1.511      2.041      1.910     47.604     50.550
   1270.125    460.866     23.236   -999.250    462.658      5.892      1.304      1.316      1.512      2.593      3.884      1.465      2.072      1.910     47.166     50.408
