~Version Information Block
 VERS.                2.00:     CWLS LOG ASCII STANDARD - VERSION 2.000000
 WRAP.                  NO:     One Line Per Depth Step
#
~Well Information Block
#MNEM.UNIT                     Data                         Information
#----------   ------------------------------------------   ----------------
 STRT.M                                        189.625:
 STOP.M                                       2185.000:
 STEP.M                                          0.125:
 NULL.                                        -999.250:
 COMP.                                   ²â¾®Êý¾Ý¿âµ¼³ö:     COMPANY 
 WELL.                                         ¹ÂÄÏ152-4:     Well 
 FLD .                                                :     Field 
 LOC .                                                :     LOCATION
 CNTY.                                                :     COUNTY
 STAT.                                                :     STATE
 CTRY.                                                :     COUNTRY
 SRVC.                                                :     SERVICE COMPANY
 DATE.                                                :     DATE
 API .                                                :     API NUMBER
#
~Curve Information Block
#MNEM.UNIT       API CODE      Curve Description
#----------    -------------   -------------------
 DEPT.M                    :   Depth in Meters
 AC  .Î¢Ãë/Ã×                      :   AC
 CAL .ÀåÃ×                      :   CAL
 CAL .ÀåÃ×                      :   CAL
 COND.mS/m                      :   COND
 GR  .Î¢ÂØÇÙ/Ð¡Ê±                      :   GR
 RLML.Å·Ä·Ã×                      :   RLML
 RNML.Å·Ä·Ã×                      :   RNML
 R04 .Å·Ä·Ã×                      :   R04
 R25 .Å·Ä·Ã×                      :   R25
 R25 .Å·Ä·Ã×                      :   R25
 R4  .Å·Ä·Ã×                      :   R4
 SP  .ºÁ·ü                      :   SP
 SP  .ºÁ·ü                      :   SP
#
~A  DEPTH          AC        CAL        CAL       COND         GR       RLML       RNML        R04        R25        R25         R4         SP         SP
# ...
   1281.625    530.829     17.872   -999.250    614.492      8.837      1.277      1.170      1.542      1.798      1.927      2.011    166.731    135.323
   1281.750    529.827     17.767   -999.250    605.985      8.339      1.185      1.229      1.588      1.847      1.973      2.037    166.699    135.309
   1281.875    526.366     18.138   -999.250    598.061      8.121      1.092      1.079      1.639      1.925      1.990      2.076    166.667    135.322
   1282.000    522.879     18.746   -999.250    589.833      8.125      1.316      1.227      1.691      2.050      2.036      2.117    166.635    135.310
   1282.125    516.166     19.354   -999.250    582.367      8.345      1.099      1.144      1.742      2.154      2.080      2.157    166.602    135.214
   1282.250    505.965     19.675   -999.250    576.310      8.054      1.187      1.195      1.793      2.253      2.124      2.193    166.570    135.152
   1282.375    490.027     19.599   -999.250    569.299      8.579      1.134      1.167      1.844      2.333      2.177      2.248    166.537    135.161
   1282.500    476.639     20.050   -999.250    562.925      8.216      1.355      1.228      1.892      2.405      2.240      2.317    166.502    135.152
   1282.625    463.478     20.614   -999.250    557.076      8.366      1.304      1.258      1.936      2.434      2.381      2.399    166.480    135.161
   1282.750    450.807     21.158   -999.250    551.227      8.704      1.289      1.280      1.979      2.502      2.463      2.476    166.308    135.152
   1282.875    438.137     21.696   -999.250    545.378      9.045      1.399      1.374      2.022      2.563      2.547      2.555    166.335    135.161
   1283.000    436.157     21.892   -999.250    542.847      9.079      1.563      1.448      2.067      2.609      2.616      2.626    166.160    135.152
   1283.125    447.509     21.697   -999.250    544.441      9.027      1.322      1.339      2.079      2.536      2.592      2.581    166.166    135.161
   1283.250    463.614     21.542   -999.250    551.970      9.309      1.455      1.406      2.080      2.455      2.484      2.511    165.987    135.152
   1283.375    477.914     21.707   -999.250    558.961      8.911      1.437      1.329      2.077      2.380      2.377      2.442    166.001    135.001
   1283.500    489.299     21.764   -999.250    566.749      9.681      1.300      1.267      2.028      2.300      2.288      2.372    166.004    135.152
   1283.625    498.179     21.277   -999.250    575.035      9.508      1.398      1.314      1.978      2.224      2.236      2.302    166.003    135.160
   1283.750    501.434     20.772   -999.250    582.684      9.280      1.428      1.359      1.926      2.144      2.213      2.234    166.003    135.153
   1283.875    500.990     20.785   -999.250    590.970      9.083      1.499      1.316      1.875      2.068      2.162      2.168    166.003    135.159
   1284.000    502.459     20.773   -999.250    599.575      9.263      1.336      1.228      1.825      2.025      2.130      2.102    166.003    135.154
   1284.125    510.385     20.374   -999.250    608.180      9.360      1.290      1.182      1.771      2.026      2.125      2.069    166.003    135.158
   1284.250    518.861     19.721   -999.250    615.191      9.203      1.372      1.242      1.761      2.053      2.119      2.071    166.003    135.156
   1284.375    526.366     19.054   -999.250    622.203      9.433      1.291      1.172      1.743      2.083      2.114      2.043    166.005    135.156
   1284.500    530.829     18.708   -999.250    629.214      9.298      1.249      1.194      1.726      2.080      2.108      2.047    166.006    135.157
   1284.625    533.379     18.727   -999.250    634.950      9.581      1.105      1.029      1.703      2.018      2.088      1.988    165.972    135.155
   1284.750    534.016     18.784   -999.250    640.050      9.341      1.088      1.123      1.678      1.957      2.045      1.939    165.851    135.159
   1284.875    534.016     18.577   -999.250    643.874      9.560      1.265      1.261      1.654      1.893      2.002      1.884    165.844    135.154
   1285.000    535.610     17.773   -999.250    648.336      8.962      1.315      1.134      1.630      1.849      1.959      1.846    165.843    135.160
   1285.125    538.479     16.914   -999.250    650.248      8.503      1.188      1.222      1.606      1.770      1.915      1.807    165.844    135.312
   1285.250    542.304     16.252   -999.250    650.885      8.031      1.247      1.244      1.581      1.747      1.876      1.757    165.844    135.320
   1285.375    545.492     15.914   -999.250    651.498      7.504      1.304      1.152      1.557      1.795      1.847      1.735    165.844    135.152
   1285.500    544.854     16.099   -999.250    652.080      7.850      1.193      1.266      1.533      1.824      1.848      1.681    165.844    135.161
   1285.625    542.650     16.414   -999.250    652.663      7.497      1.376      1.182      1.515      1.922      1.872      1.635    165.844    135.312
   1285.750    539.876     16.731   -999.250    652.797      8.139      1.444      1.163      1.508      1.925      1.899      1.608    165.844    135.160
   1285.875    537.102     17.054   -999.250    650.885      7.823      1.307      1.217      1.500      1.973      1.927      1.618    165.844    135.313
   1286.000    534.329     17.374   -999.250    648.973      8.065      1.393      1.269      1.493      1.986      1.955      1.656    165.844    135.319
   1286.125    531.555     17.433   -999.250    645.540      7.910      1.344      1.128      1.502      2.004      1.982      1.660    165.844    135.314
   1286.250    529.115     17.467   -999.250    641.169      8.227      1.299      1.128      1.512      2.028      2.003      1.686    165.844    135.317
   1286.375    527.004     17.931   -999.250    636.798      8.563      1.283      1.266      1.523      2.050      2.003      1.713    165.844    135.315
   1286.500    525.423     18.297   -999.250    632.427      8.783      1.292      1.113      1.533      2.052      2.002      1.738    165.844    135.475
   1286.625    523.587     17.963   -999.250    629.214      8.191      1.354      1.115      1.542      2.025      1.998      1.791    165.844    135.476
   1286.750    522.541     18.036   -999.250    625.390      8.307      1.340      1.191      1.575      2.011      1.988      1.835    165.840    135.633
   1286.875    523.179     18.505   -999.250    623.124      8.104      1.335      1.231      1.613      1.989      1.978      1.840    165.840    135.636
   1287.000    526.047     18.446   -999.250    620.928      7.887      1.399      1.155      1.637      1.969      1.968      1.863    165.961    135.633
   1287.125    528.802     17.948   -999.250    620.928      8.172      1.342      1.197      1.664      1.949      1.958      1.867    166.005    135.796
   1287.250    531.556     17.490   -999.250    621.565      8.529      1.268      1.242      1.691      1.928      1.951      1.866    166.011    135.792
   1287.375    532.741     17.384   -999.250    622.312      8.224      1.308      1.218      1.718      1.908      1.952      1.866    165.972    135.796
   1287.500    531.998     17.473   -999.250    622.974      8.086      1.365      1.181      1.747      1.872      1.952      1.859    166.035    135.951
   1287.625    530.191     18.204   -999.250    623.637      7.928      1.291      1.144      1.719      1.847      1.952      1.854    166.071    135.955
   1287.750    527.851     18.997   -999.250    624.299      7.858      1.360      1.127      1.698      1.847      1.952      1.864    166.126    135.951
   1287.875    525.848     19.567   -999.250    624.752      8.233      1.377      1.138      1.674      1.848      1.951      1.893    166.184    135.954
   1288.000    524.454     19.174   -999.250    624.115      8.629      1.374      1.153      1.659      1.872      1.923      1.890    166.242    135.952
