~Version Information Block
 VERS.                2.00:     CWLS LOG ASCII STANDARD - VERSION 2.000000
 WRAP.                  NO:     One Line Per Depth Step
#
~Well Information Block
#MNEM.UNIT                     Data                         Information
#----------   ------------------------------------------   ----------------
 STRT.M                                        110.000:
 STOP.M                                       2506.000:
 STEP.M                                          0.125:
 NULL.                                        -999.250:
 COMP.                                   测井数据库导出:     COMPANY 
 WELL.                                         孤南152-9:     Well 
 FLD .                                                :     Field 
 LOC .                                                :     LOCATION
 CNTY.                                                :     COUNTY
 STAT.                                                :     STATE
 CTRY.                                                :     COUNTRY
 SRVC.                                                :     SERVICE COMPANY
 DATE.                                                :     DATE
 API .                                                :     API NUMBER
#
~Curve Information Block
#MNEM.UNIT       API CODE      Curve Description
#----------    -------------   -------------------
 DEPT.M                    :   Depth in Meters
 AC  .微秒/米                      :   AC
 CAL .厘米                      :   CAL
 COND.毫西门子/米                      :   COND
 GR  .API                      :   GR
 R25 .欧姆米                      :   R25
 R4  .欧姆米                      :   R4
 RFOC.欧姆米                      :   RFOC
 RILD.欧姆米                      :   RILD
 RILM.欧姆米                      :   RILM
 RLML.欧姆米                      :   RLML
 RNML.欧姆米                      :   RNML
 SP  .毫伏                      :   SP
#
~A  DEPTH          AC        CAL       COND         GR        R25         R4       RFOC       RILD       RILM       RLML       RNML         SP
# ...
   1685.000    354.000     22.400    815.772     68.800      1.640      1.640      1.662      1.226      1.357      1.020      1.100    -31.500
   1685.125    353.000     23.400    815.772     65.600      1.640      1.640      1.662      1.226      1.357      0.580      0.800    -32.250
   1685.250    354.000     24.000    827.690     60.000      1.600      1.640      1.638      1.208      1.337      0.540      0.720    -33.000
   1685.375    355.000     24.100    852.053     55.600      1.560      1.640      1.592      1.174      1.318      0.540      0.700    -33.750
   1685.500    355.000     23.900    864.501     54.800      1.480      1.560      1.524      1.157      1.262      0.540      0.700    -34.750
   1685.625    357.000     23.700    877.132     56.400      1.440      1.520      1.438      1.140      1.208      0.560      0.700    -35.500
   1685.750    359.000     23.700    889.947     57.200      1.360      1.520      1.397      1.124      1.174      0.560      0.700    -35.750
   1685.875    363.000     23.700    916.141     57.600      1.320      1.440      1.397      1.092      1.124      0.540      0.700    -36.000
   1686.000    366.000     23.900    943.106     58.800      1.240      1.360      1.438      1.060      1.092      0.540      0.700    -36.250
   1686.125    366.000     23.800    956.885     61.200      1.240      1.360      1.459      1.045      1.045      0.560      0.700    -36.500
   1686.250    364.000     23.600    970.866     63.600      1.200      1.360      1.397      1.030      1.015      0.580      0.700    -37.000
   1686.375    361.000     23.800    970.866     64.400      1.240      1.280      1.337      1.030      0.986      0.580      0.720    -37.500
   1686.500    361.000     24.000    970.866     64.400      1.080      1.280      1.280      1.030      0.972      0.580      0.720    -37.500
   1686.625    364.000     24.200    970.866     64.400      1.080      1.200      1.262      1.030      0.972      0.580      0.720    -38.000
   1686.750    366.000     24.300    943.106     64.000      1.040      1.200      1.262      1.060      0.986      0.560      0.720    -37.500
   1686.875    369.000     24.300    943.106     62.400      1.040      1.200      1.337      1.060      1.015      0.560      0.760    -37.250
   1687.000    371.000     24.300    916.141     61.600      1.040      1.280      1.397      1.092      1.015      0.580      0.780    -36.250
   1687.125    372.000     24.300    889.947     59.600      1.080      1.360      1.397      1.124      1.060      0.600      0.780    -35.250
   1687.250    372.000     24.400    864.501     58.000      1.080      1.440      1.397      1.157      1.107      0.620      0.860    -34.250
   1687.375    377.000     24.600    852.053     57.200      1.160      1.520      1.480      1.174      1.157      0.660      0.880    -33.000
   1687.500    382.000     25.100    839.783     57.200      1.200      1.560      1.569      1.191      1.174      0.680      0.880    -31.750
   1687.625    386.000     25.600    827.690     58.000      1.240      1.640      1.615      1.208      1.191      0.560      0.780    -29.500
   1687.750    390.000     26.200    827.690     58.800      1.280      1.720      1.638      1.208      1.174      0.540      0.760    -27.250
   1687.875    399.000     26.600    815.772     61.600      1.280      1.720      1.687      1.226      1.140      0.660      0.860    -23.750
   1688.000    410.000     27.000    804.025     65.200      1.240      1.720      1.546      1.244      1.092      0.580      0.760    -20.000
   1688.125    421.000     28.400    781.036     72.000      1.200      1.720      1.174      1.280      1.076      0.460      0.520    -15.750
   1688.250    436.000     30.700    781.036     76.800      1.080      1.560      0.986      1.280      1.076      0.420      0.460    -12.500
   1688.375    460.000     28.200    769.789     76.800      1.080      1.440      1.001      1.299      1.124      0.480      0.560     -9.750
   1688.500    486.000     24.300    769.789     73.600      1.040      1.440      1.157      1.299      1.157      0.540      0.620     -8.000
   1688.625    499.000     23.300    758.705     73.200      1.040      1.440      1.318      1.318      1.174      0.560      0.640     -7.250
   1688.750    497.000     22.700    758.705     76.800      1.080      1.560      1.337      1.318      1.191      0.540      0.640     -6.500
   1688.875    489.000     21.800    747.779     81.600      1.160      1.640      1.337      1.337      1.191      0.600      0.680     -5.750
   1689.000    480.000     22.000    747.779     84.800      1.160      1.640      1.337      1.337      1.191      0.680      0.640     -5.250
   1689.125    475.000     23.000    726.399     88.000      1.240      1.760      1.337      1.377      1.191      0.600      0.620     -5.000
   1689.250    471.000     23.000    726.399     93.600      1.240      1.760      1.299      1.377      1.191      0.540      0.620     -4.750
   1689.375    473.000     23.200    726.399     97.200      1.240      1.760      1.244      1.377      1.174      0.600      0.620     -4.750
   1689.500    482.000     22.400    726.399     96.400      1.240      1.720      1.208      1.377      1.174      0.640      0.640     -4.500
   1689.625    495.000     21.900    726.399     92.000      1.240      1.640      1.244      1.377      1.157      0.620      0.640     -4.500
   1689.750    506.000     21.700    747.779     86.400      1.240      1.640      1.262      1.337      1.157      0.680      0.660     -4.500
   1689.875    511.000     21.700    758.705     83.600      1.240      1.560      1.262      1.318      1.140      0.660      0.660     -4.500
   1690.000    511.000     21.600    769.789     84.800      1.280      1.560      1.280      1.299      1.124      0.720      0.660     -4.500
   1690.125    509.000     21.100    769.789     86.000      1.280      1.520      1.280      1.299      1.092      0.740      0.680     -4.250
   1690.250    508.000     21.100    781.036     86.000      1.320      1.520      1.280      1.280      1.076      0.700      0.660     -4.250
   1690.375    508.000     20.900    792.447     84.400      1.360      1.520      1.280      1.262      1.060      0.680      0.660     -4.250
   1690.500    508.000     20.600    804.025     82.800      1.360      1.520      1.244      1.244      1.045      0.700      0.640     -4.250
   1690.625    508.000     20.500    804.025     81.600      1.360      1.440      1.208      1.244      1.015      0.700      0.620     -4.250
   1690.750    510.000     20.700    815.772     80.800      1.360      1.440      1.174      1.226      1.015      0.660      0.600     -3.750
   1690.875    512.000     21.100    815.772     78.800      1.360      1.440      1.191      1.226      1.015      0.620      0.580     -3.750
   1691.000    513.000     21.000    815.772     76.800      1.320      1.440      1.191      1.226      1.015      0.660      0.600     -3.250
   1691.125    514.000     20.400    815.772     76.000      1.360      1.360      1.208      1.226      1.015      0.680      0.620     -3.250
   1691.250    515.000     20.600    804.025     76.000      1.360      1.360      1.208      1.244      1.015      0.700      0.620     -3.500
   1691.375    513.000     20.200    792.447     76.400      1.360      1.440      1.226      1.262      1.045      0.660      0.620     -3.500
   1691.500    510.000     19.700    769.789     77.200      1.320      1.520      1.226      1.299      1.060      0.600      0.640     -3.500
   1691.625    507.000     19.600    758.705     79.200      1.360      1.520      1.244      1.318      1.107      0.660      0.660     -3.500
   1691.750    505.000     19.700    737.012     80.000      1.560      1.560      1.244      1.357      1.157      0.660      0.680     -3.750
   1691.875    500.000     20.300    705.629     80.000      1.560      1.640      1.280      1.417      1.208      0.700      0.740     -4.000
