~Version Information Block
 VERS.                2.00:     CWLS LOG ASCII STANDARD - VERSION 2.000000
 WRAP.                  NO:     One Line Per Depth Step
#
~Well Information Block
#MNEM.UNIT                     Data                         Information
#----------   ------------------------------------------   ----------------
 STRT.M                                        110.000:
 STOP.M                                       2506.000:
 STEP.M                                          0.125:
 NULL.                                        -999.250:
 COMP.                                   测井数据库导出:     COMPANY 
 WELL.                                         孤南152-9:     Well 
 FLD .                                                :     Field 
 LOC .                                                :     LOCATION
 CNTY.                                                :     COUNTY
 STAT.                                                :     STATE
 CTRY.                                                :     COUNTRY
 SRVC.                                                :     SERVICE COMPANY
 DATE.                                                :     DATE
 API .                                                :     API NUMBER
#
~Curve Information Block
#MNEM.UNIT       API CODE      Curve Description
#----------    -------------   -------------------
 DEPT.M                    :   Depth in Meters
 AC  .微秒/米                      :   AC
 CAL .厘米                      :   CAL
 COND.毫西门子/米                      :   COND
 GR  .API                      :   GR
 R25 .欧姆米                      :   R25
 R4  .欧姆米                      :   R4
 RFOC.欧姆米                      :   RFOC
 RILD.欧姆米                      :   RILD
 RILM.欧姆米                      :   RILM
 RLML.欧姆米                      :   RLML
 RNML.欧姆米                      :   RNML
 SP  .毫伏                      :   SP
#
~A  DEPTH          AC        CAL       COND         GR        R25         R4       RFOC       RILD       RILM       RLML       RNML         SP
# ...
    873.000    523.000     34.500    327.128     66.400      4.160      4.800      2.424      3.057      3.147      0.860      1.040    -12.500
    873.125    525.000     29.200    327.128     66.000      4.160      4.800      2.424      3.057      3.102      1.060      1.040    -12.500
    873.250    527.000     27.100    331.908     69.200      4.200      4.800      2.424      3.013      3.102      1.000      1.040    -12.500
    873.375    529.000     26.800    336.757     74.000      4.200      4.720      2.389      2.970      3.057      1.000      1.020    -12.500
    873.500    533.000     26.300    341.677     75.200      4.280      4.800      2.424      2.927      3.057      0.940      0.960    -12.000
    873.625    537.000     26.400    346.669     75.200      4.360      4.840      2.424      2.885      3.013      0.780      0.880    -12.000
    873.750    539.000     27.500    351.734     74.000      4.440      4.920      2.424      2.843      2.970      0.640      0.780    -12.000
    873.875    541.000     28.700    362.087     74.800      4.520      5.080      2.389      2.762      2.843      0.680      0.860    -12.000
    874.000    541.000     26.600    362.087     77.600      4.520      5.120      2.254      2.762      2.762      0.720      0.900    -12.000
    874.125    541.000     24.300    367.377     80.000      4.480      5.120      2.222      2.722      2.722      0.780      0.940    -12.000
    874.250    543.000     24.100    372.744     81.600      4.360      5.080      2.287      2.683      2.644      0.900      1.040    -12.250
    874.375    544.000     24.100    383.716     82.000      4.200      5.000      2.287      2.606      2.532      1.040      1.080    -12.000
    874.500    545.000     24.600    389.322     82.000      4.120      4.840      2.190      2.569      2.459      0.980      1.040    -12.000
    874.625    547.000     25.100    400.781     81.600      4.000      4.640      2.066      2.495      2.389      1.000      0.960    -12.000
    874.750    550.000     25.500    412.578     80.800      3.920      4.520      2.066      2.424      2.354      0.960      0.920    -12.000
    874.875    550.000     24.900    424.721     79.200      3.840      4.360      2.158      2.354      2.287      0.680      0.860    -12.250
    875.000    550.000     24.900    443.610     78.400      3.720      4.240      2.190      2.254      2.190      0.700      0.880    -12.500
    875.125    552.000     25.900    456.667     77.200      3.720      4.160      2.222      2.190      2.066      0.900      0.960    -12.500
    875.250    559.000     26.600    470.109     77.200      3.720      4.080      2.158      2.127      1.922      0.960      0.960    -12.500
    875.375    572.000     26.600    483.946     77.600      3.560      4.080      1.978      2.066      1.813      0.920      0.880    -12.500
    875.500    586.000     27.100    491.016     78.400      3.360      3.880      1.840      2.037      1.736      0.760      0.780    -12.250
    875.625    598.000     26.300    491.016     78.400      3.240      3.680      1.736      2.037      1.711      0.620      0.720    -12.000
    875.750    602.000     25.400    491.016     76.400      3.120      3.480      1.736      2.037      1.736      0.580      0.680    -11.750
    875.875    600.000     25.400    491.016     71.200      3.040      3.400      1.762      2.037      1.787      0.600      0.740    -11.500
    876.000    594.000     25.600    491.016     67.600      3.000      3.360      1.840      2.037      1.813      0.640      0.840    -11.750
    876.125    588.000     24.900    491.016     66.400      3.040      3.360      1.950      2.037      1.894      0.640      0.860    -11.750
    876.250    579.000     23.900    476.977     66.800      3.160      3.560      2.097      2.097      1.922      0.640      0.860    -12.000
    876.375    571.000     23.400    470.109     67.600      3.200      3.600      2.190      2.127      1.978      0.620      0.820    -11.750
    876.500    563.000     23.800    456.667     68.000      3.280      3.760      2.158      2.190      2.007      0.640      0.820    -11.750
    876.625    558.000     24.500    443.610     69.200      3.360      3.880      2.066      2.254      2.066      0.680      0.840    -11.750
    876.750    551.000     25.200    430.926     70.000      3.360      3.960      2.007      2.321      2.097      0.720      0.940    -11.750
    876.875    545.000     25.200    424.721     71.200      3.360      3.960      2.007      2.354      2.158      0.780      0.920    -12.000
    877.000    546.000     25.400    424.721     71.200      3.440      3.960      2.037      2.354      2.190      0.800      0.920    -12.250
    877.125    550.000     25.400    430.926     71.200      3.440      4.080      2.097      2.321      2.158      0.800      0.920    -12.250
    877.250    555.000     24.500    437.222     70.400      3.440      4.240      2.158      2.287      2.158      0.780      0.960    -12.000
    877.375    558.000     24.400    450.092     69.600      3.440      4.240      2.127      2.222      2.097      0.760      0.900    -12.000
    877.500    561.000     24.800    456.667     69.600      3.360      4.240      2.066      2.190      2.007      0.680      0.860    -12.000
    877.625    564.000     25.200    463.339     71.600      3.320      4.240      1.978      2.158      1.978      0.680      0.880    -12.000
    877.750    567.000     24.600    470.109     75.600      3.240      4.240      1.950      2.127      1.922      0.760      0.900    -12.000
    877.875    570.000     24.200    470.109     79.600      3.160      4.080      1.922      2.127      1.894      0.780      0.820    -12.000
    878.000    573.000     24.400    470.109     79.600      3.040      3.960      1.894      2.127      1.867      0.660      0.700    -12.000
    878.125    577.000     25.000    463.339     76.800      2.960      3.960      1.894      2.158      1.894      0.620      0.740    -12.250
    878.250    579.000     25.700    463.339     75.600      2.880      3.960      1.894      2.158      1.894      0.600      0.760    -12.250
    878.375    578.000     25.900    450.092     75.600      2.840      3.880      1.894      2.222      1.978      0.720      0.820    -12.250
    878.500    577.000     25.700    443.610     74.000      2.920      4.040      1.922      2.254      2.037      0.860      0.800    -12.000
    878.625    575.000     24.900    443.610     73.200      3.000      4.280      2.037      2.254      2.158      0.740      0.760    -12.000
    878.750    573.000     24.400    443.610     76.400      3.160      4.560      2.158      2.254      2.158      0.660      0.820    -12.250
    878.875    568.000     25.100    450.092     80.000      3.440      5.000      2.287      2.222      2.158      0.680      0.860    -12.500
    879.000    561.000     25.100    456.667     78.400      3.720      5.080      2.321      2.190      2.097      0.640      0.860    -12.500
    879.125    552.000     24.900    456.667     72.000      3.800      5.120      2.190      2.190      1.978      0.600      0.780    -13.000
    879.250    547.000     24.500    470.109     68.000      3.800      4.920      1.950      2.127      1.894      0.580      0.700    -13.000
    879.375    551.000     25.700    476.977     69.200      3.640      4.520      1.787      2.097      1.813      0.680      0.700    -13.000
    879.500    557.000     27.000    491.016     74.000      3.320      4.080      1.762      2.037      1.736      0.820      0.760    -12.750
    879.625    560.000     27.500    505.469     78.400      3.080      3.680      1.762      1.978      1.711      0.820      0.800    -12.500
    879.750    560.000     27.300    520.347     81.600      2.840      3.480      1.787      1.922      1.687      0.820      0.800    -12.000
    879.875    559.000     26.300    527.949     83.600      2.680      3.360      1.787      1.894      1.638      0.780      0.780    -11.250
