~Version Information Block
 VERS.                2.00:     CWLS LOG ASCII STANDARD - VERSION 2.000000
 WRAP.                  NO:     One Line Per Depth Step
#
~Well Information Block
#MNEM.UNIT                     Data                         Information
#----------   ------------------------------------------   ----------------
 STRT.M                                        189.625:
 STOP.M                                       2185.000:
 STEP.M                                          0.125:
 NULL.                                        -999.250:
 COMP.                                   ²â¾®Êý¾Ý¿âµ¼³ö:     COMPANY 
 WELL.                                         ¹ÂÄÏ152-4:     Well 
 FLD .                                                :     Field 
 LOC .                                                :     LOCATION
 CNTY.                                                :     COUNTY
 STAT.                                                :     STATE
 CTRY.                                                :     COUNTRY
 SRVC.                                                :     SERVICE COMPANY
 DATE.                                                :     DATE
 API .                                                :     API NUMBER
#
~Curve Information Block
#MNEM.UNIT       API CODE      Curve Description
#----------    -------------   -------------------
 DEPT.M                    :   Depth in Meters
 AC  .Î¢Ãë/Ã×                      :   AC
 CAL .ÀåÃ×                      :   CAL
 CAL .ÀåÃ×                      :   CAL
 COND.mS/m                      :   COND
 GR  .Î¢ÂØÇÙ/Ð¡Ê±                      :   GR
 RLML.Å·Ä·Ã×                      :   RLML
 RNML.Å·Ä·Ã×                      :   RNML
 R04 .Å·Ä·Ã×                      :   R04
 R25 .Å·Ä·Ã×                      :   R25
 R25 .Å·Ä·Ã×                      :   R25
 R4  .Å·Ä·Ã×                      :   R4
 SP  .ºÁ·ü                      :   SP
 SP  .ºÁ·ü                      :   SP
#
~A  DEPTH          AC        CAL        CAL       COND         GR       RLML       RNML        R04        R25        R25         R4         SP         SP
# ...
    612.125    480.464     24.517   -999.250    317.918      5.316      3.149      3.265      4.648      5.712      5.531      5.511    157.634    127.819
    612.250    456.876     24.074   -999.250    324.738      5.694      3.398      3.245      4.581      5.412      5.316      5.137    157.597    127.826
    612.375    435.838     24.121   -999.250    330.914      6.188      2.822      2.933      4.388      5.387      5.265      5.097    157.566    127.819
    612.500    427.052     24.247   -999.250    337.288      5.786      2.279      2.671      4.203      5.387      5.313      5.134    157.616    127.666
    612.625    422.450     24.363   -999.250    345.574      5.974      2.564      2.533      4.018      5.450      5.344      5.144    157.667    127.661
    612.750    438.456     24.393   -999.250    350.673      6.487      3.104      2.804      3.813      5.488      5.291      5.035    157.717    127.665
    612.875    461.976     25.136   -999.250    355.772      6.137      2.719      2.878      3.647      5.324      5.239      4.919    157.767    127.663
    613.000    498.953     28.565   -999.250    360.234      6.077      1.266      2.044      3.493      5.182      5.049      4.766    157.817    127.664
    613.125    528.279     29.168   -999.250    366.608      6.350      1.489      1.346      3.228      4.929      4.815      4.539    157.867    127.664
    613.250    557.226     27.040   -999.250    370.432      5.842      1.294      1.801      3.123      4.698      4.584      4.346    157.917    127.662
    613.375    568.443     25.197   -999.250    372.344      6.372      1.764      1.711      3.164      4.522      4.427      4.170    157.967    127.666
    613.500    556.071     25.058   -999.250    374.256      6.296      2.013      1.625      3.211      4.266      4.206      4.094    158.017    127.661
    613.625    547.404     26.759   -999.250    375.531      6.241      1.278      1.692      3.256      4.014      4.009      3.966    158.067    127.667
    613.750    546.767     28.831   -999.250    377.443      5.870      1.697      1.392      3.303      3.911      3.966      3.873    158.117    127.819
    613.875    555.055     30.973   -999.250    379.356      5.419      1.165      1.377      3.178      3.912      4.049      3.933    158.167    127.826
    614.000    561.430     31.541   -999.250    382.224      5.547      1.366      1.563      3.029      4.050      4.151      4.163    158.217    127.978
    614.125    570.458     29.429   -999.250    387.642      5.888      2.269      1.690      2.891      4.193      4.254      4.393    158.267    128.019
    614.250    575.342     27.458   -999.250    395.290      5.951      2.013      1.500      2.790      4.336      4.347      4.444    158.317    128.090
    614.375    572.480     25.788   -999.250    401.027      6.211      1.049      1.289      2.729      4.497      4.353      4.282    158.367    128.174
    614.500    565.893     26.364   -999.250    405.489      6.451      1.382      1.415      2.665      4.471      4.268      4.106    158.417    128.245
    614.625    561.794     26.709   -999.250    409.313      7.015      1.275      1.404      2.595      4.262      4.153      3.843    158.467    128.328
    614.750    558.880     25.164   -999.250    411.225      6.926      1.367      1.337      2.539      4.014      3.858      3.529    158.512    128.401
    614.875    565.991     25.986   -999.250    413.137      6.727      1.609      1.387      2.513      3.765      3.593      3.331    158.507    128.482
    615.000    573.487     27.271   -999.250    412.500      6.571      1.189      1.585      2.513      3.518      3.383      3.124    158.503    128.556
    615.125    580.982     29.330   -999.250    410.588      6.009      1.401      1.292      2.530      3.376      3.229      2.916    158.689    128.620
    615.250    586.931     29.721   -999.250    406.763      5.400      1.488      1.374      2.564      3.275      3.198      2.831    158.686    128.617
    615.375    583.743     27.976   -999.250    401.664      5.532      1.324      1.495      2.585      3.249      3.201      2.829    158.693    128.620
    615.500    577.368     26.488   -999.250    397.840      4.778      1.467      1.405      2.559      3.275      3.199      2.882    158.694    128.617
    615.625    569.718     25.161   -999.250    393.378      4.897      1.693      1.524      2.544      3.300      3.237      2.952    158.683    128.620
    615.750    560.155     25.317   -999.250    388.279      5.217      1.430      1.450      2.530      3.351      3.270      2.993    158.678    128.617
    615.875    553.780     26.119   -999.250    383.180      4.974      1.729      1.407      2.516      3.376      3.304      3.058    158.678    128.620
    616.000    546.129     26.930   -999.250    379.993      4.657      1.581      1.493      2.503      3.402      3.336      3.113    158.678    128.617
    616.125    543.300     27.759   -999.250    376.169      4.450      1.502      1.484      2.489      3.428      3.369      3.165    158.680    128.621
    616.250    546.108     28.572   -999.250    374.256      4.417      1.489      1.459      2.475      3.453      3.399      3.251    158.695    128.617
    616.375    552.689     29.942   -999.250    373.619      4.414      1.500      1.461      2.463      3.479      3.431      3.330    158.517    128.462
    616.500    558.880     31.117   -999.250    372.982      4.509      1.509      1.468      2.488      3.479      3.431      3.407    158.512    128.458
    616.625    562.067     32.012   -999.250    371.707      4.742      1.485      1.451      2.514      3.453      3.395      3.438    158.422    128.462
    616.750    567.168     32.671   -999.250    369.795      4.966      1.383      1.425      2.539      3.403      3.358      3.400    158.509    128.458
    616.875    572.905     33.500   -999.250    367.882      4.596      1.306      1.408      2.563      3.351      3.321      3.332    158.518    128.461
    617.000    581.193     34.351   -999.250    364.695      4.423      1.401      1.407      2.579      3.301      3.283      3.265    158.512    128.459
    617.125    583.106     34.279   -999.250    360.871      4.817      1.335      1.395      2.659      3.198      3.252      3.197    158.391    128.461
    617.250    579.281     34.257   -999.250    356.409      4.677      1.239      1.334      2.739      3.148      3.252      3.160    158.356    128.459
    617.375    572.905     34.684   -999.250    351.310      4.428      1.145      1.281      2.819      3.121      3.253      3.163    158.358    128.461
    617.500    566.530     34.931   -999.250    346.848      4.604      1.186      1.360      2.898      3.097      3.275      3.260    158.362    128.459
    617.625    557.605     34.512   -999.250    341.112      4.782      1.482      1.560      2.962      3.223      3.362      3.385    158.308    128.461
    617.750    550.592     33.120   -999.250    335.375      4.434      1.751      1.761      3.009      3.377      3.451      3.510    158.243    128.459
    617.875    534.654     31.718   -999.250    329.639      4.281      1.533      1.831      3.055      3.528      3.539      3.637    158.176    128.461
    618.000    525.410     30.497   -999.250    323.902      4.631      1.718      1.718      3.102      3.631      3.628      3.743    158.108    128.459
    618.125    514.253     29.335   -999.250    320.715      4.292      1.914      1.794      3.160      3.758      3.717      3.821    158.075    128.461
    618.250    506.170     28.050   -999.250    317.528      4.632      2.329      1.938      3.230      3.860      3.810      3.905    158.192    128.459
    618.375    511.285     27.553   -999.250    315.616      4.693      2.137      1.863      3.301      3.946      3.885      3.990    158.206    128.461
    618.500    513.616     29.154   -999.250    314.023      4.589      1.594      1.699      3.371      4.057      3.964      4.075    158.215    128.459
