~Version Information Block
 VERS.                2.00:     CWLS LOG ASCII STANDARD - VERSION 2.000000
 WRAP.                  NO:     One Line Per Depth Step
#
~Well Information Block
#MNEM.UNIT                     Data                         Information
#----------   ------------------------------------------   ----------------
 STRT.M                                        195.000:
 STOP.M                                       2555.000:
 STEP.M                                          0.125:
 NULL.                                        -999.250:
 COMP.                                   ²â¾®Êý¾Ý¿âµ¼³ö:     COMPANY 
 WELL.                                        ¹ÂÄÏ152-08:     Well 
 FLD .                                                :     Field 
 LOC .                                                :     LOCATION
 CNTY.                                                :     COUNTY
 STAT.                                                :     STATE
 CTRY.                                                :     COUNTRY
 SRVC.                                                :     SERVICE COMPANY
 DATE.                                                :     DATE
 API .                                                :     API NUMBER
#
~Curve Information Block
#MNEM.UNIT       API CODE      Curve Description
#----------    -------------   -------------------
 DEPT.M                    :   Depth in Meters
 AC  .Î¢Ãë/Ã×                      :   AC
 CAL .ÀåÃ×                      :   CAL
 CAL .ÀåÃ×                      :   CAL
 COND.mS/m                      :   COND
 GR  .Î¢Â×ÇÙ                      :   GR
 RLML.Å·Ä·Ã×                      :   RLML
 RNML.Å·Ä·Ã×                      :   RNML
 R04 .Å·Ä·Ã×                      :   R04
 R25 .Å·Ä·Ã×                      :   R25
 R4  .Å·Ä·Ã×                      :   R4
 RFOC.Å·Ä·Ã×                      :   RFOC
 RILD.Å·Ä·Ã×                      :   RILD
 RILM.Å·Ä·Ã×                      :   RILM
 SP  .mv                      :   SP
 SP  .ºÁ·ü                      :   SP
#
~A  DEPTH          AC        CAL        CAL       COND         GR       RLML       RNML        R04        R25         R4       RFOC       RILD       RILM         SP         SP
# ...
   1845.250    302.276     27.624   -999.250    712.500      5.044      1.051      0.974      2.214      1.568      2.029      2.248      1.323      1.673     30.543     35.022
   1845.375    294.934     28.033   -999.250    706.250      5.310      0.615      1.152      2.181      1.446      2.116      2.248      1.337      1.673     30.819     35.335
   1845.500    300.441     28.023   -999.250    701.875      5.931      1.013      0.718      1.893      1.390      2.319      1.910      1.343      1.673     31.176     35.660
   1845.625    318.062     27.850   -999.250    700.000      7.177      0.603      0.949      1.550      1.293      2.435      1.557      1.351      1.656     31.350     35.976
   1845.750    333.113     27.950   -999.250    700.000      7.088      1.304      2.000      1.346      1.237      2.551      1.297      1.364      1.639     31.574     36.138
   1845.875    344.126     29.418   -999.250    699.351      6.969      1.937      1.785      1.219      1.165      2.667      1.232      1.364      1.639     31.820     36.459
   1846.000    357.709     32.102   -999.250    696.753      6.373      1.190      1.367      1.173      1.135      2.638      1.171      1.364      1.606     31.939     36.776
   1846.125    361.747     35.265   -999.250    697.403      6.770      0.679      0.974      1.261      1.139      2.522      1.245      1.364      1.639     32.126     36.941
   1846.250    354.405     37.914   -999.250    694.805      6.292      0.641      0.833      1.378      1.187      2.319      1.310      1.364      1.707     32.618     37.095
   1846.375    353.304     40.283   -999.250    687.662      6.379      0.577      0.782      1.555      1.317      2.116      1.480      1.364      1.910     32.910     37.423
   1846.500    330.543     41.847   -999.250    674.675      6.013      0.577      0.744      1.843      1.417      2.000      1.799      1.405      2.060     33.049     37.895
   1846.625    318.429     40.957   -999.250    658.442      5.494      0.692      0.692      2.214      1.521      2.000      2.148      1.454      2.203     33.254     38.064
   1846.750    304.479     39.117   -999.250    642.763      5.070      0.615      1.253      2.525      1.617      2.087      2.514      1.511      2.294     33.423     38.375
   1846.875    298.972     36.474   -999.250    625.000      5.634      0.500      1.873      1.886      1.667      2.319      1.796      1.558      2.271     33.713     38.545
   1847.000    290.529     33.697   -999.250    607.237      6.533      0.487      1.987      1.714      1.716      2.551      1.656      1.606      2.225     33.991     38.856
   1847.125    311.454     30.832   -999.250    593.125      6.489      1.646      1.253      1.601      1.692      2.696      1.511      1.622      2.158     34.240     39.025
   1847.250    321.733     27.274   -999.250    582.500      6.356      1.139      0.872      1.443      1.571      2.783      1.407      1.639      2.115     34.566     39.177
   1847.375    332.379     28.581   -999.250    591.250      6.179      0.615      0.615      1.415      1.521      2.725      1.378      1.639      2.093     34.717     39.504
   1847.500    339.721     29.861   -999.250    600.000      6.366      1.190      1.203      1.451      1.520      2.638      1.407      1.606      1.929     34.864     39.659
   1847.625    339.537     30.261   -999.250    611.184      5.614      0.603      1.177      1.591      1.521      2.522      1.542      1.574      1.890     35.012     39.822
   1847.750    333.480     30.915   -999.250    624.342      4.655      1.392      0.744      1.835      1.571      2.348      1.778      1.495      1.890     35.180     39.980
   1847.875    327.606     32.000   -999.250    644.079      4.447      0.487      0.564      1.854      1.623      2.261      1.748      1.480      1.890     35.360     39.981
   1848.000    317.695     33.500   -999.250    634.868      4.872      0.782      0.962      1.723      1.672      2.203      1.690      1.480      1.929     35.456     40.141
   1848.125    315.492     31.756   -999.250    621.053      5.228      0.397      1.392      1.717      1.725      2.174      1.656      1.495      1.910     35.670     40.300
   1848.250    325.771     30.585   -999.250    607.237      5.601      0.974      1.342      1.753      1.749      2.116      1.673      1.542      1.871     35.783     40.462
   1848.375    325.335     30.242   -999.250    594.375      5.994      1.392      1.203      1.753      1.725      2.145      1.690      1.588      1.910     35.854     40.620
   1848.500    320.631     31.187   -999.250    585.000      5.975      0.654      1.038      1.685      1.749      2.203      1.690      1.622      1.969     35.981     40.623
   1848.625    314.758     31.570   -999.250    580.625      5.940      0.744      0.885      1.674      1.750      2.145      1.673      1.639      2.051     36.108     40.780
   1848.750    311.821     30.542   -999.250    580.000      6.002      0.833      0.795      1.717      1.826      2.174      1.707      1.639      2.072     36.142     40.783
   1848.875    312.555     29.874   -999.250    586.250      4.875      0.628      0.795      1.753      1.928      2.319      1.725      1.639      2.093     36.140     40.781
   1849.000    316.432     29.749   -999.250    601.316      4.970      0.936      0.808      1.505      2.005      2.319      1.421      1.590      2.115     36.143     40.782
   1849.125    325.771     30.697   -999.250    631.579      5.000      0.885      0.821      1.486      2.107      2.261      1.393      1.534      2.093     36.153     40.781
   1849.250    327.239     31.068   -999.250    657.143      4.918      0.654      0.885      1.665      2.158      2.377      1.623      1.443      2.020     36.162     40.621
   1849.375    325.771     30.971   -999.250    672.727      5.109      0.833      1.025      1.931      2.157      2.522      1.895      1.400      1.890     36.052     40.302
   1849.500    318.429     29.940   -999.250    678.571      5.462      0.603      1.380      2.124      2.082      2.667      2.030      1.393      1.797     36.163     39.981
   1849.625    313.289     27.880   -999.250    680.519      5.805      0.974      1.696      2.045      2.029      2.870      1.862      1.393      1.751     35.969     39.663
   1849.750    319.163     26.362   -999.250    681.818      6.138      1.633      1.430      1.583      1.955      2.928      1.574      1.393      1.760     35.863     39.501
   1849.875    325.037     26.912   -999.250    681.818      5.316      0.769      0.962      1.395      1.825      2.841      1.421      1.393      1.760     35.598     39.183
   1850.000    331.645     28.225   -999.250    681.169      4.964      0.833      0.705      1.466      1.752      2.725      1.465      1.393      1.769     35.199     39.021
   1850.125    335.316     29.141   -999.250    681.169      5.032      1.468      0.603      1.581      1.698      2.551      1.558      1.385      1.778     35.153     38.863
   1850.250    337.518     29.634   -999.250    681.818      4.960      0.910      1.266      1.731      1.599      2.377      1.690      1.358      1.862     34.846     38.702
   1850.375    336.784     30.908   -999.250    688.961      5.175      0.551      0.923      1.906      1.570      2.290      1.815      1.351      1.890     34.360     38.703
   1850.500    329.442     32.270   -999.250    698.701      5.227      0.603      0.705      1.943      1.547      2.232      1.890      1.337      1.929     33.959     38.543
   1850.625    313.289     33.059   -999.250    703.125      5.287      0.603      0.744      1.729      1.621      2.290      1.734      1.337      1.959     33.537     38.381
   1850.750    308.884     31.735   -999.250    704.375      5.427      0.718      0.885      1.578      1.649      2.232      1.526      1.337      1.969     33.147     38.224
   1850.875    314.023     30.505   -999.250    702.500      5.631      0.833      1.215      1.572      1.672      2.290      1.558      1.337      1.929     32.951     37.900
