~Version Information Block
 VERS.                2.00:     CWLS LOG ASCII STANDARD - VERSION 2.000000
 WRAP.                  NO:     One Line Per Depth Step
#
~Well Information Block
#MNEM.UNIT                     Data                         Information
#----------   ------------------------------------------   ----------------
 STRT.M                                        110.000:
 STOP.M                                       2506.000:
 STEP.M                                          0.125:
 NULL.                                        -999.250:
 COMP.                                   测井数据库导出:     COMPANY 
 WELL.                                         孤南152-9:     Well 
 FLD .                                                :     Field 
 LOC .                                                :     LOCATION
 CNTY.                                                :     COUNTY
 STAT.                                                :     STATE
 CTRY.                                                :     COUNTRY
 SRVC.                                                :     SERVICE COMPANY
 DATE.                                                :     DATE
 API .                                                :     API NUMBER
#
~Curve Information Block
#MNEM.UNIT       API CODE      Curve Description
#----------    -------------   -------------------
 DEPT.M                    :   Depth in Meters
 AC  .微秒/米                      :   AC
 CAL .厘米                      :   CAL
 COND.毫西门子/米                      :   COND
 GR  .API                      :   GR
 R25 .欧姆米                      :   R25
 R4  .欧姆米                      :   R4
 RFOC.欧姆米                      :   RFOC
 RILD.欧姆米                      :   RILD
 RILM.欧姆米                      :   RILM
 RLML.欧姆米                      :   RLML
 RNML.欧姆米                      :   RNML
 SP  .毫伏                      :   SP
#
~A  DEPTH          AC        CAL       COND         GR        R25         R4       RFOC       RILD       RILM       RLML       RNML         SP
# ...
   1552.000    382.000     23.200    889.947     59.600      1.280      1.360      1.417      1.124      1.124      0.880      0.860    -32.500
   1552.125    386.000     25.700    902.949     58.400      1.240      1.280      1.262      1.107      1.076      0.720      0.820    -32.500
   1552.250    399.000     28.100    902.949     56.800      1.160      1.200      1.262      1.107      1.060      1.620      1.000    -32.500
   1552.375    405.000     27.700    902.949     54.800      1.160      1.200      1.208      1.107      1.060      0.600      0.820    -32.000
   1552.500    402.000     27.200    902.949     54.800      1.080      1.200      1.208      1.107      1.060      0.720      0.760    -31.500
   1552.625    396.000     27.300    902.949     56.400      1.160      1.200      1.280      1.107      1.092      0.520      0.660    -31.000
   1552.750    389.000     25.900    902.949     59.600      1.240      1.280      1.397      1.107      1.107      0.580      0.720    -30.000
   1552.875    375.000     24.100    889.947     62.400      1.320      1.360      1.438      1.124      1.140      0.880      0.880    -28.750
   1553.000    359.000     24.000    877.132     63.200      1.320      1.440      1.417      1.140      1.157      0.620      0.760    -27.750
   1553.125    361.000     25.100    852.053     64.400      1.320      1.440      1.417      1.174      1.174      0.500      0.660    -27.000
   1553.250    372.000     25.100    815.772     66.800      1.320      1.520      1.438      1.226      1.208      0.520      0.680    -27.000
   1553.375    382.000     25.100    781.036     70.400      1.320      1.520      1.459      1.280      1.262      0.540      0.760    -27.000
   1553.500    384.000     25.400    758.705     71.200      1.440      1.560      1.459      1.318      1.318      0.560      0.800    -27.000
   1553.625    382.000     26.100    747.779     68.400      1.520      1.720      1.480      1.337      1.357      0.540      0.780    -27.000
   1553.750    379.000     25.800    726.399     66.000      1.640      1.920      1.502      1.377      1.417      0.540      0.760    -26.500
   1553.875    373.000     25.000    726.399     64.400      1.800      2.120      1.502      1.377      1.459      0.520      0.720    -25.500
   1554.000    370.000     23.800    715.939     64.400      1.880      2.320      1.569      1.397      1.480      0.600      0.820    -24.750
   1554.125    370.000     22.500    715.939     65.600      1.920      2.400      1.662      1.397      1.480      0.760      0.920    -23.250
   1554.250    370.000     21.800    715.939     66.400      2.000      2.520      1.813      1.397      1.438      0.820      1.040    -21.750
   1554.375    373.000     21.800    715.939     67.600      1.920      2.520      1.736      1.397      1.377      0.940      1.120    -19.250
   1554.500    382.000     22.200    705.629     68.800      1.760      2.400      1.397      1.417      1.318      0.880      0.960    -17.000
   1554.625    398.000     23.300    715.939     69.200      1.600      2.160      1.124      1.397      1.318      0.900      0.940    -14.250
   1554.750    418.000     24.100    726.399     67.600      1.440      1.920      1.030      1.377      1.318      0.600      0.600    -12.500
   1554.875    427.000     25.800    747.779     65.600      1.320      1.760      1.191      1.337      1.318      0.540      0.600    -11.750
   1555.000    416.000     25.200    769.789     65.600      1.320      1.760      1.524      1.299      1.262      0.660      0.780    -11.500
   1555.125    397.000     22.500    792.447     67.600      1.360      1.720      1.592      1.262      1.191      0.840      1.000    -11.250
   1555.250    392.000     22.200    781.036     69.600      1.360      1.720      1.337      1.280      1.140      0.880      0.960    -10.750
   1555.375    408.000     23.300    781.036     71.200      1.320      1.720      1.157      1.280      1.140      0.720      0.720     -9.750
   1555.500    429.000     24.000    769.789     71.600      1.240      1.560      1.076      1.299      1.140      0.580      0.640     -9.500
   1555.625    442.000     24.000    758.705     72.000      1.200      1.560      1.076      1.318      1.174      0.580      0.620     -9.250
   1555.750    443.000     24.900    747.779     72.000      1.200      1.560      1.124      1.337      1.226      0.600      0.580     -9.250
   1555.875    434.000     25.400    747.779     69.600      1.280      1.560      1.208      1.337      1.280      0.540      0.600     -9.750
   1556.000    407.000     24.200    747.779     66.800      1.360      1.640      1.377      1.337      1.318      0.620      0.680    -10.250
   1556.125    376.000     23.300    758.705     64.800      1.440      1.640      1.524      1.318      1.318      0.600      0.760    -10.750
   1556.250    352.000     22.700    758.705     63.200      1.600      1.720      1.592      1.318      1.280      0.620      0.800    -11.250
   1556.375    347.000     22.700    769.789     62.800      1.600      1.720      1.569      1.299      1.244      0.660      0.820    -11.250
   1556.500    357.000     22.900    781.036     63.200      1.640      1.720      1.480      1.280      1.174      0.700      0.860    -10.750
   1556.625    378.000     23.400    781.036     64.800      1.640      1.560      1.318      1.280      1.140      0.660      0.780    -10.000
   1556.750    404.000     24.300    792.447     68.400      1.640      1.560      1.191      1.262      1.092      0.600      0.660     -9.500
   1556.875    428.000     24.500    804.025     70.400      1.560      1.520      1.092      1.244      1.076      0.660      0.640     -9.500
   1557.000    443.000     24.000    792.447     71.200      1.480      1.360      1.045      1.262      1.076      0.540      0.580     -9.500
   1557.125    441.000     23.500    792.447     70.400      1.520      1.360      1.015      1.262      1.124      0.560      0.580     -9.750
   1557.250    431.000     23.300    792.447     71.200      1.520      1.440      1.060      1.262      1.157      0.560      0.600    -10.500
   1557.375    416.000     23.800    792.447     74.800      1.560      1.520      1.140      1.262      1.244      0.640      0.660    -11.750
   1557.500    391.000     23.500    781.036     77.600      1.640      1.560      1.280      1.280      1.337      0.640      0.760    -13.750
   1557.625    365.000     23.100    781.036     76.800      1.720      1.760      1.569      1.280      1.377      0.780      0.920    -16.250
   1557.750    345.000     22.900    769.789     66.000      1.920      1.920      1.867      1.299      1.397      0.780      0.940    -19.500
   1557.875    345.000     23.000    758.705     62.000      2.000      1.920      1.922      1.318      1.397      0.580      0.760    -22.250
   1558.000    358.000     23.100    737.012     60.800      2.000      1.920      1.787      1.357      1.397      0.540      0.700    -23.750
   1558.125    373.000     23.700    715.939     61.200      1.840      1.920      1.638      1.397      1.397      0.540      0.760    -24.500
   1558.250    379.000     23.400    705.629     61.200      1.640      1.840      1.397      1.417      1.417      0.580      0.780    -24.500
   1558.375    379.000     22.900    705.629     62.000      1.520      1.760      1.337      1.417      1.459      0.680      0.840    -24.000
   1558.500    372.000     22.700    705.629     63.200      1.480      1.720      1.397      1.417      1.480      0.740      0.920    -23.750
   1558.625    361.000     23.100    715.939     62.000      1.440      1.640      1.569      1.397      1.524      0.580      0.780    -23.750
   1558.750    352.000     23.300    715.939     58.400      1.480      1.640      1.638      1.397      1.546      0.580      0.800    -23.750
   1558.875    345.000     23.100    726.399     55.600      1.520      1.640      1.687      1.377      1.546      0.720      0.960    -23.500
