~Version Information Block
 VERS.                2.00:     CWLS LOG ASCII STANDARD - VERSION 2.000000
 WRAP.                  NO:     One Line Per Depth Step
#
~Well Information Block
#MNEM.UNIT                     Data                         Information
#----------   ------------------------------------------   ----------------
 STRT.M                                        195.000:
 STOP.M                                       2555.000:
 STEP.M                                          0.125:
 NULL.                                        -999.250:
 COMP.                                   ²â¾®Êý¾Ý¿âµ¼³ö:     COMPANY 
 WELL.                                        ¹ÂÄÏ152-08:     Well 
 FLD .                                                :     Field 
 LOC .                                                :     LOCATION
 CNTY.                                                :     COUNTY
 STAT.                                                :     STATE
 CTRY.                                                :     COUNTRY
 SRVC.                                                :     SERVICE COMPANY
 DATE.                                                :     DATE
 API .                                                :     API NUMBER
#
~Curve Information Block
#MNEM.UNIT       API CODE      Curve Description
#----------    -------------   -------------------
 DEPT.M                    :   Depth in Meters
 AC  .Î¢Ãë/Ã×                      :   AC
 CAL .ÀåÃ×                      :   CAL
 CAL .ÀåÃ×                      :   CAL
 COND.mS/m                      :   COND
 GR  .Î¢Â×ÇÙ                      :   GR
 RLML.Å·Ä·Ã×                      :   RLML
 RNML.Å·Ä·Ã×                      :   RNML
 R04 .Å·Ä·Ã×                      :   R04
 R25 .Å·Ä·Ã×                      :   R25
 R4  .Å·Ä·Ã×                      :   R4
 RFOC.Å·Ä·Ã×                      :   RFOC
 RILD.Å·Ä·Ã×                      :   RILD
 RILM.Å·Ä·Ã×                      :   RILM
 SP  .mv                      :   SP
 SP  .ºÁ·ü                      :   SP
#
~A  DEPTH          AC        CAL        CAL       COND         GR       RLML       RNML        R04        R25         R4       RFOC       RILD       RILM         SP         SP
# ...
   2546.750    352.203     23.044   -999.250    563.125      9.961      0.577      0.615      1.409      2.006      2.841      1.351      1.673      1.495     90.457     95.272
   2546.875    355.140     23.143   -999.250    565.625     10.270      2.192      2.141      1.527      2.004      2.841      1.450      1.656      1.495     90.542     95.273
   2547.000    355.947     23.131   -999.250    565.625     10.293      1.696      1.873      1.584      2.031      2.841      1.542      1.656      1.495     90.534     95.272
   2547.125    356.608     23.385   -999.250    565.000     10.858      1.101      1.329      1.613      2.056      2.870      1.558      1.656      1.503     90.565     95.274
   2547.250    356.608     24.086   -999.250    564.375     10.630      0.859      1.899      1.590      2.057      2.899      1.558      1.656      1.526     90.573     95.272
   2547.375    356.608     24.691   -999.250    563.750     10.262      1.823      1.595      1.537      2.056      2.870      1.519      1.656      1.542     90.638     95.273
   2547.500    356.608     24.921   -999.250    563.750     10.104      1.152      1.190      1.444      2.031      2.870      1.451      1.656      1.547     90.568     95.272
   2547.625    355.874     23.518   -999.250    561.250     10.319      2.064      2.077      1.385      2.056      2.899      1.351      1.673      1.558     90.626     95.273
   2547.750    353.170     23.408   -999.250    560.000     10.690      0.846      1.177      1.391      2.057      2.841      1.390      1.673      1.568     90.576     95.272
   2547.875    350.167     23.860   -999.250    559.375     10.437      0.821      1.063      1.471      2.030      2.899      1.445      1.673      1.574     90.588     95.273
   2548.000    347.797     23.459   -999.250    558.125     10.349      0.859      1.051      1.599      2.057      2.870      1.495      1.678      1.574     90.437     95.272
   2548.125    347.942     23.842   -999.250    555.625      9.854      0.846      1.051      1.690      2.056      2.870      1.586      1.689      1.574     90.463     95.273
   2548.250    348.453     24.583   -999.250    556.875      9.966      0.859      1.051      1.786      2.083      2.899      1.673      1.699      1.574     90.441     95.272
   2548.375    348.532     25.507   -999.250    555.000     10.236      0.885      1.051      1.852      2.081      2.899      1.796      1.707      1.574     90.600     95.273
   2548.500    348.532     26.301   -999.250    556.250     10.256      0.872      1.063      1.870      2.058      2.899      1.789      1.697      1.576     90.596     95.272
   2548.625    348.532     26.290   -999.250    560.000     10.214      0.885      1.063      1.864      2.081      2.899      1.780      1.689      1.578     90.770     95.273
   2548.750    348.532     26.285   -999.250    563.750     10.296      0.897      1.063      1.857      2.083      2.870      1.770      1.681      1.579     90.760     95.272
   2548.875    348.532     26.237   -999.250    565.000     10.440      0.897      1.076      1.851      2.081      2.899      1.760      1.673      1.581     90.804     95.433
   2549.000    348.532     26.234   -999.250    565.625     10.459      0.910      1.076      1.845      2.058      2.899      1.773      1.673      1.583     90.700     95.432
   2549.125    348.384     26.234   -999.250    566.250     10.681      0.936      1.076      1.854      2.081      2.899      1.786      1.673      1.585     90.772     95.273
   2549.250    348.220     26.234   -999.250    566.250     10.371      0.923      1.089      1.865      2.058      2.899      1.800      1.673      1.587     90.886     95.272
   2549.375    348.057     26.234   -999.250    565.000      9.685      0.923      1.089      1.875      2.066      2.899      1.813      1.673      1.589     90.747     95.113
   2549.500    347.893     26.233   -999.250    564.375     10.039      0.923      1.101      1.886      2.058      2.928      1.827      1.673      1.593     90.917     95.112
   2549.625    347.063     26.224   -999.250    563.750     10.602      0.910      1.101      1.897      2.056      2.870      1.840      1.673      1.598     90.605     95.113
   2549.750    347.797     26.260   -999.250    563.125     11.525      0.910      1.101      1.907      2.057      2.899      1.853      1.673      1.603     90.588     95.112
   2549.875    347.155     26.364   -999.250    563.750     11.215      0.897      1.114      1.918      2.056      2.899      1.867      1.673      1.606     90.500     95.272
   2550.000    347.063     26.434   -999.250    563.750     11.165      0.910      1.114      1.921      2.051      2.928      1.871      1.673      1.606     90.594     95.273
   2550.125   -999.250   -999.250   -999.250    563.750   -999.250      0.897      1.139   -999.250      2.031      2.899   -999.250   -999.250   -999.250     90.724     95.272
   2550.250   -999.250   -999.250   -999.250    563.750   -999.250      0.923      1.139   -999.250      2.031      2.899   -999.250   -999.250   -999.250     90.760   -999.250
   2550.375   -999.250   -999.250   -999.250    563.750   -999.250      0.923      1.152   -999.250      2.031      2.899   -999.250   -999.250   -999.250   -999.250   -999.250
   2550.500   -999.250   -999.250   -999.250   -999.250   -999.250      0.936      1.190   -999.250      2.031      2.899   -999.250   -999.250   -999.250   -999.250   -999.250
   2550.625   -999.250   -999.250   -999.250   -999.250   -999.250      0.949      1.190   -999.250      2.005      2.899   -999.250   -999.250   -999.250   -999.250   -999.250
   2550.750   -999.250   -999.250   -999.250   -999.250   -999.250      0.962      1.190   -999.250      2.006      2.899   -999.250   -999.250   -999.250   -999.250   -999.250
   2550.875   -999.250   -999.250   -999.250   -999.250   -999.250      0.949      1.177   -999.250      2.005      2.899   -999.250   -999.250   -999.250   -999.250   -999.250
   2551.000   -999.250   -999.250   -999.250   -999.250   -999.250      0.936      1.177   -999.250      1.980      2.928   -999.250   -999.250   -999.250   -999.250   -999.250
   2551.125   -999.250   -999.250   -999.250   -999.250   -999.250      0.949      1.177   -999.250   -999.250      2.928   -999.250   -999.250   -999.250   -999.250   -999.250
   2551.250   -999.250   -999.250   -999.250   -999.250   -999.250      0.923      1.127   -999.250   -999.250      2.928   -999.250   -999.250   -999.250   -999.250   -999.250
   2551.375   -999.250   -999.250   -999.250   -999.250   -999.250      0.910      1.127   -999.250   -999.250      2.928   -999.250   -999.250   -999.250   -999.250   -999.250
   2551.500   -999.250   -999.250   -999.250   -999.250   -999.250      0.923   -999.250   -999.250   -999.250      2.928   -999.250   -999.250   -999.250   -999.250   -999.250
   2551.625   -999.250   -999.250   -999.250   -999.250   -999.250   -999.250   -999.250   -999.250   -999.250      2.957   -999.250   -999.250   -999.250   -999.250   -999.250
   2551.750   -999.250   -999.250   -999.250   -999.250   -999.250   -999.250   -999.250   -999.250   -999.250      2.957   -999.250   -999.250   -999.250   -999.250   -999.250
   2551.875   -999.250   -999.250   -999.250   -999.250   -999.250   -999.250   -999.250   -999.250   -999.250      2.928   -999.250   -999.250   -999.250   -999.250   -999.250
   2552.000   -999.250   -999.250   -999.250   -999.250   -999.250   -999.250   -999.250   -999.250   -999.250      2.957   -999.250   -999.250   -999.250   -999.250   -999.250
   2552.125   -999.250   -999.250   -999.250   -999.250   -999.250   -999.250   -999.250   -999.250   -999.250      2.899   -999.250   -999.250   -999.250   -999.250   -999.250
   2552.250   -999.250   -999.250   -999.250   -999.250   -999.250   -999.250   -999.250   -999.250   -999.250      2.899   -999.250   -999.250   -999.250   -999.250   -999.250
   2552.375   -999.250   -999.250   -999.250   -999.250   -999.250   -999.250   -999.250   -999.250   -999.250      2.899   -999.250   -999.250   -999.250   -999.250   -999.250
