~Version Information Block
 VERS.                2.00:     CWLS LOG ASCII STANDARD - VERSION 2.000000
 WRAP.                  NO:     One Line Per Depth Step
#
~Well Information Block
#MNEM.UNIT                     Data                         Information
#----------   ------------------------------------------   ----------------
 STRT.M                                        110.000:
 STOP.M                                       2506.000:
 STEP.M                                          0.125:
 NULL.                                        -999.250:
 COMP.                                   测井数据库导出:     COMPANY 
 WELL.                                         孤南152-9:     Well 
 FLD .                                                :     Field 
 LOC .                                                :     LOCATION
 CNTY.                                                :     COUNTY
 STAT.                                                :     STATE
 CTRY.                                                :     COUNTRY
 SRVC.                                                :     SERVICE COMPANY
 DATE.                                                :     DATE
 API .                                                :     API NUMBER
#
~Curve Information Block
#MNEM.UNIT       API CODE      Curve Description
#----------    -------------   -------------------
 DEPT.M                    :   Depth in Meters
 AC  .微秒/米                      :   AC
 CAL .厘米                      :   CAL
 COND.毫西门子/米                      :   COND
 GR  .API                      :   GR
 R25 .欧姆米                      :   R25
 R4  .欧姆米                      :   R4
 RFOC.欧姆米                      :   RFOC
 RILD.欧姆米                      :   RILD
 RILM.欧姆米                      :   RILM
 RLML.欧姆米                      :   RLML
 RNML.欧姆米                      :   RNML
 SP  .毫伏                      :   SP
#
~A  DEPTH          AC        CAL       COND         GR        R25         R4       RFOC       RILD       RILM       RLML       RNML         SP
# ...
   1818.000    338.000     25.600    815.772     54.800      1.360      1.560      1.638      1.226      1.299      0.520      0.620    -37.750
   1818.125    340.000     25.600    815.772     55.200      1.320      1.520      1.687      1.226      1.318      0.520      0.620    -38.500
   1818.250    336.000     25.700    815.772     55.200      1.280      1.520      1.736      1.226      1.318      0.500      0.620    -39.000
   1818.375    333.000     26.300    804.025     54.800      1.280      1.520      1.762      1.244      1.377      0.500      0.620    -39.500
   1818.500    330.000     26.500    804.025     54.800      1.320      1.560      1.840      1.244      1.397      0.500      0.620    -40.000
   1818.625    326.000     26.500    792.447     54.800      1.360      1.560      1.950      1.262      1.417      0.500      0.640    -40.250
   1818.750    322.000     26.500    781.036     53.600      1.360      1.560      1.950      1.280      1.417      0.480      0.620    -40.250
   1818.875    320.000     26.400    769.789     52.400      1.440      1.560      1.840      1.299      1.417      0.500      0.620    -40.000
   1819.000    320.000     26.600    769.789     50.400      1.440      1.560      1.687      1.299      1.417      0.500      0.620    -40.000
   1819.125    325.000     26.600    758.705     50.400      1.440      1.520      1.662      1.318      1.438      0.520      0.620    -39.750
   1819.250    329.000     26.800    758.705     52.800      1.360      1.520      1.736      1.318      1.417      0.540      0.640    -39.750
   1819.375    330.000     26.800    758.705     54.800      1.440      1.440      1.840      1.318      1.397      0.540      0.640    -39.750
   1819.500    326.000     27.000    769.789     55.600      1.480      1.440      1.787      1.299      1.397      0.520      0.640    -40.000
   1819.625    319.000     27.500    781.036     56.000      1.560      1.440      1.662      1.280      1.397      0.500      0.640    -40.000
   1819.750    317.000     27.700    781.036     57.200      1.520      1.440      1.736      1.280      1.397      0.500      0.620    -40.250
   1819.875    320.000     27.500    792.447     58.000      1.520      1.440      1.840      1.262      1.377      0.500      0.680    -40.500
   1820.000    320.000     28.300    781.036     57.600      1.560      1.440      1.867      1.280      1.337      0.500      0.700    -40.750
   1820.125    318.000     29.300    769.789     54.400      1.560      1.440      1.687      1.299      1.318      0.500      0.700    -40.750
   1820.250    318.000     29.600    747.779     51.600      1.560      1.440      1.480      1.337      1.337      0.500      0.700    -40.750
   1820.375    325.000     30.000    715.939     51.600      1.440      1.360      1.417      1.397      1.417      0.500      0.680    -40.750
   1820.500    335.000     30.000    685.454     52.400      1.320      1.360      1.459      1.459      1.524      0.500      0.680    -40.000
   1820.625    336.000     30.200    656.266     53.200      1.320      1.360      1.569      1.524      1.711      0.460      0.680    -39.500
   1820.750    326.000     30.500    619.275     55.200      1.360      1.520      1.736      1.615      1.950      0.460      0.660    -38.750
   1820.875    311.000     29.500    592.906     58.000      1.520      1.720      2.066      1.687      2.254      0.540      0.740    -38.000
   1821.000    299.000     25.400    567.660     61.200      1.760      1.960      2.762      1.762      2.495      0.680      0.960    -37.000
   1821.125    288.000     24.000    543.489     62.400      2.040      2.240      3.691      1.840      2.683      0.820      1.400    -36.250
   1821.250    280.000     23.600    543.489     63.600      2.320      2.600      4.027      1.840      2.722      1.120      1.760    -36.000
   1821.375    274.000     23.400    543.489     65.200      2.560      2.840      3.638      1.840      2.606      1.280      1.820    -36.000
   1821.500    276.000     23.500    551.429     66.800      2.800      2.920      3.240      1.813      2.459      1.200      1.680    -36.250
   1821.625    282.000     23.600    559.486     67.600      2.800      2.920      2.762      1.787      2.222      1.080      1.500    -36.250
   1821.750    291.000     23.700    575.954     67.200      2.760      2.720      2.127      1.736      2.007      0.880      1.200    -36.250
   1821.875    299.000     23.900    592.906     66.800      2.560      2.520      1.687      1.687      1.894      0.580      0.780    -36.250
   1822.000    309.000     24.500    610.358     65.200      2.360      2.240      1.569      1.638      1.840      0.520      0.740    -36.250
   1822.125    319.000     24.600    628.323     60.400      2.120      1.960      1.638      1.592      1.840      0.520      0.760    -36.250
   1822.250    325.000     24.600    628.323     56.000      1.880      1.760      1.762      1.592      1.867      0.540      0.820    -36.500
   1822.375    324.000     24.500    637.502     55.200      1.720      1.640      2.037      1.569      1.922      0.620      0.920    -36.750
   1822.500    318.000     24.300    637.502     58.400      1.760      1.720      2.424      1.569      1.978      0.640      1.000    -37.000
   1822.625    309.000     24.100    628.323     64.000      1.840      1.840      2.722      1.592      1.978      0.600      0.960    -37.500
   1822.750    300.000     24.100    601.569     70.400      1.920      1.840      2.683      1.662      1.978      0.580      0.900    -37.500
   1822.875    291.000     24.200    592.906     76.000      1.920      1.920      2.495      1.687      1.978      0.540      0.900    -37.500
   1823.000    285.000     24.100    592.906     77.200      1.920      1.920      2.389      1.687      2.007      0.560      0.920    -37.500
   1823.125    281.000     24.300    584.368     74.000      1.920      1.920      2.321      1.711      2.007      0.540      0.860    -37.500
   1823.250    280.000     24.200    592.906     70.400      1.880      1.920      2.354      1.687      1.978      0.560      1.000    -37.500
   1823.375    291.000     24.000    601.569     68.400      1.920      1.840      2.354      1.662      1.894      0.740      1.220    -37.250
   1823.500    296.000     24.000    619.275     66.800      2.000      1.840      2.190      1.615      1.840      0.680      1.120    -36.250
   1823.625    299.000     24.200    637.502     65.200      2.080      1.840      1.978      1.569      1.787      0.580      0.840    -36.250
   1823.750    305.000     24.300    646.817     65.200      2.160      1.760      1.787      1.546      1.736      0.540      0.700    -35.750
   1823.875    315.000     24.400    656.266     63.200      2.160      1.640      1.662      1.524      1.787      0.540      0.660    -35.750
   1824.000    326.000     24.600    665.855     58.800      2.040      1.520      1.638      1.502      1.787      0.540      0.640    -36.250
   1824.125    335.000     24.400    665.855     55.600      2.000      1.520      1.711      1.502      1.787      0.520      0.640    -36.250
   1824.250    337.000     24.300    675.583     54.800      2.000      1.440      1.813      1.480      1.762      0.500      0.640    -36.250
   1824.375    328.000     24.300    675.583     56.400      2.000      1.520      1.922      1.480      1.762      0.520      0.640    -36.250
   1824.500    319.000     24.300    675.583     58.800      2.000      1.520      1.978      1.480      1.736      0.520      0.680    -36.250
   1824.625    312.000     24.300    665.855     60.400      2.000      1.520      2.037      1.502      1.736      0.520      0.680    -36.250
   1824.750    310.000     24.300    656.266     60.400      2.000      1.520      2.037      1.524      1.736      0.520      0.680    -36.500
   1824.875    306.000     24.300    637.502     59.200      2.000      1.640      2.007      1.569      1.787      0.520      0.680    -36.750
