~Version Information Block
 VERS.                2.00:     CWLS LOG ASCII STANDARD - VERSION 2.000000
 WRAP.                  NO:     One Line Per Depth Step
#
~Well Information Block
#MNEM.UNIT                     Data                         Information
#----------   ------------------------------------------   ----------------
 STRT.M                                        110.000:
 STOP.M                                       2506.000:
 STEP.M                                          0.125:
 NULL.                                        -999.250:
 COMP.                                   测井数据库导出:     COMPANY 
 WELL.                                         孤南152-9:     Well 
 FLD .                                                :     Field 
 LOC .                                                :     LOCATION
 CNTY.                                                :     COUNTY
 STAT.                                                :     STATE
 CTRY.                                                :     COUNTRY
 SRVC.                                                :     SERVICE COMPANY
 DATE.                                                :     DATE
 API .                                                :     API NUMBER
#
~Curve Information Block
#MNEM.UNIT       API CODE      Curve Description
#----------    -------------   -------------------
 DEPT.M                    :   Depth in Meters
 AC  .微秒/米                      :   AC
 CAL .厘米                      :   CAL
 COND.毫西门子/米                      :   COND
 GR  .API                      :   GR
 R25 .欧姆米                      :   R25
 R4  .欧姆米                      :   R4
 RFOC.欧姆米                      :   RFOC
 RILD.欧姆米                      :   RILD
 RILM.欧姆米                      :   RILM
 RLML.欧姆米                      :   RLML
 RNML.欧姆米                      :   RNML
 SP  .毫伏                      :   SP
#
~A  DEPTH          AC        CAL       COND         GR        R25         R4       RFOC       RILD       RILM       RLML       RNML         SP
# ...
   2497.000    214.000     21.800     46.166     40.800     19.233    105.840     32.513     21.661     57.243      7.484      5.812      3.250
   2497.125    218.000     22.000     47.525     42.400     19.773    107.200     26.538     21.042     49.514      6.714      5.455      3.500
   2497.250    221.000     22.000     49.639     44.000     20.158    107.760     21.977     20.146     44.090      4.514      4.653      3.500
   2497.375    223.000     22.000     51.846     44.000     20.340    107.760     19.855     19.288     39.259      3.751      3.595      4.250
   2497.500    225.000     22.000     54.943     43.200     20.243    107.120     19.855     18.201     34.958      4.039      3.601      4.500
   2497.625    227.000     21.700     57.387     43.200     20.056    105.640     19.570     17.426     32.513      4.305      3.776      4.000
   2497.750    228.000     21.900     59.076     43.200     19.885    103.720     18.736     16.927     30.680      4.254      3.676      3.500
   2497.875    227.000     21.900     61.703     44.000     19.697    101.640     17.680     16.207     29.803      3.978      3.563      3.500
   2498.000    227.000     21.556     62.396     47.200     19.504     99.720     17.252     16.027     30.066      3.747      3.489      4.175
   2498.125    227.000     21.647     63.287     50.400     19.287     97.880     16.285     15.801     29.215      4.125      3.589      4.028
   2498.250    227.528     21.744     63.646     52.400     18.956     96.040     15.354     15.712     27.981      3.952      3.538      3.949
   2498.375    227.507     21.782     63.678     51.041     18.565     94.040     14.842     15.704     27.251      3.748      3.198      3.889
   2498.500    227.169     21.701     63.683     48.860     18.142     92.080     14.726     15.703     27.542      4.077      3.333      3.881
   2498.625    226.530     21.621     63.600     45.089     17.672     89.920     15.229     15.723     27.951      4.408      3.699      3.873
   2498.750    225.877     21.640     63.516     42.782     17.186     87.800     16.424     15.744     28.459      5.510      4.033      3.887
   2498.875    225.309     21.883     63.432     41.804     16.701     86.280     17.456     15.765     28.839      4.871      4.236      3.902
   2499.000    225.149     22.029     63.580     41.336     16.193     85.960     17.920     15.728     28.917      3.829      3.545      3.914
   2499.125    225.167     22.020     63.809     41.183     15.629     86.040     18.181     15.672     28.580      4.216      3.515      3.917
   2499.250    225.213     21.971     64.123     40.996     15.120     86.560     18.337     15.595     28.221      3.607      3.309      3.921
   2499.375    225.216     22.085     64.441     40.291     14.789     87.080     18.305     15.518     28.186      3.632      3.014      3.911
   2499.500    225.159     22.345     64.343     39.160     14.596     87.480     17.889     15.542     28.363      3.970      2.795      3.892
   2499.625    225.102     22.540     63.850     38.255     14.492     87.600     17.449     15.662     28.706      3.314      2.776      3.872
   2499.750    224.721     22.539     63.274     39.072     14.418     87.680     17.465     15.804     29.026      3.306      3.068      3.853
   2499.875    224.105     22.570     62.828     40.139     14.300     87.720     18.572     15.916     29.228      4.919      3.741      3.834
   2500.000    222.928     22.674     62.685     41.262     13.995      0.000     20.158     15.953     29.335      5.322      4.186      3.814
   2500.125    222.032     22.879     63.087     41.374     13.761      0.000     21.128     15.851     29.367      5.387      4.299      3.786
   2500.250    221.381     23.099     63.536     40.815     13.632      0.000     21.138     15.739     29.336      4.517      3.921      3.755
   2500.375    221.243     23.315     64.091     40.645     13.557      0.000     20.545     15.603     29.113      5.140      4.128      3.725
   2500.500    221.964     23.468     65.225     42.256     13.509      0.000     18.924     15.332     28.630      4.968      4.159      3.680
   2500.625    223.224     23.618     67.030     44.623     13.490      0.000     17.004     14.919     27.326      5.242      4.006      3.636
   2500.750    226.731     23.758     69.796     45.923     13.490      0.000     15.758     14.328     25.311      5.579      4.130      3.596
   2500.875    231.348     23.900     73.340     44.209     13.484      0.000     15.048     13.635     24.096      2.508      2.467      3.564
   2501.000    235.221     24.017     77.780     41.546     13.476      0.000     14.512     12.857     22.546      3.168      2.385      3.533
   2501.125    237.679     24.115     82.626     41.167     13.467      0.000     13.817     12.103     19.489      3.685      2.709      3.510
   2501.250    239.397     24.289     86.862     44.306      0.000      0.000     10.361     11.513     16.534      3.401      2.662      3.491
   2501.375    240.802     24.484     89.910     46.927      0.000      0.000      8.573     11.122     15.105      3.248      2.207      3.472
   2501.500    241.891     24.664     91.993     48.810      0.000      0.000      7.597     10.870     14.421      2.919      2.084      3.460
   2501.625    242.595     24.597     93.623     48.132      0.000      0.000      7.112     10.681     14.178      2.768      2.174      3.452
   2501.750    242.272     24.421     94.716     46.380      0.000      0.000      7.770     10.558     14.156      2.946      2.163      3.448
   2501.875    241.023     24.318     95.212     45.122      0.000      0.000      9.076     10.503     14.354      3.137      2.272      3.454
   2502.000    238.901     24.300     95.208     43.814      0.000      0.000     10.281     10.503     14.967      3.137      2.438      3.462
   2502.125    236.195     24.307     94.052     42.612      0.000      0.000     11.358     10.632     16.015      3.152      2.373      3.487
   2502.250    233.472     24.348     91.454     41.593      0.000      0.000     12.410     10.934     17.196      3.679      2.533      3.512
   2502.375    231.177     24.358     87.302     40.809      0.000      0.000     13.446     11.455     18.499      4.214      2.917      3.535
   2502.500    229.503     24.199     82.977     40.775      0.000      0.000     14.448     12.052     19.850      4.063      3.286      3.512
   2502.625    228.612     24.111     79.285     41.405      0.000      0.000     15.384     12.613     21.203      4.391      3.549      3.328
   2502.750    228.110     24.097     77.037     42.166      0.000      0.000     16.219     12.981     22.393      4.098      3.524      3.173
   2502.875    227.529     24.148     76.356     40.493      0.000      0.000     17.011     13.097     23.385      4.993      3.784      3.075
   2503.000    227.048     24.220     77.419     38.547      0.000      0.000     17.833     12.917     24.124      5.785      3.834      3.046
   2503.125    226.809     24.293     79.974     36.857      0.000      0.000     18.463     12.504     24.536      5.199      3.596      3.132
   2503.250    226.752     24.350     83.209     37.758      0.000      0.000     18.581     12.018     24.634      4.123      3.669      3.231
   2503.375    226.999     24.359     86.698     39.589      0.000      0.000     18.000     11.534     24.225      4.626      4.381      3.468
   2503.500    228.496     24.296     89.824     41.524      0.000      0.000     15.750     11.133     21.775      7.052      5.344      3.732
   2503.625    230.306     24.118     92.882     43.620      0.000      0.000     11.347     10.766     15.854      6.396      4.119      3.927
   2503.750    231.741     23.800     95.745     45.900      0.000      0.000      8.811     10.444     13.694      2.696      2.688      4.110
   2503.875    235.431     23.113     98.175     48.592      0.000      0.000      7.492     10.186     12.211      2.770      2.471      4.162
