~Version Information Block
 VERS.                2.00:     CWLS LOG ASCII STANDARD - VERSION 2.000000
 WRAP.                  NO:     One Line Per Depth Step
#
~Well Information Block
#MNEM.UNIT                     Data                         Information
#----------   ------------------------------------------   ----------------
 STRT.M                                        195.000:
 STOP.M                                       2555.000:
 STEP.M                                          0.125:
 NULL.                                        -999.250:
 COMP.                                   ²â¾®Êý¾Ý¿âµ¼³ö:     COMPANY 
 WELL.                                        ¹ÂÄÏ152-08:     Well 
 FLD .                                                :     Field 
 LOC .                                                :     LOCATION
 CNTY.                                                :     COUNTY
 STAT.                                                :     STATE
 CTRY.                                                :     COUNTRY
 SRVC.                                                :     SERVICE COMPANY
 DATE.                                                :     DATE
 API .                                                :     API NUMBER
#
~Curve Information Block
#MNEM.UNIT       API CODE      Curve Description
#----------    -------------   -------------------
 DEPT.M                    :   Depth in Meters
 AC  .Î¢Ãë/Ã×                      :   AC
 CAL .ÀåÃ×                      :   CAL
 CAL .ÀåÃ×                      :   CAL
 COND.mS/m                      :   COND
 GR  .Î¢Â×ÇÙ                      :   GR
 RLML.Å·Ä·Ã×                      :   RLML
 RNML.Å·Ä·Ã×                      :   RNML
 R04 .Å·Ä·Ã×                      :   R04
 R25 .Å·Ä·Ã×                      :   R25
 R4  .Å·Ä·Ã×                      :   R4
 RFOC.Å·Ä·Ã×                      :   RFOC
 RILD.Å·Ä·Ã×                      :   RILD
 RILM.Å·Ä·Ã×                      :   RILM
 SP  .mv                      :   SP
 SP  .ºÁ·ü                      :   SP
#
~A  DEPTH          AC        CAL        CAL       COND         GR       RLML       RNML        R04        R25         R4       RFOC       RILD       RILM         SP         SP
# ...
   1730.250    385.977     29.231   -999.250   1162.987      4.394      0.667      0.667      1.165      0.958      1.975      1.159      0.775      0.936     29.248     32.461
   1730.375    370.925     27.952   -999.250   1213.924      4.300      2.231      2.244      1.121      0.933      1.924      1.171      0.763      0.931     28.694     31.819
   1730.500    384.508     28.336   -999.250   1237.975      4.865      0.782      0.756      0.998      0.933      1.949      0.995      0.756      0.926     28.336     31.021
   1730.625    387.445     28.542   -999.250   1239.873      4.952      2.064      2.103      0.923      0.933      1.924      0.922      0.763      0.903     27.915     30.695
   1730.750    383.407     31.037   -999.250   1242.405      4.835      0.974      1.646      0.903      0.907      1.924      0.908      0.756      0.885     27.532     30.381
   1730.875    379.369     31.180   -999.250   1246.835      5.163      0.769      1.063      0.908      0.908      1.924      0.926      0.748      0.871     27.214     30.052
   1731.000    376.432     30.845   -999.250   1263.782      5.059      1.165      0.769      0.941      0.908      1.899      0.946      0.748      0.871     26.768     29.739
   1731.125    377.921     31.326   -999.250   1269.551      5.005      1.608      1.544      0.972      0.907      1.924      0.965      0.733      0.863     26.566     29.570
   1731.250    380.399     31.996   -999.250   1271.474      5.665      2.103      2.103      0.981      0.908      1.899      0.975      0.733      0.854     26.414     29.416
   1731.375    380.837     32.429   -999.250   1272.115      6.271      1.354      1.101      0.980      0.907      1.924      0.985      0.733      0.854     26.131     29.409
   1731.500    377.166     31.970   -999.250   1269.551      5.871      0.782      0.782      0.979      0.933      1.899      0.965      0.748      0.863     25.959     29.254
   1731.625    377.166     31.758   -999.250   1243.671      5.416      1.747      1.709      0.980      0.932      1.848      0.955      0.771      0.854     25.818     29.249
   1731.750    380.837     32.824   -999.250   1221.519      5.563      1.367      0.821      0.952      0.908      1.747      0.955      0.771      0.854     25.803     29.251
   1731.875    383.774     33.579   -999.250   1212.025      5.739      0.872      1.165      0.955      0.906      1.722      0.946      0.771      0.854     25.627     29.089
   1732.000    381.571     34.368   -999.250   1209.494      5.897      1.747      1.861      0.975      0.882      1.747      0.936      0.787      0.854     25.506     29.090
   1732.125    382.879     34.996   -999.250   1209.494      5.526      0.833      1.278      1.005      0.873      1.747      0.995      0.771      0.854     25.474     29.091
   1732.250    381.571     33.995   -999.250   1210.759      4.663      0.872      1.063      1.032      0.856      1.797      1.015      0.771      0.863     25.332     29.087
   1732.375    371.292     33.295   -999.250   1213.924      4.896      0.949      1.013      1.023      0.881      1.848      1.015      0.771      0.871     25.143     29.093
   1732.500    363.950     33.742   -999.250   1217.089      4.806      0.897      0.987      1.026      0.882      1.848      1.015      0.771      0.889     25.028     29.005
   1732.625    364.684     32.770   -999.250   1217.089      5.168      0.833      0.962      1.034      0.881      1.873      1.047      0.771      0.908     25.155     28.934
   1732.750    370.007     30.915   -999.250   1217.089      4.745      0.756      0.936      0.988      0.881      1.899      1.011      0.779      0.926     24.988     28.923
   1732.875    374.963     30.863   -999.250   1216.456      4.485      2.269      1.494      0.951      0.882      1.899      0.955      0.779      0.946     25.116     28.935
   1733.000    374.229     31.890   -999.250   1215.190      4.630      2.615      2.590      0.997      0.907      1.873      0.955      0.795      0.946     25.151     28.923
   1733.125    373.495     33.302   -999.250   1203.797      4.905      0.679      1.759      1.031      0.908      1.848      1.036      0.795      0.946     25.329     28.776
   1733.250    367.254     32.830   -999.250   1185.714      5.129      1.241      0.705      1.030      0.906      1.848      1.015      0.795      0.946     25.304     28.923
   1733.375    368.355     33.732   -999.250   1169.481      5.415      1.165      1.266      1.031      0.908      1.899      1.005      0.803      0.946     25.177     28.937
   1733.500    382.305     34.431   -999.250   1139.375      5.870      2.167      2.218      1.030      0.906      1.899      1.005      0.812      0.946     25.178     29.084
   1733.625    378.634     34.589   -999.250   1125.000      6.147      0.731      0.782      1.047      0.883      1.873      1.015      0.837      0.946     25.341     29.098
   1733.750    371.659     34.927   -999.250   1110.000      6.166      0.962      1.013      1.195      0.880      1.823      1.124      0.889      0.946     25.537     29.085
   1733.875    365.492     33.522   -999.250   1087.662      5.623      0.692      0.731      1.270      0.857      1.848      1.258      0.908      0.985     25.797     29.257
   1734.000    364.684     30.463   -999.250   1061.039      4.849      1.342      1.316      1.322      0.854      1.722      1.284      0.908      1.026     26.062     29.567
   1734.125    371.918     28.644   -999.250   1054.545      4.562      2.192      1.873      1.293      0.857      1.747      1.284      0.899      1.058     26.113     29.737
   1734.250    372.761     27.885   -999.250   1050.649      4.470      1.266      2.449      1.250      0.880      1.772      1.258      0.889      1.068     26.529     30.048
   1734.375    361.068     27.734   -999.250   1051.948      4.362      3.190      3.152      1.203      0.883      1.873      1.183      0.899      1.068     26.955     30.377
   1734.500    353.671     28.222   -999.250   1054.545      4.624      1.139      1.114      1.151      0.905      1.949      1.159      0.936      1.068     27.390     30.528
   1734.625    366.153     29.326   -999.250   1022.152      4.572      2.731      2.590      1.132      0.934      1.949      1.159      0.975      1.103     27.686     31.016
   1734.750    360.279     29.997   -999.250    986.875      4.419      1.506      1.595      1.156      0.957      1.949      1.159      0.985      1.177     28.178     31.649
   1734.875    352.203     30.065   -999.250    963.750      4.372      2.808      2.833      1.393      0.985      1.873      1.310      0.995      1.232     28.650     32.135
   1735.000    345.595     29.326   -999.250    955.625      4.374      2.038      1.937      1.504      1.008      1.772      1.436      1.005      1.271     28.946     32.450
   1735.125    340.749     28.105   -999.250    947.403      4.486      0.859      0.974      1.430      1.010      1.823      1.450      1.005      1.284     29.428     32.775
   1735.250    338.253     27.255   -999.250    944.156      4.827      1.987      1.962      1.193      0.982      1.823      1.183      0.995      1.284     30.003     33.411
   1735.375    357.636     27.134   -999.250    946.753      5.379      2.987      3.481      1.084      0.933      1.924      1.068      0.995      1.258     30.496     33.895
   1735.500    373.862     27.771   -999.250    951.250      5.867      3.468      2.654      1.035      0.906      1.975      1.005      0.995      1.232     30.926     34.533
   1735.625    376.065     28.357   -999.250    960.000      5.964      2.038      1.658      1.026      0.857      2.058      1.005      0.991      1.195     31.218     35.174
   1735.750    373.600     29.848   -999.250    971.250      5.556      1.038      1.076      1.039      0.830      2.058      1.005      0.985      1.147     31.849     35.655
   1735.875    371.292     30.250   -999.250    993.125      5.848      1.848      1.848      1.064      0.780      1.899      1.047      0.965      1.113     32.146     35.974
