~Version Information Block
 VERS.                2.00:     CWLS LOG ASCII STANDARD - VERSION 2.000000
 WRAP.                  NO:     One Line Per Depth Step
#
~Well Information Block
#MNEM.UNIT                     Data                         Information
#----------   ------------------------------------------   ----------------
 STRT.M                                        189.625:
 STOP.M                                       2185.000:
 STEP.M                                          0.125:
 NULL.                                        -999.250:
 COMP.                                   ²â¾®Êý¾Ý¿âµ¼³ö:     COMPANY 
 WELL.                                         ¹ÂÄÏ152-4:     Well 
 FLD .                                                :     Field 
 LOC .                                                :     LOCATION
 CNTY.                                                :     COUNTY
 STAT.                                                :     STATE
 CTRY.                                                :     COUNTRY
 SRVC.                                                :     SERVICE COMPANY
 DATE.                                                :     DATE
 API .                                                :     API NUMBER
#
~Curve Information Block
#MNEM.UNIT       API CODE      Curve Description
#----------    -------------   -------------------
 DEPT.M                    :   Depth in Meters
 AC  .Î¢Ãë/Ã×                      :   AC
 CAL .ÀåÃ×                      :   CAL
 CAL .ÀåÃ×                      :   CAL
 COND.mS/m                      :   COND
 GR  .Î¢ÂØÇÙ/Ð¡Ê±                      :   GR
 RLML.Å·Ä·Ã×                      :   RLML
 RNML.Å·Ä·Ã×                      :   RNML
 R04 .Å·Ä·Ã×                      :   R04
 R25 .Å·Ä·Ã×                      :   R25
 R25 .Å·Ä·Ã×                      :   R25
 R4  .Å·Ä·Ã×                      :   R4
 SP  .ºÁ·ü                      :   SP
 SP  .ºÁ·ü                      :   SP
#
~A  DEPTH          AC        CAL        CAL       COND         GR       RLML       RNML        R04        R25        R25         R4         SP         SP
# ...
   1613.125    337.659     24.272   -999.250    833.903      7.681      0.987      1.335      3.150      1.435      1.333      1.077    138.333    109.172
   1613.250    328.097     23.654   -999.250    834.720      7.884      1.292      1.592      3.144      1.463      1.337      1.057    137.970    108.706
   1613.375    334.578     23.043   -999.250    835.517      7.363      1.710      1.851      3.137      1.489      1.367      1.071    137.750    108.534
   1613.500    338.297     22.671   -999.250    838.705      6.917      1.524      2.003      3.130      1.516      1.365      1.079    137.567    108.226
   1613.625    319.809     22.986   -999.250    841.813      6.629      1.162      1.690      3.121      1.515      1.365      1.094    137.375    108.056
   1613.750    332.024     23.506   -999.250    844.921      7.104      1.577      1.633      3.105      1.440      1.370      1.110    137.188    107.907
   1613.875    338.297     24.050   -999.250    848.029      7.158      1.408      1.497      3.093      1.364      1.379      1.126    137.023    107.897
   1614.000    326.184     24.002   -999.250    851.452      6.861      1.155      1.814      3.029      1.287      1.388      1.118    137.022    107.906
   1614.125    330.009     23.530   -999.250    853.685      6.387      1.769      2.022      2.884      1.235      1.381      1.103    137.023    107.897
   1614.250    323.634     23.130   -999.250    856.169      6.826      1.467      1.710      2.818      1.236      1.346      1.087    137.018    107.904
   1614.375    360.610     23.824   -999.250    858.654      6.637      1.600      1.556      2.863      1.260      1.311      1.071    136.886    107.896
   1614.500    357.210     24.709   -999.250    861.013      6.455      1.241      1.768      2.860      1.287      1.277      1.056    136.908    108.064
   1614.625    348.922     25.166   -999.250    861.013      7.249      1.720      1.860      2.676      1.311      1.263      1.072    136.858    108.055
   1614.750    346.326     24.544   -999.250    861.013      6.782      1.315      1.417      2.498      1.353      1.263      1.109    136.845    108.223
   1614.875    352.960     23.773   -999.250    861.013      7.011      1.124      1.625      2.430      1.401      1.269      1.119    137.032    108.691
   1615.000    338.616     23.682   -999.250    861.013      6.987      1.049      1.270      2.386      1.453      1.315      1.207    137.142    108.861
   1615.125    321.084     24.310   -999.250    857.826      6.920      1.849      1.999      2.386      1.501      1.361      1.328    137.381    109.088
   1615.250    326.184     24.381   -999.250    851.452      6.624      2.158      1.742      2.385      1.516      1.407      1.404    137.766    109.419
   1615.375    321.307     24.137   -999.250    845.177      6.335      1.401      1.380      2.392      1.515      1.453      1.485    138.194    109.725
   1615.500    315.346     23.460   -999.250    838.740      6.080      1.293      2.296      2.464      1.408      1.499      1.532    138.627    110.057
   1615.625    361.248     24.043   -999.250    832.303      6.419      2.867      1.831      2.589      1.314      1.517      1.420    139.147    110.522
   1615.750    354.076     25.707   -999.250    825.866      6.583      1.171      1.022      2.757      1.224      1.452      1.303    139.799    110.855
   1615.875    333.197     26.509   -999.250    819.582      6.338      0.839      1.816      2.871      1.159      1.347      1.185    140.493    111.559
   1616.000    343.141     24.981   -999.250    816.710      6.674      2.421      1.247      2.810      1.136      1.242      1.070    141.213    112.130
   1616.125    352.960     25.325   -999.250    817.747      6.493      1.102      1.394      2.697      1.084      1.160      0.997    141.841    112.516
   1616.250    320.446     26.018   -999.250    818.784      6.038      1.637      1.706      2.585      1.044      1.108      0.981    142.581    113.087
   1616.375    327.459     26.190   -999.250    819.582      6.446      1.459      1.561      2.472      1.000      1.058      0.952    142.882    113.793
   1616.500    314.191     27.073   -999.250    819.582      6.320      2.248      1.661      2.359      0.959      1.004      0.947    143.365    114.282
   1616.625    304.508     28.029   -999.250    816.866      6.511      1.395      1.064      2.336      0.955      0.983      0.928    143.736    114.752
   1616.750    335.747     28.994   -999.250    809.804      6.091      0.830      1.336      2.458      0.933      0.956      0.926    144.215    115.319
   1616.875    335.747     29.948   -999.250    802.742      6.379      2.304      1.966      2.670      0.903      0.964      0.926    144.695    116.030
   1617.000    319.809     31.032   -999.250    795.680      6.098      1.672      1.611      2.819      0.882      0.969      0.913    145.176    116.753
   1617.125    335.787     31.603   -999.250    788.618      6.031      0.906      0.920      2.749      0.903      0.974      0.906    145.661    117.545
   1617.250    343.716     29.598   -999.250    775.192      6.221      0.871      1.730      2.854      0.983      0.980      0.924    146.008    118.347
   1617.375    367.623     28.077   -999.250    762.217      6.095      2.213      1.526      3.018      1.132      1.009      0.977    146.445    119.219
   1617.500    386.749     29.741   -999.250    746.282      6.402      1.331      0.987      3.175      1.300      1.105      1.104    146.997    120.339
   1617.625    393.124     31.740   -999.250    730.347      6.728      0.893      0.814      3.141      1.768      1.270      1.544    147.810    121.449
   1617.750    348.975     33.036   -999.250    708.038      7.052      0.860      0.923      3.124      2.282      1.724      2.244    148.976    122.570
   1617.875    287.933     30.726   -999.250    690.404      7.336      1.035      1.195      3.060      2.795      2.285      2.936    149.993    123.678
   1618.000    249.681     28.230   -999.250    669.885      7.135      1.210      1.310      2.928      3.307      2.942      3.582    151.068    124.881
   1618.125    198.630     25.742   -999.250    650.845      6.996      1.540      2.338      2.843      3.755      3.626      3.946    152.338    126.543
   1618.250    171.266     23.839   -999.250    633.067      7.430      1.826      2.030      2.793      3.728      3.611      3.236    153.614    128.227
   1618.375    226.584     24.421   -999.250    616.553      7.819      1.240      0.963      2.837      3.098      2.865      2.624    154.985    129.566
   1618.500    265.619     25.684   -999.250    600.850      8.226      0.870      0.796      2.730      2.521      2.286      1.943    156.338    131.095
   1618.625    276.400     25.109   -999.250    589.377      8.615      0.823      0.822      2.583      1.950      1.772      1.453    158.157    132.670
   1618.750    313.274     26.640   -999.250    584.596      8.969      0.830      0.948      2.437      1.514      1.461      1.134    159.877    134.440
   1618.875    318.885     26.943   -999.250    585.871      8.731      1.257      1.067      2.290      1.264      1.240      0.968    161.588    136.252
   1619.000    315.984     24.753   -999.250    590.970      9.098      0.937      1.109      2.143      1.081      1.083      0.826    163.319    137.386
   1619.125    357.423     24.724   -999.250    596.388      8.962      1.068      0.963      2.030      0.934      0.957      0.768    165.140    138.963
   1619.250    389.299     25.224   -999.250    600.850      9.150      1.308      1.069      2.000      0.902      0.901      0.761    166.566    140.013
   1619.375    380.590     25.290   -999.250    600.850      9.038      1.127      0.904      2.001      0.884      0.847      0.789    167.981    140.716
   1619.500    361.885     24.346   -999.250    598.300      9.335      0.806      0.861      2.039      0.851      0.828      0.844    169.446    141.128
