~Version Information Block
 VERS.                2.00:     CWLS LOG ASCII STANDARD - VERSION 2.000000
 WRAP.                  NO:     One Line Per Depth Step
#
~Well Information Block
#MNEM.UNIT                     Data                         Information
#----------   ------------------------------------------   ----------------
 STRT.M                                        189.625:
 STOP.M                                       2185.000:
 STEP.M                                          0.125:
 NULL.                                        -999.250:
 COMP.                                   ²â¾®Êý¾Ý¿âµ¼³ö:     COMPANY 
 WELL.                                         ¹ÂÄÏ152-4:     Well 
 FLD .                                                :     Field 
 LOC .                                                :     LOCATION
 CNTY.                                                :     COUNTY
 STAT.                                                :     STATE
 CTRY.                                                :     COUNTRY
 SRVC.                                                :     SERVICE COMPANY
 DATE.                                                :     DATE
 API .                                                :     API NUMBER
#
~Curve Information Block
#MNEM.UNIT       API CODE      Curve Description
#----------    -------------   -------------------
 DEPT.M                    :   Depth in Meters
 AC  .Î¢Ãë/Ã×                      :   AC
 CAL .ÀåÃ×                      :   CAL
 CAL .ÀåÃ×                      :   CAL
 COND.mS/m                      :   COND
 GR  .Î¢ÂØÇÙ/Ð¡Ê±                      :   GR
 RLML.Å·Ä·Ã×                      :   RLML
 RNML.Å·Ä·Ã×                      :   RNML
 R04 .Å·Ä·Ã×                      :   R04
 R25 .Å·Ä·Ã×                      :   R25
 R25 .Å·Ä·Ã×                      :   R25
 R4  .Å·Ä·Ã×                      :   R4
 SP  .ºÁ·ü                      :   SP
 SP  .ºÁ·ü                      :   SP
#
~A  DEPTH          AC        CAL        CAL       COND         GR       RLML       RNML        R04        R25        R25         R4         SP         SP
# ...
   1171.125    373.679     25.491   -999.250    378.718      6.339      1.330      1.305      3.324      3.070      3.275      2.504    164.093    134.368
   1171.250    347.443     28.644   -999.250    370.432      6.180      0.880      1.185      3.509      3.071      3.408      2.610    164.110    134.349
   1171.375    340.209     30.457   -999.250    365.333      5.950      1.612      1.343      3.666      3.225      3.492      2.707    163.948    134.209
   1171.500    362.523     33.097   -999.250    359.198      5.700      1.279      0.954      3.853      3.351      3.584      2.793    163.778    134.190
   1171.625    378.461     32.280   -999.250    353.860      5.851      0.842      0.987      4.005      3.552      3.678      2.934    163.795    133.890
   1171.750    403.133     29.668   -999.250    349.905      6.185      1.161      1.331      4.166      3.758      3.801      3.080    163.617    133.873
   1171.875    416.075     27.190   -999.250    346.001      6.473      1.574      1.522      4.319      3.995      4.003      3.331    163.583    133.729
   1172.000    407.752     25.067   -999.250    344.299      6.712      1.046      1.331      4.470      4.221      4.215      3.603    163.465    133.716
   1172.125    391.108     23.915   -999.250    343.661      6.951      1.549      2.104      4.622      4.442      4.429      3.875    163.283    133.568
   1172.250    377.823     23.416   -999.250    343.661      7.159      2.064      1.965      4.731      4.668      4.632      4.130    163.262    133.560
   1172.375    363.798     23.150   -999.250    345.574      7.449      1.298      1.748      4.569      4.773      4.789      4.338    163.144    133.565
   1172.500    339.572     22.991   -999.250    349.398      7.376      1.635      2.131      4.328      4.645      4.862      4.501    163.139    133.403
   1172.625    318.746     22.973   -999.250    359.497      7.445      2.109      2.464      4.089      4.437      4.706      4.318    163.153    133.403
   1172.750    301.958     23.268   -999.250    373.659      7.372      2.398      2.242      3.848      4.232      4.474      4.060    162.977    133.406
   1172.875    295.583     23.959   -999.250    387.642      7.515      1.763      1.768      3.559      4.024      4.241      3.782    162.981    133.401
   1173.000    326.002     25.317   -999.250    398.477      7.498      1.143      1.572      3.265      3.808      4.009      3.551    162.979    133.248
   1173.125    364.059     26.665   -999.250    410.588      7.944      1.257      0.915      3.014      3.604      3.806      3.389    162.982    133.400
   1173.250    410.576     26.008   -999.250    423.973      8.185      0.888      1.004      2.814      3.426      3.674      3.235    162.968    133.408
   1173.375    472.814     25.089   -999.250    439.908      7.814      1.288      1.214      2.630      3.300      3.574      3.058    163.010    133.400
   1173.500    505.328     24.158   -999.250    457.118      8.190      1.153      1.482      2.477      3.222      3.451      2.961    163.134    133.567
   1173.625    520.270     23.311   -999.250    472.415      8.285      1.280      1.362      2.322      3.148      3.281      2.736    163.115    133.559
   1173.750    534.016     22.440   -999.250    487.075      8.620      1.389      1.299      2.156      3.069      3.073      2.555    163.303    133.566
   1173.875    537.842     21.843   -999.250    499.186      9.176      1.521      1.391      2.036      2.948      2.902      2.455    163.429    133.879
   1174.000    536.566     21.490   -999.250    511.615      8.939      1.471      1.240      1.979      2.802      2.802      2.406    163.590    133.883
   1174.125    535.291     21.333   -999.250    523.407      8.801      1.459      1.337      1.901      2.640      2.760      2.329    163.617    134.039
   1174.250    535.291     21.265   -999.250    534.880      8.562      1.522      1.391      1.875      2.611      2.718      2.276    163.776    134.200
   1174.375    537.204     21.228   -999.250    544.759      8.839      1.486      1.292      1.878      2.639      2.691      2.265    163.933    134.199
   1174.500    539.754     21.164   -999.250    553.152      8.872      1.558      1.355      1.840      2.710      2.689      2.225    163.913    134.359
   1174.625    541.029     21.074   -999.250    558.463      8.557      1.488      1.298      1.816      2.789      2.707      2.194    164.100    134.359
   1174.750    541.029     20.571   -999.250    560.375      8.472      1.482      1.260      1.792      2.866      2.742      2.194    164.218    134.517
   1174.875    541.547     20.080   -999.250    560.375      8.922      1.434      1.359      1.769      2.843      2.747      2.213    164.255    134.518
   1175.000    541.325     19.685   -999.250    556.551      9.197      1.401      1.259      1.748      2.840      2.764      2.217    164.253    134.517
   1175.125    541.103     19.624   -999.250    551.423      8.791      1.315      1.318      1.747      2.842      2.793      2.252    164.251    134.678
   1175.250    540.392     19.944   -999.250    546.478      8.983      1.347      1.367      1.750      2.814      2.791      2.304    164.252    134.676
   1175.375    537.204     20.259   -999.250    541.532      8.708      1.372      1.265      1.796      2.765      2.773      2.302    164.252    134.678
   1175.500    531.112     20.570   -999.250    538.067      8.287      1.396      1.374      1.870      2.689      2.704      2.326    164.252    134.676
   1175.625    525.091     20.778   -999.250    529.143      8.686      1.446      1.342      1.950      2.616      2.624      2.340    164.252    134.678
   1175.750    518.716     21.251   -999.250    523.407      8.524      1.461      1.400      2.042      2.540      2.547      2.407    164.252    134.676
   1175.875    512.341     21.894   -999.250    517.670      8.155      1.451      1.454      2.136      2.467      2.476      2.471    164.252    134.679
   1176.000    506.284     22.466   -999.250    513.208      7.872      1.524      1.320      2.229      2.433      2.428      2.537    164.252    134.676
   1176.125    499.590     22.376   -999.250    506.834      7.674      1.556      1.412      2.322      2.409      2.497      2.591    164.251    134.679
   1176.250    492.577     21.981   -999.250    500.460      7.897      1.475      1.284      2.372      2.408      2.592      2.720    164.249    134.675
   1176.375    484.927     22.110   -999.250    494.724      8.324      1.307      1.388      2.415      2.536      2.688      2.899    164.252    134.680
   1176.500    476.639     23.284   -999.250    487.712      7.873      1.546      1.220      2.458      2.696      2.785      3.048    164.076    134.675
   1176.625    471.901     23.009   -999.250    481.339      8.368      1.289      1.377      2.501      2.863      2.872      3.244    164.090    134.680
   1176.750    466.816     22.512   -999.250    473.690      7.844      1.496      1.274      2.544      3.044      2.941      3.368    164.090    134.675
   1176.875    461.976     22.284   -999.250    469.675      7.700      1.429      1.556      2.563      3.045      2.971      3.366    164.093    134.521
   1177.000    471.645     23.368   -999.250    465.134      7.975      1.743      1.237      2.552      2.889      2.950      3.258    163.911    134.675
   1177.125    485.113     24.399   -999.250    460.942      7.902      1.352      1.306      2.509      2.713      2.889      3.128    163.903    134.681
   1177.250    497.678     24.013   -999.250    461.579      8.161      1.347      1.210      2.468      2.535      2.774      3.033    163.885    134.675
   1177.375    504.053     23.555   -999.250    464.846      7.549      1.344      1.280      2.461      2.439      2.659      2.932    163.864    134.680
   1177.500    504.690     24.366   -999.250    467.953      8.103      1.536      1.359      2.491      2.549      2.617      2.852    163.842    134.516
