~Version Information Block
 VERS.                2.00:     CWLS LOG ASCII STANDARD - VERSION 2.000000
 WRAP.                  NO:     One Line Per Depth Step
#
~Well Information Block
#MNEM.UNIT                     Data                         Information
#----------   ------------------------------------------   ----------------
 STRT.M                                        195.000:
 STOP.M                                       2555.000:
 STEP.M                                          0.125:
 NULL.                                        -999.250:
 COMP.                                   ²â¾®Êý¾Ý¿âµ¼³ö:     COMPANY 
 WELL.                                        ¹ÂÄÏ152-08:     Well 
 FLD .                                                :     Field 
 LOC .                                                :     LOCATION
 CNTY.                                                :     COUNTY
 STAT.                                                :     STATE
 CTRY.                                                :     COUNTRY
 SRVC.                                                :     SERVICE COMPANY
 DATE.                                                :     DATE
 API .                                                :     API NUMBER
#
~Curve Information Block
#MNEM.UNIT       API CODE      Curve Description
#----------    -------------   -------------------
 DEPT.M                    :   Depth in Meters
 AC  .Î¢Ãë/Ã×                      :   AC
 CAL .ÀåÃ×                      :   CAL
 CAL .ÀåÃ×                      :   CAL
 COND.mS/m                      :   COND
 GR  .Î¢Â×ÇÙ                      :   GR
 RLML.Å·Ä·Ã×                      :   RLML
 RNML.Å·Ä·Ã×                      :   RNML
 R04 .Å·Ä·Ã×                      :   R04
 R25 .Å·Ä·Ã×                      :   R25
 R4  .Å·Ä·Ã×                      :   R4
 RFOC.Å·Ä·Ã×                      :   RFOC
 RILD.Å·Ä·Ã×                      :   RILD
 RILM.Å·Ä·Ã×                      :   RILM
 SP  .mv                      :   SP
 SP  .ºÁ·ü                      :   SP
#
~A  DEPTH          AC        CAL        CAL       COND         GR       RLML       RNML        R04        R25         R4       RFOC       RILD       RILM         SP         SP
# ...
   1500.250    387.445     25.198   -999.250    620.395      5.465      0.872      0.872      1.319      1.646      2.580      1.273      1.542      1.690     49.971     53.288
   1500.375    389.648     25.343   -999.250    613.816      5.397      1.443      1.481      1.247      1.623      2.522      1.193      1.542      1.707     49.171     52.474
   1500.500    375.698     25.651   -999.250    608.553      5.593      0.769      0.782      1.171      1.620      2.464      1.102      1.558      1.796     48.433     51.687
   1500.625    361.013     26.115   -999.250    607.895      5.898      1.076      1.165      1.162      1.572      2.464      1.136      1.574      1.815     47.568     50.876
   1500.750    348.532     26.485   -999.250    611.184      6.460      0.897      0.923      1.257      1.569      2.522      1.258      1.574      1.815     46.677     49.925
   1500.875    338.987     26.876   -999.250    619.079      6.268      1.557      1.709      1.392      1.572      2.580      1.337      1.526      1.815     45.720     49.118
   1501.000    338.987     27.218   -999.250    630.263      6.001      0.667      0.667      1.468      1.569      2.667      1.407      1.465      1.852     44.645     48.323
   1501.125    345.446     27.407   -999.250    658.442      5.546      1.684      1.810      1.409      1.572      2.667      1.364      1.443      1.833     43.932     47.199
   1501.250    356.264     27.185   -999.250    685.714      5.191      0.782      0.795      1.362      1.569      2.696      1.344      1.365      1.820     43.317     46.241
   1501.375    363.216     26.315   -999.250    708.125      5.065      1.304      1.380      1.326      1.547      2.638      1.310      1.317      1.768     42.320     45.280
   1501.500    362.482     25.994   -999.250    727.500      5.284      0.795      1.177      1.307      1.518      2.580      1.310      1.310      1.700     41.820     44.478
   1501.625    361.013     26.088   -999.250    741.250      5.519      1.304      1.114      1.362      1.470      2.522      1.337      1.284      1.632     40.985     43.839
   1501.750    359.545     26.411   -999.250    754.487      5.672      1.759      1.937      1.386      1.442      2.493      1.351      1.258      1.558     40.412     43.517
   1501.875    369.090     26.667   -999.250    759.615      5.404      1.177      1.190      1.382      1.394      2.435      1.364      1.251      1.526     40.127     43.198
   1502.000    366.450     26.375   -999.250    745.000      5.013      1.557      1.709      1.413      1.391      2.435      1.364      1.245      1.511     39.927     43.035
   1502.125    365.357     25.763   -999.250    735.000      4.821      0.513      0.923      1.369      1.394      2.406      1.337      1.258      1.498     39.636     43.038
   1502.250    366.153     26.875   -999.250    723.125      4.702      1.101      1.203      1.297      1.417      2.406      1.271      1.310      1.495     39.402     42.873
   1502.375    365.419     27.950   -999.250    712.500      4.493      0.538      2.141      1.259      1.470      2.406      1.220      1.337      1.495     39.353     42.877
   1502.500    363.950     28.268   -999.250    740.625      4.720      1.949      0.615      1.252      1.519      2.435      1.207      1.323      1.495     39.346     42.871
   1502.625    368.355     27.319   -999.250    767.308      5.710      0.615      1.051      1.270      1.521      2.464      1.258      1.297      1.526     39.506     42.876
   1502.750    366.153     26.967   -999.250    793.590      5.415      1.684      1.835      1.305      1.545      2.464      1.284      1.244      1.542     39.842     42.868
   1502.875    364.684     27.011   -999.250    816.667      4.889      1.013      1.063      1.336      1.546      2.464      1.284      1.183      1.558     39.956     42.877
   1503.000    366.153     26.453   -999.250    832.692      5.000      1.101      0.667      1.297      1.545      2.435      1.258      1.147      1.558     39.960     42.866
   1503.125    366.887     26.040   -999.250    844.872      5.185      0.718      0.936      1.226      1.520      2.406      1.195      1.124      1.526     39.960     42.877
   1503.250    367.942     26.351   -999.250    857.143      5.401      1.557      1.646      1.211      1.443      2.348      1.171      1.102      1.542     39.961     42.863
   1503.375    370.558     27.155   -999.250    870.000      5.144      0.705      0.705      1.236      1.418      2.348      1.195      1.090      1.496     39.962     42.558
   1503.500    371.292     28.112   -999.250    884.286      5.337      1.468      1.633      1.222      1.367      2.406      1.195      1.079      1.428     39.932     42.383
   1503.625    369.824     28.476   -999.250    905.195      5.203      0.756      0.833      1.207      1.316      2.464      1.195      1.068      1.364     39.595     42.081
   1503.750    374.367     28.511   -999.250    918.182      5.156      1.089      1.076      1.218      1.290      2.435      1.195      1.058      1.323     39.148     41.903
   1503.875    381.571     28.281   -999.250    927.922      5.019      1.608      1.696      1.110      1.239      2.290      1.047      1.036      1.303     38.715     41.603
   1504.000    381.571     28.951   -999.250    933.117      4.932      0.654      0.846      1.073      1.213      2.232      1.036      1.026      1.284     38.410     41.425
   1504.125    383.774     29.689   -999.250    934.416      4.751      1.570      1.544      1.137      1.214      2.174      1.113      1.026      1.271     38.178     41.284
   1504.250    379.919     31.014   -999.250    934.416      4.279      0.667      0.628      1.180      1.213      2.116      1.136      1.026      1.271     38.074     41.268
   1504.375    377.166     30.055   -999.250    934.416      4.386      0.756      0.564      1.165      1.266      2.145      1.136      1.015      1.271     37.889     41.125
   1504.500    385.242     29.484   -999.250    935.065      4.627      0.590      0.821      1.179      1.289      2.203      1.136      1.005      1.284     37.900     41.111
   1504.625    387.445     29.458   -999.250    935.065      4.733      0.923      1.165      1.176      1.342      2.261      1.124      1.003      1.284     38.027     41.126
   1504.750    388.179     29.537   -999.250    937.662      4.620      1.405      1.519      1.185      1.390      2.290      1.159      1.000      1.271     38.174     41.274
   1504.875    391.850     29.036   -999.250    944.805      4.600      0.667      1.089      1.224      1.394      2.348      1.195      0.997      1.258     38.427     41.603
   1505.000    391.850     29.014   -999.250    950.625      4.582      2.167      1.709      1.263      1.416      2.348      1.220      0.995      1.271     38.765     41.758
   1505.125    398.091     29.116   -999.250    957.500      4.680      0.846      2.333      1.194      1.343      2.261      1.195      0.985      1.258     39.325     42.080
   1505.250    402.863     28.305   -999.250    960.625      4.969      1.228      1.494      1.174      1.288      2.174      1.103      0.985      1.195     39.682     42.881
   1505.375    408.150     27.244   -999.250    950.000      5.612      1.114      1.000      1.064      1.216      2.116      1.015      0.995      1.159     40.268     43.997
   1505.500    409.471     29.206   -999.250    931.169      6.296      0.974      1.190      1.003      1.186      2.029      0.985      1.005      1.136     40.891     45.764
   1505.625    408.186     31.911   -999.250    924.026      5.747      0.615      0.872      1.050      1.139      2.000      1.005      1.015      1.136     41.537     46.874
   1505.750    404.332     33.970   -999.250    920.130      5.222      0.808      0.551      1.141      1.212      2.058      1.083      1.026      1.147     42.590     48.165
   1505.875    409.104     33.464   -999.250    914.286      6.026      2.205      2.321      1.247      1.266      2.058      1.204      1.036      1.220     43.494     49.592
