~Version Information Block
 VERS.                2.00:     CWLS LOG ASCII STANDARD - VERSION 2.000000
 WRAP.                  NO:     One Line Per Depth Step
#
~Well Information Block
#MNEM.UNIT                     Data                         Information
#----------   ------------------------------------------   ----------------
 STRT.M                                        110.000:
 STOP.M                                       2506.000:
 STEP.M                                          0.125:
 NULL.                                        -999.250:
 COMP.                                   测井数据库导出:     COMPANY 
 WELL.                                         孤南152-9:     Well 
 FLD .                                                :     Field 
 LOC .                                                :     LOCATION
 CNTY.                                                :     COUNTY
 STAT.                                                :     STATE
 CTRY.                                                :     COUNTRY
 SRVC.                                                :     SERVICE COMPANY
 DATE.                                                :     DATE
 API .                                                :     API NUMBER
#
~Curve Information Block
#MNEM.UNIT       API CODE      Curve Description
#----------    -------------   -------------------
 DEPT.M                    :   Depth in Meters
 AC  .微秒/米                      :   AC
 CAL .厘米                      :   CAL
 COND.毫西门子/米                      :   COND
 GR  .API                      :   GR
 R25 .欧姆米                      :   R25
 R4  .欧姆米                      :   R4
 RFOC.欧姆米                      :   RFOC
 RILD.欧姆米                      :   RILD
 RILM.欧姆米                      :   RILM
 RLML.欧姆米                      :   RLML
 RNML.欧姆米                      :   RNML
 SP  .毫伏                      :   SP
#
~A  DEPTH          AC        CAL       COND         GR        R25         R4       RFOC       RILD       RILM       RLML       RNML         SP
# ...
    740.000    599.000     26.500    450.092     81.600      3.440      4.160      2.037      2.222      1.922      0.720      0.800    -12.000
    740.125    602.000     27.500    443.610     84.400      3.440      4.080      1.950      2.254      1.922      0.800      0.780    -12.250
    740.250    598.000     29.500    443.610     82.400      3.360      4.040      1.950      2.254      1.978      0.640      0.700    -12.500
    740.375    593.000     31.300    437.222     78.000      3.360      3.960      1.950      2.287      2.037      0.580      0.680    -12.500
    740.500    588.000     30.800    430.926     74.800      3.360      4.040      2.037      2.321      2.097      0.600      0.740    -12.250
    740.625    578.000     29.400    424.721     74.000      3.360      4.080      2.127      2.354      2.190      0.720      0.860    -12.000
    740.750    579.000     26.500    412.578     75.200      3.440      4.240      2.222      2.424      2.254      0.900      0.960    -12.000
    740.875    582.000     23.400    412.578     76.800      3.480      4.440      2.389      2.424      2.321      0.880      1.060    -11.750
    741.000    585.000     23.200    389.322     79.200      3.520      4.520      2.424      2.569      2.389      0.920      1.040    -11.750
    741.125    585.000     23.900    378.190     80.800      3.640      4.520      2.321      2.644      2.459      0.920      1.020    -12.000
    741.250    582.000     24.000    362.087     80.400      3.640      4.640      2.222      2.762      2.606      0.900      1.020    -12.000
    741.375    579.000     24.100    346.669     80.400      3.640      4.720      2.222      2.885      2.762      0.900      1.060    -12.000
    741.500    578.000     24.300    327.128     81.200      3.640      4.920      2.354      3.057      3.013      0.960      1.120    -11.750
    741.625    579.000     24.300    322.418     81.200      3.720      5.120      2.532      3.102      3.240      1.040      1.220    -11.750
    741.750    582.000     24.900    308.689     80.000      3.840      5.400      2.644      3.240      3.433      1.000      1.200    -11.750
    741.875    585.000     25.400    299.863     78.400      4.000      5.720      2.683      3.335      3.534      0.920      1.080    -12.000
    742.000    577.000     26.200    291.289     77.600      4.160      6.200      2.722      3.433      3.745      0.780      0.960    -12.000
    742.125    550.000     26.600    282.960     76.000      4.320      6.200      2.762      3.534      3.912      0.680      0.920    -12.000
    742.250    530.000     26.600    282.960     73.600      4.440      6.440      2.843      3.534      3.912      0.660      0.900    -12.000
    742.375    530.000     26.600    282.960     72.800      4.640      6.560      2.843      3.534      3.969      0.680      0.960    -12.000
    742.500    537.000     26.500    291.289     74.000      4.680      6.720      2.927      3.433      3.855      0.780      1.080    -12.000
    742.625    541.000     26.400    299.863     75.200      4.840      6.720      2.927      3.335      3.691      0.920      1.120    -11.750
    742.750    545.000     25.900    313.199     73.200      4.840      6.720      2.843      3.193      3.384      0.940      1.140    -11.250
    742.875    552.000     25.600    327.128     71.600      4.840      6.560      2.644      3.057      3.102      0.880      1.100    -11.250
    743.000    558.000     26.100    341.677     74.000      4.720      6.280      2.354      2.927      2.885      0.840      1.000    -11.500
    743.125    564.000     26.400    351.734     80.000      4.480      5.800      2.190      2.843      2.722      0.700      0.900    -12.000
    743.250    565.000     26.100    367.377     82.800      4.200      5.280      2.158      2.722      2.606      0.680      0.860    -12.250
    743.375    563.000     25.500    378.190     81.200      3.840      4.720      2.158      2.644      2.495      0.740      0.860    -12.250
    743.500    559.000     25.400    389.322     79.600      3.560      4.240      2.158      2.569      2.424      0.780      0.840    -12.500
    743.625    557.000     25.100    389.322     79.600      3.320      3.960      2.158      2.569      2.389      0.880      0.900    -12.250
    743.750    554.000     24.100    389.322     80.000      3.160      3.840      2.190      2.569      2.389      1.000      0.960    -12.250
    743.875    551.000     24.700    389.322     79.600      3.080      3.680      2.190      2.569      2.389      0.960      0.900    -12.500
    744.000    547.000     25.900    372.744     79.200      3.080      3.680      2.158      2.683      2.459      0.840      0.860    -12.500
    744.125    544.000     27.100    362.087     78.400      3.160      3.760      2.158      2.762      2.644      0.660      0.780    -12.500
    744.250    542.000     26.200    341.677     74.000      3.160      3.840      2.190      2.927      2.843      0.580      0.760    -12.500
    744.375    538.000     26.100    317.775     68.400      3.360      3.960      2.321      3.147      3.147      0.760      0.920    -12.500
    744.500    531.000     25.900    304.244     66.400      3.560      4.280      2.495      3.287      3.384      1.000      1.140    -12.500
    744.625    520.000     26.600    291.289     68.400      3.880      4.560      2.683      3.433      3.691      0.940      1.200    -12.500
    744.750    512.000     27.100    278.886     73.200      4.280      4.840      2.885      3.586      3.969      0.940      1.280    -12.000
    744.875    507.000     27.500    270.912     76.000      4.600      5.120      3.013      3.691      4.206      0.940      1.320    -11.500
    745.000    506.000     28.000    263.166     75.200      4.960      5.480      3.013      3.800      4.267      1.000      1.380    -11.250
    745.125    511.000     28.200    259.377     71.200      5.360      5.880      2.970      3.855      4.206      1.340      1.540    -11.250
    745.250    520.000     28.200    259.377     65.600      5.560      5.880      2.843      3.855      4.145      1.540      1.540    -11.250
    745.375    533.000     28.300    263.166     62.400      5.720      5.880      2.762      3.800      4.145      1.540      1.580    -11.250
    745.500    544.000     29.100    274.870     63.600      5.760      5.880      2.683      3.638      4.086      1.260      1.400    -11.250
    745.625    550.000     29.400    291.289     67.600      5.760      5.880      2.644      3.433      3.912      0.860      1.120    -11.250
    745.750    550.000     29.500    304.244     70.400      5.720      5.880      2.569      3.287      3.586      0.840      1.060    -11.500
    745.875    550.000     28.500    317.775     71.200      5.640      5.960      2.424      3.147      3.335      0.900      1.100    -11.500
    746.000    551.000     27.300    331.908     72.000      5.440      5.880      2.287      3.013      3.057      0.980      1.040    -11.750
    746.125    553.000     26.100    346.669     73.200      5.200      5.680      2.222      2.885      2.885      0.960      1.000    -12.000
    746.250    557.000     24.800    356.873     76.000      4.920      5.480      2.254      2.802      2.722      1.040      1.060    -12.500
    746.375    560.000     24.100    367.377     78.000      4.560      5.280      2.287      2.722      2.606      1.040      1.060    -12.500
    746.500    564.000     23.900    378.190     79.200      4.320      5.080      2.254      2.644      2.495      1.040      1.060    -12.500
    746.625    566.000     24.000    389.322     79.200      4.120      4.920      2.254      2.569      2.424      1.000      1.060    -12.500
    746.750    565.000     24.300    400.781     78.400      4.000      4.840      2.190      2.495      2.354      0.900      1.020    -12.500
    746.875    558.000     24.400    406.637     75.200      3.840      4.640      2.158      2.459      2.254      0.860      0.960    -12.250
