~Version Information Block
 VERS.                2.00:     CWLS LOG ASCII STANDARD - VERSION 2.000000
 WRAP.                  NO:     One Line Per Depth Step
#
~Well Information Block
#MNEM.UNIT                     Data                         Information
#----------   ------------------------------------------   ----------------
 STRT.M                                        110.000:
 STOP.M                                       2506.000:
 STEP.M                                          0.125:
 NULL.                                        -999.250:
 COMP.                                   测井数据库导出:     COMPANY 
 WELL.                                         孤南152-9:     Well 
 FLD .                                                :     Field 
 LOC .                                                :     LOCATION
 CNTY.                                                :     COUNTY
 STAT.                                                :     STATE
 CTRY.                                                :     COUNTRY
 SRVC.                                                :     SERVICE COMPANY
 DATE.                                                :     DATE
 API .                                                :     API NUMBER
#
~Curve Information Block
#MNEM.UNIT       API CODE      Curve Description
#----------    -------------   -------------------
 DEPT.M                    :   Depth in Meters
 AC  .微秒/米                      :   AC
 CAL .厘米                      :   CAL
 COND.毫西门子/米                      :   COND
 GR  .API                      :   GR
 R25 .欧姆米                      :   R25
 R4  .欧姆米                      :   R4
 RFOC.欧姆米                      :   RFOC
 RILD.欧姆米                      :   RILD
 RILM.欧姆米                      :   RILM
 RLML.欧姆米                      :   RLML
 RNML.欧姆米                      :   RNML
 SP  .毫伏                      :   SP
#
~A  DEPTH          AC        CAL       COND         GR        R25         R4       RFOC       RILD       RILM       RLML       RNML         SP
# ...
   2364.000    237.000     22.300    165.446     61.200      9.360     11.360      9.614      6.044      8.686      4.540      3.960      3.500
   2364.125    237.000     22.300    158.401     63.600      9.800     12.120      8.942      6.313      8.686      6.700      4.620      3.000
   2364.250    239.000     22.200    149.472     63.600     10.280     12.720      7.623      6.690      8.942      5.720      3.860      2.500
   2364.375    242.000     22.100    143.108     58.800     10.800     13.080      6.788      6.988      9.072      4.880      3.760      2.250
   2364.500    245.000     22.100    139.016     53.600     10.960     13.080      6.690      7.193      9.339      5.000      3.720      1.750
   2364.625    248.000     22.200    139.016     52.400     10.960     12.920      6.594      7.193      9.476      5.100      3.760      1.500
   2364.750    249.000     22.300    139.016     53.600     10.960     12.640      6.405      7.193      9.614      4.800      3.780      1.250
   2364.875    250.000     22.300    139.016     55.200     11.120     12.400      6.313      7.193      9.897      4.260      3.320      1.000
   2365.000    250.000     22.300    139.016     55.200     11.280     12.120      6.222      7.193     10.189      4.160      3.420      0.750
   2365.125    250.000     22.300    139.016     55.200     11.520     11.920      6.405      7.193     10.489      4.020      3.280      0.500
   2365.250    249.000     22.100    139.016     54.800     11.800     11.840      6.690      7.193     10.797      4.180      3.460      0.500
   2365.375    248.000     22.000    139.016     53.600     12.080     11.840      7.090      7.193     10.642      4.600      3.740      0.750
   2365.500    247.000     22.000    139.016     53.600     12.320     11.920      7.299      7.193     10.489      4.820      3.860      1.000
   2365.625    246.000     22.100    139.016     55.200     12.520     11.960      7.513      7.193     10.338      4.460      4.100      0.750
   2365.750    246.000     22.100    139.016     55.200     12.800     12.120      7.847      7.193     10.042      3.860      4.140      0.500
   2365.875    246.000     22.000    143.108     53.600     13.040     12.120      7.734      6.988      9.755      3.780      4.860      0.500
   2366.000    246.000     22.100    145.199     54.400     13.240     12.120      6.988      6.887      9.339      4.140      3.900      0.750
   2366.125    246.000     22.400    149.472     54.400     13.520     12.120      6.222      6.690      8.942      2.400      2.560      1.250
   2366.250    245.000     22.700    153.872     54.000     13.720     12.040      5.871      6.499      8.686      1.600      2.400      1.500
   2366.375    245.000     22.700    153.872     54.000     14.000     11.960      5.621      6.499      8.438      2.860      2.400      1.750
   2366.500    244.000     22.700    147.320     54.400     14.200     11.840      5.382      6.788      8.316      2.160      2.320      2.250
   2366.625    243.000     22.700    147.320     55.600     14.360     11.720      5.006      6.788      8.813      2.000      2.180      2.250
   2366.750    242.000     22.800    143.108     56.800     14.440     11.560      4.862      6.988      9.897      1.220      1.840      2.750
   2366.875    239.000     22.500    139.016     56.800     14.200     11.520      5.461      7.193     11.609      2.360      2.720      3.250
   2367.000    234.000     22.100    135.041     56.800     13.960     11.520      7.090      7.405     12.850      3.620      3.720      3.500
   2367.125    229.000     22.000    131.180     56.000     14.000     11.760      9.476      7.623     12.850      4.360      4.460      3.500
   2367.250    223.000     22.000    127.429     56.400     14.280     12.240     10.642      7.847     12.850      3.580      4.100      3.500
   2367.375    221.000     22.000    120.247     57.200     14.840     12.800     10.955      8.316     12.850      3.640      4.060      3.000
   2367.500    221.000     22.000    115.126     58.400     15.440     13.400     11.277      8.686     12.665      4.940      4.420      2.500
   2367.625    222.000     22.000    108.637     60.400     16.000     13.960     12.483      9.205     12.665      7.020      5.500      2.500
   2367.750    224.000     22.100    105.531     61.600     16.640     14.640     14.431      9.476     12.850      7.920      5.460      2.500
   2367.875    226.000     22.300    104.011     59.600     17.440     15.400     15.973      9.614     14.223      6.340      4.460      2.500
   2368.000    230.000     22.400    107.073     56.800     18.160     16.360     16.927      9.339     16.207      6.300      4.680      2.750
   2368.125    232.000     22.400    115.126     56.000     19.080     17.240     17.426      8.686     18.466      3.420      3.420      2.750
   2368.250    237.000     22.000    122.003     56.400     20.120     18.360     16.927      8.197     17.426      5.080      5.460      2.750
   2368.375    243.000     21.900    122.003     59.200     21.200     19.360     14.856      8.197     12.665      4.920      5.820      2.750
   2368.500    251.000     22.100    118.515     61.600     22.280     20.480     11.442      8.438      9.205      7.500      5.980      3.000
   2368.625    260.000     22.900    116.808     61.600     23.200     21.280      8.686      8.561      7.513      1.020      1.580      3.250
   2368.750    266.000     23.800    111.835     60.400     23.600     21.440      7.090      8.942      6.499      0.720      1.500      3.500
   2368.875    276.000     24.400    107.073     58.000     23.240     20.800      6.313      9.339      6.499      0.700      1.620      3.500
   2369.000    274.000     24.800    108.637     55.600     22.280     19.720      5.704      9.205      8.197      1.060      1.440      4.000
   2369.125    270.000     24.400    122.003     55.200     20.920     18.480      5.541      8.197      9.897      0.780      1.480      4.250
   2369.250    270.000     23.000    141.047     56.400     19.800     17.520      6.044      7.090     10.489      2.380      2.440      4.250
   2369.375    269.000     22.900    151.656     57.200     19.280     17.120      6.887      6.594     11.609      2.940      3.100      4.250
   2369.500    256.000     23.000    151.656     57.200     19.360     17.120      7.734      6.594     17.938      2.180      2.920      4.250
   2369.625    243.000     23.000    151.656     57.200     19.960     17.520      8.197      6.594     29.374      1.840      2.480      4.000
   2369.750    242.000     22.700    147.320     57.200     21.120     18.200      8.316      6.788     21.042      0.920      1.920      4.000
   2369.875    240.000     22.500    141.047     58.000     22.480     18.760      7.299      7.090     11.779      1.400      2.720      3.750
   2370.000    241.000     22.700    145.199     60.000     23.520     18.880      5.704      6.887      8.438      1.240      2.400      3.500
   2370.125    244.000     22.900    158.401     63.200     23.880     18.640      5.006      6.313      8.078      0.900      1.360      3.500
   2370.250    246.000     22.400    170.315     67.200     23.480     17.720      4.862      5.871      8.078      1.080      1.940      3.500
   2370.375    246.000     22.700    175.328     69.600     22.360     16.520      4.934      5.704      8.316      2.160      2.140      3.500
   2370.500    246.000     22.800    183.126     65.600     20.920     15.280      5.228      5.461      8.438      1.780      2.460      3.750
   2370.625    243.000     22.400    188.516     60.400     19.760     14.360      6.222      5.305      8.197      3.120      2.900      4.000
   2370.750    242.000     22.200    188.516     58.800     19.040     13.960      7.090      5.305      7.847      4.940      3.880      3.750
   2370.875    241.000     22.300    185.801     60.400     18.440     13.680      6.594      5.382      7.513      4.580      3.100      3.750
