~Version Information Block
 VERS.                2.00:     CWLS LOG ASCII STANDARD - VERSION 2.000000
 WRAP.                  NO:     One Line Per Depth Step
#
~Well Information Block
#MNEM.UNIT                     Data                         Information
#----------   ------------------------------------------   ----------------
 STRT.M                                        189.625:
 STOP.M                                       2185.000:
 STEP.M                                          0.125:
 NULL.                                        -999.250:
 COMP.                                   ²â¾®Êý¾Ý¿âµ¼³ö:     COMPANY 
 WELL.                                         ¹ÂÄÏ152-4:     Well 
 FLD .                                                :     Field 
 LOC .                                                :     LOCATION
 CNTY.                                                :     COUNTY
 STAT.                                                :     STATE
 CTRY.                                                :     COUNTRY
 SRVC.                                                :     SERVICE COMPANY
 DATE.                                                :     DATE
 API .                                                :     API NUMBER
#
~Curve Information Block
#MNEM.UNIT       API CODE      Curve Description
#----------    -------------   -------------------
 DEPT.M                    :   Depth in Meters
 AC  .Î¢Ãë/Ã×                      :   AC
 CAL .ÀåÃ×                      :   CAL
 CAL .ÀåÃ×                      :   CAL
 COND.mS/m                      :   COND
 GR  .Î¢ÂØÇÙ/Ð¡Ê±                      :   GR
 RLML.Å·Ä·Ã×                      :   RLML
 RNML.Å·Ä·Ã×                      :   RNML
 R04 .Å·Ä·Ã×                      :   R04
 R25 .Å·Ä·Ã×                      :   R25
 R25 .Å·Ä·Ã×                      :   R25
 R4  .Å·Ä·Ã×                      :   R4
 SP  .ºÁ·ü                      :   SP
 SP  .ºÁ·ü                      :   SP
#
~A  DEPTH          AC        CAL        CAL       COND         GR       RLML       RNML        R04        R25        R25         R4         SP         SP
# ...
    950.125    401.570     22.907   -999.250    414.815      6.393      1.925      2.044      3.367      2.917      2.911      2.622    158.519    128.464
    950.250    401.093     22.937   -999.250    414.479      6.450      1.871      1.982      3.380      2.943      2.930      2.626    158.523    128.459
    950.375    403.388     23.122   -999.250    414.144      6.281      1.843      2.173      3.380      2.943      2.947      2.599    158.517    128.623
    950.500    405.301     23.313   -999.250    413.808      6.517      2.011      2.115      3.380      2.943      2.981      2.602    158.439    128.618
    950.625    406.512     23.231   -999.250    413.473      6.093      1.937      2.032      3.380      2.968      3.018      2.631    158.364    128.623
    950.750    405.353     23.000   -999.250    413.137      5.734      1.918      2.134      3.380      3.020      3.055      2.678    158.375    128.617
    950.875    403.034     22.767   -999.250    412.802      5.462      1.873      2.083      3.380      3.071      3.092      2.714    158.199    128.624
    951.000    401.412     22.621   -999.250    412.500      5.553      2.035      2.200      3.395      3.097      3.128      2.735    158.203    128.776
    951.125    406.193     22.536   -999.250    412.500      5.196      1.882      2.058      3.414      3.122      3.151      2.776    158.208    128.783
    951.250    410.337     22.614   -999.250    413.137      5.831      1.757      1.953      3.433      3.122      3.169      2.804    158.329    128.936
    951.375    405.874     22.721   -999.250    414.306      6.426      1.828      2.022      3.452      3.146      3.188      2.805    158.363    128.942
    951.500    400.455     22.780   -999.250    415.368      6.211      1.956      2.072      3.471      3.173      3.206      2.784    158.360    129.096
    951.625    394.718     22.609   -999.250    416.643      5.856      1.787      2.002      3.491      3.196      3.225      2.846    158.356    129.100
    951.750    388.934     22.865   -999.250    418.555      6.174      1.734      1.985      3.507      3.224      3.243      2.900    158.385    129.256
    951.875    382.923     23.155   -999.250    420.786      5.902      1.768      2.030      3.536      3.194      3.261      3.002    158.463    129.418
    952.000    384.199     23.289   -999.250    423.336      6.109      1.682      1.967      3.565      3.199      3.278      3.067    158.521    129.416
    952.125    394.448     23.159   -999.250    425.885      6.501      1.838      2.047      3.599      3.193      3.306      3.143    158.647    129.577
    952.250    401.412     23.047   -999.250    429.072      6.843      1.814      2.096      3.634      3.276      3.338      3.186    158.683    129.575
    952.375    405.237     23.146   -999.250    434.171      6.681      1.822      2.022      3.661      3.370      3.374      3.182    158.678    129.736
    952.500    407.036     23.309   -999.250    438.633      6.857      1.998      2.191      3.653      3.455      3.443      3.293    158.663    129.733
    952.625    406.586     23.318   -999.250    445.007      6.416      1.932      2.171      3.614      3.811      3.533      3.365    158.836    129.896
    952.750    408.524     23.201   -999.250    453.293      6.632      1.895      2.100      3.574      4.112      3.757      3.478    158.817    130.050
    952.875    414.557     23.079   -999.250    461.579      7.022      1.903      2.087      3.530      4.392      3.893      3.655    158.994    130.056
    953.000    420.590     23.035   -999.250    473.052      6.493      1.868      2.081      3.455      4.525      4.100      4.032    159.026    130.209
    953.125    421.852     22.982   -999.250    483.888      6.305      1.823      1.842      2.805      4.464      4.372      4.305    159.146    130.376
    953.250    419.900     23.085   -999.250    496.636      6.278      1.339      1.632      2.457      3.975      4.555      3.946    159.141    130.526
    953.375    439.496     23.487   -999.250    508.746      7.211      1.476      1.898      2.287      3.523      4.453      3.560    159.319    130.377
    953.500    464.048     23.933   -999.250    522.132      8.009      1.789      1.637      2.174      3.091      3.847      2.971    159.312    130.525
    953.625    508.348     24.285   -999.250    531.055      8.530      1.334      1.344      2.084      2.640      3.272      2.464    159.496    130.537
    953.750    559.342     23.056   -999.250    537.330      8.240      1.342      1.283      1.958      2.207      2.776      2.156    159.602    130.524
    953.875    572.325     21.391   -999.250    540.825      8.303      1.298      1.255      1.870      1.972      2.522      2.000    159.666    130.537
    954.000    568.475     21.325   -999.250    542.528      8.150      1.130      1.155      1.803      2.006      2.317      1.925    159.784    130.524
    954.125    564.626     21.376   -999.250    539.345      8.460      1.317      1.170      1.752      2.058      2.233      1.917    159.825    130.378
    954.250    561.430     20.851   -999.250    532.788      8.641      1.452      1.280      1.746      2.122      2.153      1.917    159.943    130.206
    954.375    560.155     20.283   -999.250    526.232      8.423      1.346      1.250      1.723      2.203      2.155      1.916    159.936    130.219
    954.500    560.792     20.074   -999.250    519.675      8.469      1.359      1.234      1.700      2.234      2.156      1.945    160.113    130.206
    954.625    561.430     20.547   -999.250    513.119      8.627      1.398      1.245      1.697      2.331      2.173      1.996    160.109    130.061
    954.750    558.242     21.029   -999.250    506.834      8.968      1.136      1.241      1.705      2.361      2.252      2.064    160.111    130.047
    954.875    555.229     21.491   -999.250    498.548      8.537      1.271      1.188      1.724      2.433      2.329      2.120    160.111    130.061
    955.000    551.927     21.967   -999.250    492.174      7.736      1.477      1.301      1.744      2.462      2.407      2.183    160.111    130.046
    955.125    548.625     22.358   -999.250    486.438      7.909      1.355      1.219      1.763      2.484      2.484      2.240    160.114    129.903
    955.250    544.854     22.290   -999.250    481.339      8.235      1.338      1.269      1.782      2.537      2.564      2.290    160.128    129.727
    955.375    546.058     22.034   -999.250    477.514      8.452      1.440      1.348      1.808      2.611      2.676      2.347    159.951    129.744
    955.500    548.821     21.775   -999.250    474.111      8.162      1.376      1.294      1.860      2.688      2.791      2.394    159.952    129.727
    955.625    549.317     21.984   -999.250    470.289      8.029      1.318      1.282      1.913      2.738      2.906      2.456    159.953    129.426
    955.750    547.453     22.419   -999.250    466.468      8.706      1.509      1.310      1.966      2.840      3.021      2.522    159.776    129.568
    955.875    545.541     22.955   -999.250    464.766      8.427      1.461      1.414      2.016      2.941      3.137      2.567    159.794    129.426
    956.000    543.579     22.291   -999.250    465.722      9.059      1.473      1.349      2.061      3.017      3.252      2.632    159.813    129.410
    956.125    545.492     21.066   -999.250    468.591      9.555      1.621      1.419      2.105      3.092      3.366      2.704    159.625    129.424
    956.250    549.895     20.970   -999.250    474.301      9.210      1.608      1.446      2.149      3.168      3.374      2.755    159.684    129.411
    956.375    553.142     21.748   -999.250    479.426      9.544      1.667      1.400      2.156      3.196      3.295      2.813    159.633    129.423
    956.500    558.242     22.376   -999.250    485.163      9.139      1.478      1.417      2.155      3.171      3.155      2.860    159.631    129.413
