~Version Information Block
 VERS.                2.00:     CWLS LOG ASCII STANDARD - VERSION 2.000000
 WRAP.                  NO:     One Line Per Depth Step
#
~Well Information Block
#MNEM.UNIT                     Data                         Information
#----------   ------------------------------------------   ----------------
 STRT.M                                        189.625:
 STOP.M                                       2185.000:
 STEP.M                                          0.125:
 NULL.                                        -999.250:
 COMP.                                   ²â¾®Êý¾Ý¿âµ¼³ö:     COMPANY 
 WELL.                                         ¹ÂÄÏ152-4:     Well 
 FLD .                                                :     Field 
 LOC .                                                :     LOCATION
 CNTY.                                                :     COUNTY
 STAT.                                                :     STATE
 CTRY.                                                :     COUNTRY
 SRVC.                                                :     SERVICE COMPANY
 DATE.                                                :     DATE
 API .                                                :     API NUMBER
#
~Curve Information Block
#MNEM.UNIT       API CODE      Curve Description
#----------    -------------   -------------------
 DEPT.M                    :   Depth in Meters
 AC  .Î¢Ãë/Ã×                      :   AC
 CAL .ÀåÃ×                      :   CAL
 CAL .ÀåÃ×                      :   CAL
 COND.mS/m                      :   COND
 GR  .Î¢ÂØÇÙ/Ð¡Ê±                      :   GR
 RLML.Å·Ä·Ã×                      :   RLML
 RNML.Å·Ä·Ã×                      :   RNML
 R04 .Å·Ä·Ã×                      :   R04
 R25 .Å·Ä·Ã×                      :   R25
 R25 .Å·Ä·Ã×                      :   R25
 R4  .Å·Ä·Ã×                      :   R4
 SP  .ºÁ·ü                      :   SP
 SP  .ºÁ·ü                      :   SP
#
~A  DEPTH          AC        CAL        CAL       COND         GR       RLML       RNML        R04        R25        R25         R4         SP         SP
# ...
   1723.625    437.113     19.456   -999.250    659.275     10.368      1.177      0.993      1.724      1.594      1.696      1.333    172.523    141.606
   1723.750    421.812     19.824   -999.250    659.410      9.850      1.141      1.032      1.757      1.673      1.723      1.347    172.093    141.125
   1723.875    404.599     20.240   -999.250    654.072      9.645      1.091      1.044      1.802      1.766      1.768      1.432    171.654    140.567
   1724.000    393.761     20.071   -999.250    650.248      9.500      1.079      0.991      1.880      1.855      1.827      1.516    171.190    140.171
   1724.125    379.444     20.314   -999.250    641.962      9.463      1.201      1.065      1.969      1.947      1.930      1.595    170.633    139.448
   1724.250    362.523     20.840   -999.250    636.225      9.607      1.309      1.102      2.056      2.036      2.031      1.671    169.997    138.661
   1724.375    373.676     21.309   -999.250    629.214      9.315      1.066      1.090      2.176      2.129      2.132      1.783    169.192    137.851
   1724.500    390.905     21.725   -999.250    621.565      9.124      1.496      1.138      2.289      2.218      2.235      1.899    168.334    137.073
   1724.625    409.699     21.607   -999.250    614.503      9.273      1.411      1.256      2.431      2.311      2.311      2.015    167.330    136.256
   1724.750    410.337     21.518   -999.250    607.441      8.982      1.402      1.362      2.573      2.380      2.335      2.133    166.357    135.407
   1724.875    374.476     21.593   -999.250    606.268      9.134      1.455      1.310      2.713      2.345      2.332      2.222    165.363    134.425
   1725.000    346.585     21.797   -999.250    624.433      8.771      1.383      1.269      2.866      2.304      2.268      2.216    164.388    133.420
   1725.125    326.184     22.037   -999.250    638.137      8.369      1.291      1.225      3.053      2.232      2.184      2.171    162.906    132.913
   1725.250    310.883     22.292   -999.250    648.973      7.965      1.301      1.523      3.225      2.129      2.112      2.102    161.740    131.034
   1725.375    316.840     22.712   -999.250    657.897      8.315      1.596      1.691      3.429      2.030      2.043      2.029    160.255    129.732
   1725.500    326.184     22.854   -999.250    669.370      7.918      1.972      1.848      3.610      1.927      1.999      1.953    158.889    128.167
   1725.625    331.477     22.800   -999.250    678.931      8.207      1.667      1.999      3.694      1.828      1.982      1.878    157.531    126.551
   1725.750    338.297     22.742   -999.250    689.129      7.870      1.589      2.070      3.512      1.725      1.941      1.803    156.071    125.299
   1725.875    337.012     22.731   -999.250    699.327      7.480      1.435      2.203      3.251      1.625      1.864      1.719    154.701    124.160
   1726.000    341.246     22.856   -999.250    706.657      7.042      2.791      2.629      2.886      1.523      1.751      1.592    153.616    123.078
   1726.125    353.597     22.994   -999.250    712.378      7.262      1.699      2.935      2.725      1.423      1.647      1.483    152.520    121.975
   1726.250    353.597     23.131   -999.250    717.174      7.656      1.678      1.995      2.565      1.414      1.542      1.398    151.498    121.312
   1726.375    346.405     23.240   -999.250    713.908      8.042      1.521      1.797      2.408      1.441      1.514      1.318    151.182    121.310
   1726.500    338.297     23.179   -999.250    706.414      8.461      1.497      1.633      2.287      1.494      1.493      1.308    151.187    122.377
   1726.625    328.734     23.032   -999.250    698.919      9.045      1.419      1.511      2.336      1.546      1.521      1.320    151.191    123.669
   1726.750    316.488     22.884   -999.250    691.041      8.999      1.358      1.496      2.423      1.596      1.550      1.379    152.316    124.949
   1726.875    306.421     22.734   -999.250    686.579      9.380      1.395      1.654      2.511      1.648      1.643      1.438    153.492    126.243
   1727.000    321.721     22.742   -999.250    680.205      9.101      1.576      1.582      2.589      1.697      1.735      1.496    154.945    127.520
   1727.125    341.485     22.832   -999.250    673.831      9.303      1.617      1.638      2.585      1.750      1.826      1.554    156.344    128.632
   1727.250    332.559     23.006   -999.250    666.835      9.843      1.441      1.671      2.539      1.799      1.919      1.612    157.804    129.894
   1727.375    338.841     23.175   -999.250    660.338      9.612      1.327      1.491      2.375      1.848      1.951      1.665    159.085    131.175
   1727.500    370.811     23.240   -999.250    659.658      9.252      1.062      1.237      2.230      1.846      1.956      1.661    160.173    132.279
   1727.625    391.211     23.095   -999.250    668.423      9.644      1.261      1.360      2.087      1.742      1.820      1.565    161.623    133.398
   1727.750    410.337     22.115   -999.250    675.435      9.595      1.362      1.597      1.943      1.634      1.691      1.463    162.777    134.505
   1727.875    435.906     21.470   -999.250    682.447     10.102      1.207      1.402      1.799      1.530      1.557      1.361    163.912    135.303
   1728.000    453.689     21.303   -999.250    689.459      9.952      0.981      1.186      1.654      1.422      1.468      1.259    164.813    136.095
   1728.125    447.601     20.700   -999.250    696.471      9.516      0.911      0.973      1.618      1.339      1.442      1.206    165.634    136.732
   1728.250    438.857     19.707   -999.250    699.965      8.930      0.911      0.885      1.617      1.312      1.451      1.206    166.197    137.151
   1728.375    430.113     19.090   -999.250    701.239      9.452      0.985      0.946      1.655      1.314      1.472      1.203    166.652    137.507
   1728.500    421.812     19.106   -999.250    699.965      9.350      1.113      1.036      1.724      1.337      1.494      1.276    166.635    137.865
   1728.625    414.226     19.162   -999.250    696.135      9.022      1.056      1.125      1.792      1.390      1.513      1.364    166.643    138.161
   1728.750    410.337     19.172   -999.250    688.162      9.279      1.010      1.116      1.859      1.464      1.549      1.453    166.480    138.003
   1728.875    414.824     19.830   -999.250    680.189      9.158      1.138      1.061      1.925      1.517      1.618      1.542    166.175    137.365
   1729.000    426.785     20.854   -999.250    671.919      9.835      1.252      1.075      2.013      1.566      1.747      1.631    165.709    136.323
   1729.125    437.113     21.683   -999.250    664.271      9.281      1.177      1.126      2.114      1.645      1.873      1.716    165.270    135.282
   1729.250    427.032     22.487   -999.250    658.903     10.013      1.304      1.106      2.214      1.762      2.000      1.795    164.548    134.238
   1729.375    407.149     23.312   -999.250    652.160      9.432      1.267      1.162      2.315      1.865      2.127      1.882    163.400    133.203
   1729.500    388.024     23.862   -999.250    655.863      9.642      1.548      1.315      2.416      1.962      2.133      1.964    162.313    131.951
   1729.625    367.892     23.521   -999.250    662.712      9.084      1.179      1.514      2.516      2.065      2.085      1.967    160.724    130.847
   1729.750    351.891     22.885   -999.250    669.562      8.690      1.329      1.716      2.617      2.176      1.993      1.896    159.180    129.564
   1729.875    334.472     23.018   -999.250    677.018      8.307      1.660      1.865      2.719      2.126      1.912      1.772    157.358    128.464
   1730.000    334.472     23.333   -999.250    683.711      8.535      1.486      1.782      2.788      2.042      1.832      1.648    155.785    127.654
