~Version Information Block
 VERS.                2.00:     CWLS LOG ASCII STANDARD - VERSION 2.000000
 WRAP.                  NO:     One Line Per Depth Step
#
~Well Information Block
#MNEM.UNIT                     Data                         Information
#----------   ------------------------------------------   ----------------
 STRT.M                                        110.000:
 STOP.M                                       2506.000:
 STEP.M                                          0.125:
 NULL.                                        -999.250:
 COMP.                                   测井数据库导出:     COMPANY 
 WELL.                                         孤南152-9:     Well 
 FLD .                                                :     Field 
 LOC .                                                :     LOCATION
 CNTY.                                                :     COUNTY
 STAT.                                                :     STATE
 CTRY.                                                :     COUNTRY
 SRVC.                                                :     SERVICE COMPANY
 DATE.                                                :     DATE
 API .                                                :     API NUMBER
#
~Curve Information Block
#MNEM.UNIT       API CODE      Curve Description
#----------    -------------   -------------------
 DEPT.M                    :   Depth in Meters
 AC  .微秒/米                      :   AC
 CAL .厘米                      :   CAL
 COND.毫西门子/米                      :   COND
 GR  .API                      :   GR
 R25 .欧姆米                      :   R25
 R4  .欧姆米                      :   R4
 RFOC.欧姆米                      :   RFOC
 RILD.欧姆米                      :   RILD
 RILM.欧姆米                      :   RILM
 RLML.欧姆米                      :   RLML
 RNML.欧姆米                      :   RNML
 SP  .毫伏                      :   SP
#
~A  DEPTH          AC        CAL       COND         GR        R25         R4       RFOC       RILD       RILM       RLML       RNML         SP
# ...
   2224.000    265.000     21.100    327.128     63.200      8.280      9.160      5.704      3.057      3.969      7.360      4.600      2.750
   2224.125    273.000     21.300    317.775     63.200      8.720      9.800      3.534      3.147      3.912      1.720      1.320      3.000
   2224.250    285.000     21.400    308.689     63.600      8.400      9.360      2.843      3.240      3.969      1.480      1.320      3.000
   2224.375    293.000     21.300    308.689     63.600      7.320      8.080      2.885      3.240      4.027      1.900      1.380      3.000
   2224.500    295.000     21.200    313.199     66.800      6.000      6.360      3.102      3.193      4.027      1.460      1.400      2.500
   2224.625    292.000     21.300    322.418     69.200      4.840      5.000      3.240      3.102      3.969      1.780      1.400      2.500
   2224.750    291.000     21.300    327.128     67.600      4.040      4.160      3.287      3.057      3.912      1.720      1.420      2.250
   2224.875    289.000     21.300    327.128     64.400      3.560      3.560      3.240      3.057      3.912      1.600      1.400      2.250
   2225.000    288.000     21.200    317.775     62.000      3.240      3.160      3.335      3.147      3.969      1.760      1.420      2.250
   2225.125    286.000     21.300    308.689     62.400      3.040      2.920      3.433      3.240      4.086      2.020      1.580      2.750
   2225.250    283.000     21.100    299.863     62.400      2.880      2.720      3.384      3.335      4.145      2.260      1.780      2.750
   2225.375    281.000     21.100    282.960     58.800      2.840      2.600      3.240      3.534      4.393      1.820      1.600      2.750
   2225.500    279.000     21.100    270.912     56.000      2.840      2.600      3.193      3.691      4.862      1.820      1.400      2.500
   2225.625    276.000     21.100    263.166     57.200      2.920      2.600      3.638      3.800      5.382      1.540      1.400      2.500
   2225.750    271.000     21.100    263.166     61.600      2.960      2.720      4.792      3.800      5.621      2.000      2.020      2.250
   2225.875    265.000     21.100    263.166     67.200      3.160      2.720      6.044      3.800      5.621      3.520      3.460      2.000
   2226.000    264.000     21.300    267.011     70.000      3.440      2.720      5.957      3.745      5.382      4.760      3.600      1.750
   2226.125    268.000     21.500    270.912     71.600      3.880      2.840      4.934      3.691      5.006      3.480      2.660      1.250
   2226.250    273.000     21.700    278.886     72.000      4.480      2.840      4.393      3.586      4.588      3.340      2.640      1.250
   2226.375    281.000     21.600    287.095     72.000      5.080      2.840      3.691      3.483      4.267      3.320      2.540      1.500
   2226.500    289.000     21.800    299.863     71.600      5.640      2.720      3.102      3.335      4.027      2.640      1.740      1.750
   2226.625    295.000     22.000    308.689     71.200      6.200      2.640      2.843      3.240      3.912      1.040      1.240      2.000
   2226.750    299.000     21.500    322.418     71.200      6.480      2.640      2.802      3.102      3.745      1.480      1.280      2.500
   2226.875    299.000     21.600    331.908     72.000      6.560      2.600      2.843      3.013      3.586      1.160      1.180      2.500
   2227.000    299.000     21.700    341.677     75.200      6.480      2.600      2.802      2.927      3.534      1.260      1.260      2.500
   2227.125    299.000     22.000    346.669     80.400      6.280      2.800      2.762      2.885      3.534      1.160      1.140      2.500
   2227.250    299.000     21.800    346.669     83.600      6.160      2.800      2.843      2.885      3.586      0.700      1.040      2.500
   2227.375    298.000     21.800    341.677     81.600      6.080      2.920      3.013      2.927      3.586      1.080      1.220      2.000
   2227.500    295.000     21.700    341.677     76.000      6.040      3.000      3.102      2.927      3.638      1.540      1.280      2.000
   2227.625    294.000     21.800    341.677     72.000      6.000      3.280      3.147      2.927      3.638      1.100      1.160      1.750
   2227.750    293.000     21.600    336.757     71.600      6.000      3.680      3.193      2.970      3.691      1.100      1.300      1.750
   2227.875    294.000     21.500    336.757     70.800      6.000      3.880      3.193      2.970      3.691      1.920      1.400      1.750
   2228.000    294.000     21.700    336.757     67.200      6.000      4.440      3.147      2.970      3.638      1.260      1.180      1.750
   2228.125    294.000     21.400    336.757     65.600      5.960      5.120      3.147      2.970      3.586      1.240      1.260      1.500
   2228.250    296.000     21.400    341.677     68.400      5.920      5.720      3.102      2.927      3.483      1.240      1.320      1.500
   2228.375    297.000     21.600    346.669     71.600      5.960      6.160      2.970      2.885      3.433      0.640      0.880      1.750
   2228.500    301.000     21.800    346.669     71.600      6.000      6.440      2.927      2.885      3.384      0.660      0.920      2.250
   2228.625    303.000     21.800    351.734     70.400      5.960      6.560      2.927      2.843      3.335      0.860      1.060      2.500
   2228.750    305.000     22.300    356.873     69.200      5.800      6.520      2.885      2.802      3.287      1.240      1.060      2.750
   2228.875    307.000     22.500    362.087     68.000      5.640      6.520      2.802      2.762      3.240      0.840      1.040      2.750
   2229.000    307.000     22.300    367.377     67.200      5.400      6.440      2.722      2.722      3.287      1.000      1.080      3.000
   2229.125    307.000     22.700    367.377     66.800      5.280      6.440      2.644      2.722      3.287      0.840      0.880      3.000
   2229.250    307.000     22.700    372.744     66.000      5.280      6.440      2.762      2.683      3.240      0.720      0.880      3.000
   2229.375    305.000     22.500    378.190     66.000      5.240      6.640      2.843      2.644      3.193      0.720      0.960      3.000
   2229.500    304.000     22.200    378.190     67.200      5.240      6.640      2.843      2.644      3.147      1.040      1.000      3.000
   2229.625    304.000     22.700    378.190     68.400      5.160      6.520      2.644      2.644      3.147      0.780      0.920      3.250
   2229.750    305.000     23.100    372.744     68.400      4.960      6.280      2.644      2.683      3.193      0.600      0.840      3.000
   2229.875    303.000     22.800    372.744     68.000      4.680      6.000      2.762      2.683      3.240      0.840      0.900      3.000
   2230.000    301.000     22.700    367.377     67.600      4.520      5.720      2.885      2.722      3.240      1.000      0.960      2.750
   2230.125    300.000     22.700    367.377     67.600      4.400      5.600      2.970      2.722      3.240      0.980      1.000      2.750
   2230.250    299.000     22.800    367.377     66.800      4.280      5.400      2.970      2.722      3.287      0.820      0.960      2.750
   2230.375    300.000     23.000    367.377     66.000      4.160      5.120      2.927      2.722      3.335      0.900      1.020      2.750
   2230.500    299.000     23.600    367.377     65.200      4.000      4.920      2.927      2.722      3.384      1.100      1.020      2.500
   2230.625    298.000     24.000    367.377     65.600      4.000      4.800      2.970      2.722      3.384      0.720      0.960      2.500
   2230.750    299.000     24.100    372.744     66.000      3.920      4.800      3.057      2.683      3.335      0.800      1.040      2.500
   2230.875    301.000     22.800    378.190     68.000      4.080      4.800      3.102      2.644      3.193      1.380      1.280      2.500
