~Version Information Block
 VERS.                2.00:     CWLS LOG ASCII STANDARD - VERSION 2.000000
 WRAP.                  NO:     One Line Per Depth Step
#
~Well Information Block
#MNEM.UNIT                     Data                         Information
#----------   ------------------------------------------   ----------------
 STRT.M                                        110.000:
 STOP.M                                       2506.000:
 STEP.M                                          0.125:
 NULL.                                        -999.250:
 COMP.                                   测井数据库导出:     COMPANY 
 WELL.                                         孤南152-9:     Well 
 FLD .                                                :     Field 
 LOC .                                                :     LOCATION
 CNTY.                                                :     COUNTY
 STAT.                                                :     STATE
 CTRY.                                                :     COUNTRY
 SRVC.                                                :     SERVICE COMPANY
 DATE.                                                :     DATE
 API .                                                :     API NUMBER
#
~Curve Information Block
#MNEM.UNIT       API CODE      Curve Description
#----------    -------------   -------------------
 DEPT.M                    :   Depth in Meters
 AC  .微秒/米                      :   AC
 CAL .厘米                      :   CAL
 COND.毫西门子/米                      :   COND
 GR  .API                      :   GR
 R25 .欧姆米                      :   R25
 R4  .欧姆米                      :   R4
 RFOC.欧姆米                      :   RFOC
 RILD.欧姆米                      :   RILD
 RILM.欧姆米                      :   RILM
 RLML.欧姆米                      :   RLML
 RNML.欧姆米                      :   RNML
 SP  .毫伏                      :   SP
#
~A  DEPTH          AC        CAL       COND         GR        R25         R4       RFOC       RILD       RILM       RLML       RNML         SP
# ...
   1006.000    513.000     28.400    389.322     64.400      2.960      3.840      1.638      2.569      2.459      0.640      0.700    -12.000
   1006.125    539.000     29.000    406.637     65.200      2.840      3.560      1.662      2.459      2.424      0.620      0.760    -12.000
   1006.250    554.000     23.400    418.605     68.000      2.840      3.400      1.894      2.389      2.389      0.960      0.960    -12.000
   1006.375    555.000     23.000    437.222     71.200      2.880      3.480      2.007      2.287      2.287      0.980      0.960    -12.000
   1006.500    551.000     23.000    450.092     74.000      3.040      3.480      1.950      2.222      2.190      0.860      0.940    -12.250
   1006.625    549.000     23.800    456.667     78.000      3.080      3.480      1.840      2.190      2.097      0.900      0.900    -12.500
   1006.750    548.000     23.800    456.667     80.800      3.080      3.400      1.787      2.190      2.097      0.900      0.820    -12.500
   1006.875    546.000     24.500    456.667     84.800      3.040      3.200      1.840      2.190      2.097      0.720      0.840    -12.500
   1007.000    545.000     24.000    456.667     87.200      3.000      3.160      1.894      2.190      2.097      0.840      0.900    -12.500
   1007.125    547.000     22.500    443.610     88.000      3.000      3.080      1.922      2.254      2.097      0.820      0.820    -12.250
   1007.250    548.000     23.000    443.610     84.800      3.040      3.000      1.894      2.254      2.097      0.700      0.800    -12.000
   1007.375    548.000     24.100    443.610     80.800      3.040      3.000      1.840      2.254      2.097      0.780      0.840    -12.000
   1007.500    549.000     24.700    443.610     79.200      3.160      3.080      1.813      2.254      2.158      0.680      0.820    -12.000
   1007.625    551.000     24.400    456.667     80.000      3.240      3.160      1.840      2.190      2.158      0.680      0.860    -12.000
   1007.750    551.000     23.300    470.109     80.800      3.440      3.360      1.922      2.127      2.097      0.920      0.960    -12.000
   1007.875    551.000     24.800    491.016     81.600      3.600      3.480      1.978      2.037      2.007      0.960      0.820    -12.000
   1008.000    551.000     26.500    505.469     80.000      3.640      3.560      1.950      1.978      1.867      0.600      0.700    -12.000
   1008.125    551.000     24.500    520.347     78.400      3.640      3.560      1.762      1.922      1.736      0.640      0.700    -12.000
   1008.250    551.000     22.200    527.949     78.000      3.360      3.400      1.569      1.894      1.662      0.580      0.700    -12.000
   1008.375    555.000     21.500    535.663     78.400      3.080      3.160      1.569      1.867      1.615      0.560      0.680    -12.000
   1008.500    559.000     20.900    551.429     78.400      2.840      2.840      1.592      1.813      1.592      0.560      0.640    -12.250
   1008.625    561.000     20.900    551.429     76.800      2.600      2.720      1.638      1.813      1.569      0.560      0.640    -12.500
   1008.750    561.000     20.900    551.429     72.000      2.520      2.720      1.662      1.813      1.569      0.580      0.680    -12.500
   1008.875    561.000     20.900    551.429     72.000      2.520      2.720      1.662      1.813      1.569      0.640      0.720    -12.500
   1009.000    561.000     20.900    543.489     75.200      2.520      2.720      1.687      1.840      1.638      0.620      0.720    -12.500
   1009.125    561.000     21.200    535.663     78.800      2.560      2.720      1.687      1.867      1.662      0.580      0.720    -12.250
   1009.250    561.000     21.200    527.949     81.600      2.600      2.840      1.762      1.894      1.711      0.560      0.740    -12.000
   1009.375    562.000     21.200    520.347     85.200      2.640      3.000      1.840      1.922      1.736      0.560      0.740    -11.500
   1009.500    562.000     21.200    520.347     85.200      2.720      3.080      1.840      1.922      1.762      0.540      0.720    -11.500
   1009.625    564.000     21.600    520.347     81.600      2.800      3.200      1.894      1.922      1.762      0.540      0.720    -11.750
   1009.750    564.000     22.500    520.347     79.600      2.760      3.400      1.894      1.922      1.736      0.580      0.760    -11.750
   1009.875    566.000     23.400    520.347     81.600      2.800      3.400      1.840      1.922      1.687      0.600      0.760    -12.000
   1010.000    568.000     23.800    520.347     83.600      2.840      3.400      1.736      1.922      1.662      0.580      0.660    -12.000
   1010.125    568.000     22.800    512.854     84.000      2.840      3.480      1.687      1.950      1.638      0.580      0.620    -12.000
   1010.250    566.000     21.600    512.854     82.800      2.920      3.600      1.638      1.950      1.638      0.640      0.660    -12.000
   1010.375    564.000     22.400    505.469     81.600      3.040      3.600      1.615      1.978      1.662      0.620      0.700    -12.000
   1010.500    559.000     24.000    505.469     81.200      3.160      3.760      1.662      1.978      1.687      0.640      0.780    -12.000
   1010.625    553.000     23.800    505.469     81.600      3.160      3.960      1.736      1.978      1.711      0.700      0.800    -12.000
   1010.750    546.000     23.100    505.469     83.200      3.160      3.960      1.840      1.978      1.736      0.800      0.840    -12.000
   1010.875    541.000     23.100    498.190     85.600      3.160      3.960      1.922      2.007      1.762      0.940      0.940    -12.000
   1011.000    539.000     23.800    491.016     84.800      3.120      4.040      1.950      2.037      1.736      0.980      0.960    -12.000
   1011.125    540.000     25.900    491.016     81.600      2.960      3.840      1.867      2.037      1.736      0.860      0.800    -11.500
   1011.250    542.000     27.100    491.016     80.000      2.840      3.680      1.711      2.037      1.736      0.580      0.700    -11.500
   1011.375    543.000     28.200    498.190     78.000      2.600      3.480      1.687      2.007      1.736      0.720      0.760    -11.250
   1011.500    544.000     26.500    505.469     75.600      2.480      3.280      1.762      1.978      1.687      0.780      0.800    -11.500
   1011.625    545.000     25.000    520.347     73.600      2.360      3.160      1.840      1.922      1.662      0.820      0.820    -11.500
   1011.750    548.000     25.500    527.949     72.000      2.280      3.080      1.867      1.894      1.615      0.760      0.840    -12.000
   1011.875    550.000     25.500    527.949     70.000      2.200      3.000      1.840      1.894      1.569      0.820      0.820    -12.000
   1012.000    549.000     25.500    520.347     70.400      2.200      2.920      1.762      1.922      1.569      0.840      0.820    -12.000
   1012.125    545.000     25.200    520.347     73.200      2.160      2.840      1.736      1.922      1.592      0.840      0.820    -11.750
   1012.250    541.000     25.700    505.469     73.600      2.080      2.720      1.736      1.978      1.638      0.840      0.880    -11.250
   1012.375    535.000     25.800    491.016     70.000      2.080      2.720      1.687      2.037      1.687      0.900      0.880    -11.750
   1012.500    528.000     26.100    476.977     67.600      2.080      2.640      1.662      2.097      1.813      0.900      0.900    -12.000
   1012.625    521.000     26.200    463.339     69.600      2.160      2.640      1.711      2.158      1.922      1.000      0.960    -12.500
   1012.750    511.000     26.200    437.222     74.400      2.200      2.800      1.840      2.287      2.097      1.020      1.000    -12.500
   1012.875    500.000     25.300    412.578     76.400      2.280      2.840      1.894      2.424      2.254      0.980      0.980    -12.500
