~Version Information Block
 VERS.                2.00:     CWLS LOG ASCII STANDARD - VERSION 2.000000
 WRAP.                  NO:     One Line Per Depth Step
#
~Well Information Block
#MNEM.UNIT                     Data                         Information
#----------   ------------------------------------------   ----------------
 STRT.M                                        189.625:
 STOP.M                                       2185.000:
 STEP.M                                          0.125:
 NULL.                                        -999.250:
 COMP.                                   ²â¾®Êý¾Ý¿âµ¼³ö:     COMPANY 
 WELL.                                         ¹ÂÄÏ152-4:     Well 
 FLD .                                                :     Field 
 LOC .                                                :     LOCATION
 CNTY.                                                :     COUNTY
 STAT.                                                :     STATE
 CTRY.                                                :     COUNTRY
 SRVC.                                                :     SERVICE COMPANY
 DATE.                                                :     DATE
 API .                                                :     API NUMBER
#
~Curve Information Block
#MNEM.UNIT       API CODE      Curve Description
#----------    -------------   -------------------
 DEPT.M                    :   Depth in Meters
 AC  .Î¢Ãë/Ã×                      :   AC
 CAL .ÀåÃ×                      :   CAL
 CAL .ÀåÃ×                      :   CAL
 COND.mS/m                      :   COND
 GR  .Î¢ÂØÇÙ/Ð¡Ê±                      :   GR
 RLML.Å·Ä·Ã×                      :   RLML
 RNML.Å·Ä·Ã×                      :   RNML
 R04 .Å·Ä·Ã×                      :   R04
 R25 .Å·Ä·Ã×                      :   R25
 R25 .Å·Ä·Ã×                      :   R25
 R4  .Å·Ä·Ã×                      :   R4
 SP  .ºÁ·ü                      :   SP
 SP  .ºÁ·ü                      :   SP
#
~A  DEPTH          AC        CAL        CAL       COND         GR       RLML       RNML        R04        R25        R25         R4         SP         SP
# ...
   1060.625    411.612     23.433   -999.250    404.533      6.652      1.931      2.187      3.528      3.249      3.356      2.995    160.283    130.221
   1060.750    404.673     23.403   -999.250    406.126      7.050      1.999      2.047      3.481      3.298      3.405      3.074    160.252    130.367
   1060.875    397.988     23.283   -999.250    408.038      7.256      1.828      2.004      3.447      3.379      3.454      3.149    160.460    130.381
   1061.000    391.302     23.221   -999.250    410.269      6.897      2.731      2.459      3.388      3.455      3.503      3.224    160.585    130.525
   1061.125    389.936     23.980   -999.250    413.137      7.044      1.693      1.712      3.287      3.533      3.532      3.262    160.718    130.541
   1061.250    427.783     25.075   -999.250    416.324      7.520      1.851      1.813      3.017      3.579      3.486      3.225    160.834    130.685
   1061.375    465.167     25.799   -999.250    420.149      7.936      1.316      1.405      2.786      3.529      3.338      3.045    160.996    130.699
   1061.500    496.403     24.672   -999.250    424.292      8.045      1.583      1.503      2.609      3.361      3.137      2.869    161.194    130.845
   1061.625    511.066     23.713   -999.250    428.435      8.496      1.003      1.338      2.496      3.160      2.934      2.684    161.432    130.857
   1061.750    513.616     22.869   -999.250    433.853      8.934      1.226      1.276      2.381      2.958      2.725      2.533    161.697    130.847
   1061.875    504.053     22.550   -999.250    439.271      9.150      1.682      1.386      2.301      2.757      2.663      2.439    161.905    131.015
   1062.000    488.115     23.255   -999.250    443.095      8.776      1.424      1.278      2.255      2.587      2.666      2.372    162.134    131.087
   1062.125    473.452     22.178   -999.250    446.282      8.722      1.170      1.273      2.327      2.587      2.718      2.383    162.388    131.173
   1062.250    463.889     22.624   -999.250    448.194      8.372      1.546      1.330      2.413      2.692      2.821      2.446    162.534    131.247
   1062.375    454.326     23.589   -999.250    447.557      8.001      1.334      1.385      2.487      2.786      2.924      2.552    162.775    131.331
   1062.500    443.898     24.775   -999.250    443.477      7.998      1.257      1.489      2.560      2.880      3.027      2.648    162.850    131.407
   1062.625    438.388     24.797   -999.250    438.506      8.063      1.335      1.487      2.626      2.973      3.130      2.743    163.003    131.410
   1062.750    451.457     24.451   -999.250    433.534      7.483      1.713      1.445      2.688      3.067      3.234      2.839    163.137    131.567
   1062.875    463.251     24.311   -999.250    428.562      7.859      1.423      1.528      2.717      3.172      3.338      2.935    163.269    131.649
   1063.000    463.251     24.735   -999.250    423.591      7.766      1.764      1.537      2.716      3.274      3.441      3.030    163.299    131.647
   1063.125    466.439     25.297   -999.250    418.619      7.998      1.356      1.434      2.703      3.390      3.537      3.125    163.472    131.808
   1063.250    476.321     25.665   -999.250    416.962      7.850      1.735      1.430      2.646      3.527      3.533      3.186    163.454    131.807
   1063.375    488.912     25.129   -999.250    421.234      8.203      1.282      1.537      2.591      3.630      3.482      3.123    163.485    131.807
   1063.500    508.276     24.776   -999.250    425.297      7.860      1.429      1.410      2.536      3.629      3.360      3.031    163.607    131.967
   1063.625    531.885     24.997   -999.250    428.993      7.480      1.189      1.252      2.480      3.436      3.234      2.937    163.622    131.966
   1063.750    542.942     24.735   -999.250    432.518      7.651      1.094      1.179      2.424      3.190      3.105      2.857    163.735    131.967
   1063.875    520.298     23.727   -999.250    435.446      8.169      1.266      1.330      2.412      3.045      3.098      2.876    163.710    131.966
   1064.000    500.765     23.038   -999.250    435.446      8.541      1.662      1.431      2.432      3.018      3.102      2.904    163.648    131.968
   1064.125    481.232     23.731   -999.250    431.435      8.823      1.482      1.406      2.463      3.096      3.168      2.989    163.586    131.965
   1064.250    461.698     24.872   -999.250    427.797      8.660      1.402      1.423      2.568      3.171      3.232      3.071    163.527    131.969
   1064.375    442.165     25.838   -999.250    424.159      8.094      1.682      1.505      2.662      3.224      3.295      3.153    163.467    131.964
   1064.500    419.262     26.826   -999.250    420.520      7.835      1.484      1.544      2.755      3.278      3.302      3.236    163.407    131.890
   1064.625    427.610     28.035   -999.250    416.882      7.448      1.523      1.571      2.850      3.336      3.285      3.318    163.348    131.963
   1064.750    445.998     29.136   -999.250    413.244      7.691      1.481      1.550      2.869      3.400      3.235      3.391    163.295    131.971
   1064.875    465.801     28.179   -999.250    411.863      8.112      1.379      1.451      2.843      3.403      3.167      3.385    163.289    131.962
   1065.000    480.178     27.049   -999.250    413.137      7.716      1.512      1.583      2.713      3.335      3.116      3.286    163.170    131.971
   1065.125    497.893     26.132   -999.250    415.998      7.917      1.230      1.311      2.596      3.186      3.027      3.198    163.137    131.962
   1065.250    511.703     25.995   -999.250    418.859      8.358      1.437      1.449      2.485      3.031      2.945      3.110    163.106    131.812
   1065.375    508.276     25.706   -999.250    421.720      8.279      1.238      1.297      2.437      2.844      2.863      3.025    162.988    131.803
   1065.500    498.953     25.367   -999.250    424.582      8.496      1.856      1.381      2.408      2.802      2.812      2.945    162.946    131.813
   1065.625    488.327     24.960   -999.250    426.523      8.184      0.968      1.241      2.474      2.831      2.795      2.898    162.826    131.803
   1065.750    470.902     24.559   -999.250    425.248      8.151      1.157      1.222      2.552      2.865      2.820      2.854    162.818    131.812
   1065.875    456.876     24.150   -999.250    420.576      8.048      1.575      1.397      2.631      2.919      2.889      2.855    162.811    131.803
   1066.000    441.985     23.441   -999.250    414.984      7.973      1.325      1.292      2.713      2.992      2.953      2.854    162.690    131.653
   1066.125    425.000     23.005   -999.250    409.393      7.602      1.142      1.320      2.775      3.033      3.037      2.922    162.658    131.645
   1066.250    434.176     24.563   -999.250    404.851      7.139      1.187      1.129      2.831      3.120      3.120      3.017    162.674    131.572
   1066.375    445.401     25.914   -999.250    399.752      7.001      1.028      1.369      2.921      3.210      3.202      3.113    162.500    131.486
   1066.500    443.276     26.737   -999.250    395.290      6.773      1.494      1.162      2.998      3.324      3.347      3.208    162.505    131.492
   1066.625    436.024     26.292   -999.250    390.722      6.563      1.047      1.251      3.070      3.440      3.459      3.304    162.501    131.487
   1066.750    428.825     25.850   -999.250    386.579      6.628      1.276      1.431      3.165      3.579      3.608      3.400    162.455    131.332
   1066.875    419.262     25.496   -999.250    382.436      6.318      1.446      1.610      3.260      3.756      3.755      3.495    162.524    131.329
   1067.000    410.974     25.953   -999.250    378.718      6.295      1.785      1.804      3.357      3.922      3.908      3.591    162.338    131.331
