~Version Information Block
 VERS.                2.00:     CWLS LOG ASCII STANDARD - VERSION 2.000000
 WRAP.                  NO:     One Line Per Depth Step
#
~Well Information Block
#MNEM.UNIT                     Data                         Information
#----------   ------------------------------------------   ----------------
 STRT.M                                        195.000:
 STOP.M                                       2555.000:
 STEP.M                                          0.125:
 NULL.                                        -999.250:
 COMP.                                   ²â¾®Êý¾Ý¿âµ¼³ö:     COMPANY 
 WELL.                                        ¹ÂÄÏ152-08:     Well 
 FLD .                                                :     Field 
 LOC .                                                :     LOCATION
 CNTY.                                                :     COUNTY
 STAT.                                                :     STATE
 CTRY.                                                :     COUNTRY
 SRVC.                                                :     SERVICE COMPANY
 DATE.                                                :     DATE
 API .                                                :     API NUMBER
#
~Curve Information Block
#MNEM.UNIT       API CODE      Curve Description
#----------    -------------   -------------------
 DEPT.M                    :   Depth in Meters
 AC  .Î¢Ãë/Ã×                      :   AC
 CAL .ÀåÃ×                      :   CAL
 CAL .ÀåÃ×                      :   CAL
 COND.mS/m                      :   COND
 GR  .Î¢Â×ÇÙ                      :   GR
 RLML.Å·Ä·Ã×                      :   RLML
 RNML.Å·Ä·Ã×                      :   RNML
 R04 .Å·Ä·Ã×                      :   R04
 R25 .Å·Ä·Ã×                      :   R25
 R4  .Å·Ä·Ã×                      :   R4
 RFOC.Å·Ä·Ã×                      :   RFOC
 RILD.Å·Ä·Ã×                      :   RILD
 RILM.Å·Ä·Ã×                      :   RILM
 SP  .mv                      :   SP
 SP  .ºÁ·ü                      :   SP
#
~A  DEPTH          AC        CAL        CAL       COND         GR       RLML       RNML        R04        R25         R4       RFOC       RILD       RILM         SP         SP
# ...
   2196.000    318.429     27.050   -999.250    525.949      5.550      1.203      1.241      1.931      2.049      3.014      1.878      1.796      2.271     60.573     62.278
   2196.125    317.695     26.497   -999.250    516.456      5.869      0.718      1.089      1.530      2.163      3.014      1.480      1.890      2.169     61.122     63.222
   2196.250    319.163     24.186   -999.250    506.962      6.237      0.436      0.705      1.325      2.283      3.072      1.297      1.910      2.030     61.746     63.877
   2196.375    324.073     23.113   -999.250    497.468      6.657      1.139      1.127      1.455      2.402      3.159      1.390      1.890      2.072     62.487     64.664
   2196.500    346.329     22.896   -999.250    506.329      7.070      1.709      2.218      1.608      2.498      3.333      1.590      1.871      2.093     64.035     66.276
   2196.625    394.053     25.436   -999.250    517.722      7.483      2.282      2.038      1.572      2.585      3.391      1.606      1.796      2.115     65.403     68.188
   2196.750    355.874     28.005   -999.250    529.747      8.279      0.603      1.316      1.387      2.666      3.391      1.419      1.796      1.999     66.996     70.434
   2196.875    327.239     29.318   -999.250    532.911      8.193      0.679      0.846      1.214      2.417      3.333      1.266      1.796      1.843     68.380     72.991
   2197.000    339.201     30.195   -999.250    524.684      7.998      0.808      0.769      1.142      2.386      3.304      1.124      1.806      1.833     69.985     74.272
   2197.125    356.773     30.729   -999.250    520.253      8.236      0.615      1.190      1.218      2.418      3.304      1.159      1.852      1.815     71.320     74.914
   2197.250    373.495     31.181   -999.250    524.051      8.058      0.756      1.557      1.360      2.493      3.275      1.303      1.824      1.920     72.796     76.349
   2197.375    395.521     31.492   -999.250    539.241      8.153      1.544      1.139      1.487      2.594      3.304      1.430      1.796      2.010     74.267     77.316
   2197.500    425.624     31.831   -999.250    563.125      8.067      0.551      0.590      1.615      2.521      3.246      1.606      1.716      2.010     75.049     78.108
   2197.625    449.119     31.622   -999.250    601.316      7.449      0.744      0.718      1.685      2.432      3.246      1.707      1.656      1.900     75.698     78.918
   2197.750    437.280     28.414   -999.250    626.974      6.034      0.936      0.949      1.609      2.338      3.217      1.631      1.519      1.707     76.067     79.386
   2197.875    410.435     28.354   -999.250    648.684      6.120      0.692      0.692      1.359      2.484      3.362      1.344      1.421      1.519     76.399     79.718
   2198.000    378.381     29.897   -999.250    666.883      6.188      0.410      1.000      1.166      2.638      3.536      1.177      1.365      1.400     76.585     80.025
   2198.125    334.581     28.542   -999.250    748.125      6.540      0.808      1.405      1.110      2.750      3.652      1.107      1.284      1.323     76.701     80.038
   2198.250    349.878     27.444   -999.250    800.000      7.101      1.342      1.139      1.077      2.846      3.826      1.058      1.226      1.266     76.812     80.185
   2198.375    378.634     27.331   -999.250    821.795      6.999      0.885      0.756      1.085      2.647      3.797      1.058      1.136      1.207     76.901     80.197
   2198.500    391.116     27.605   -999.250    837.821      7.362      0.474      0.474      1.087      2.489      3.652      1.068      1.079      1.159     76.929     80.187
   2198.625    394.053     27.365   -999.250    848.077      8.006      1.215      1.215      1.136      2.339      3.478      1.096      1.047      1.107     76.886     80.198
   2198.750    380.208     27.476   -999.250    843.590      8.381      0.551      0.551      1.100      2.132      3.362      1.113      1.047      1.090     76.826     80.031
   2198.875    373.495     26.870   -999.250    823.077      8.760      0.731      0.782      1.072      2.059      3.246      1.102      1.096      1.090     76.734     79.878
   2199.000    376.432     25.723   -999.250    798.077      8.803      0.846      0.859      1.092      2.031      3.159      1.079      1.141      1.090     76.585     79.714
   2199.125    389.648     25.855   -999.250    780.769      8.804      0.718      1.557      1.066      1.984      3.072      1.065      1.196      1.090     76.394     79.234
   2199.250    400.615     26.732   -999.250    748.125      8.051      1.494      1.025      1.059      1.932      3.014      1.058      1.271      1.090     76.071     78.916
   2199.375    403.598     29.073   -999.250    698.052      8.356      0.577      0.564      1.110      1.831      2.928      1.090      1.337      1.181     75.639     78.590
   2199.500    400.661     30.188   -999.250    667.532      9.037      0.821      0.821      1.272      1.700      2.841      1.284      1.407      1.421     74.922     78.278
   2199.625    387.941     31.395   -999.250    631.579      8.554      0.628      0.744      1.314      1.549      2.696      1.274      1.606      1.590     73.957     77.467
   2199.750    369.090     32.054   -999.250    590.000      8.845      0.615      0.679      1.284      1.493      2.609      1.252      1.742      1.929     73.141     76.679
   2199.875    342.681     32.496   -999.250    552.500      8.441      0.577      0.526      1.288      1.447      2.580      1.245      1.890      2.072     72.487     76.183
   2200.000    321.471     31.541   -999.250    522.152      7.393      0.513      1.443      1.363      1.415      2.667      1.329      2.008      2.540     71.652     75.238
   2200.125    307.416     29.137   -999.250    463.291      6.446      1.266      1.291      1.793      1.395      2.783      1.689      2.072      2.992     70.749     74.581
   2200.250    276.579     27.237   -999.250    451.899      6.577      0.769      0.731      2.363      1.416      3.014      2.742      2.115      3.244     69.876     73.637
   2200.375    225.918     26.563   -999.250    450.633      6.903      0.885      0.923      5.090      1.498      3.333      7.634      2.115      3.448     68.778     72.981
   2200.500    209.765     25.752   -999.250    450.633      6.790      0.500      0.462      7.734      1.738      4.152      5.688      2.115      2.960     67.677     72.033
   2200.625    205.360     24.918   -999.250    452.532      6.374      1.278      1.342      2.053      2.005      5.873      2.957      2.115      2.619     66.295     71.222
   2200.750    214.170     23.920   -999.250    457.595      5.943      8.078      9.149      1.340      2.250      6.675      1.575      2.072      2.464     64.815     70.109
   2200.875    228.855     22.568   -999.250    471.519      5.670      6.987      8.169      1.485      3.215      7.403      1.351      2.030      2.390     63.411     68.824
   2201.000    269.647     22.207   -999.250    501.899      5.397      5.538      6.975      1.808      4.633      8.410      1.656      1.929      2.341     61.564     67.385
   2201.125    322.834     24.919   -999.250    526.582      5.125      4.076      1.228      1.953      6.047      9.974      1.912      1.806      2.341     59.581     65.786
   2201.250    355.874     27.056   -999.250    576.250      4.837      2.615      0.923      2.078      6.054      8.795      2.072      1.574      2.294     58.247     64.662
   2201.375    355.874     28.079   -999.250    660.390      4.945      0.538      0.628      2.187      4.823      7.299      2.072      1.443      2.248     56.588     63.069
   2201.500    336.050     27.701   -999.250    685.065      5.066      0.513      0.500      2.184      4.242      5.418      2.072      1.393      2.093     54.788     61.779
   2201.625    323.293     25.734   -999.250    700.625      5.081      0.590      0.564      2.025      2.015      4.456      1.999      1.358      1.999     52.734     60.350
